     2.11           OBSERVATION DATA    G (GPS)             RINEX VERSION / TYPE
teqc  2019Feb25                         20250819 20:56:34UTCPGM / RUN BY / DATE
Linux 2.6.32-573.12.1.x86_64|x86_64|gcc -static|Linux 64|=+ COMMENT
BIT 2 OF LLI FLAGS DATA COLLECTED UNDER A/S CONDITION       COMMENT
35233570                                                    MARKER NAME
3570                                                        MARKER NUMBER
-Unknown-           -Unknown-                               OBSERVER / AGENCY
0220413523          TRIMBLE R7          2.32                REC # / TYPE / VERS
-Unknown-           TRM39105.00     NONE                    ANT # / TYPE
 -2416964.9788 -4602397.0876  3684964.8163                  APPROX POSITION XYZ
        0.0000        0.0000        0.0000                  ANTENNA: DELTA H/E/N
     1     1                                                WAVELENGTH FACT L1/2
     7    L1    L2    C1    P1    P2    S1    S2            # / TYPES OF OBSERV
    18                                                      LEAP SECONDS
 SNR is mapped to RINEX snr flag value [0-9]                COMMENT
  L1 & L2: min(max(int(snr_dBHz/6), 0), 9)                  COMMENT
  2025     8     8     0     0   30.0000000     GPS         TIME OF FIRST OBS
                                                            END OF HEADER
 25  8  8  0  0 30.0000000  0 10G16G02G31G09G01G03G28G04G06G26
 -18045564.07857 -12909382.94154  22427650.0634                   22427650.6644
        42.5004         27.7504
 -11331574.75055  -8811511.85953  24959545.0474                   24959553.9304
        34.5004         18.5004
 -34811284.14557 -27064386.48056  21818603.9454                   21818602.3014
        46.2504         41.7504
 -12555690.89856  -9752208.62555  23893214.6884                   23893219.2384
        39.2504         33.0004
 -31000669.35557 -24102150.01654  22971854.8594                   22971857.4614
        42.7504         27.2504
 -50588474.79358 -39386732.79358  20091181.3204                   20091182.4494
        48.7504         50.2504
 -12560965.95356  -9762171.57053  24572788.9384                   24572791.0514
        38.5004         21.2504
 -41657732.36357 -32351193.99255  21341978.5234                   21341978.3094
        47.5004         34.0004
  -4747026.25056  -3668958.85254  25169842.8284                   25169847.9804
        37.5004         28.5004
 -33907715.62557 -26359089.09057  21646745.0554                   21646747.3554
        46.0004         42.5004
 25  8  8  0  1  0.0000000  0 10G16G02G31G09G01G03G28G04G06G26
 -18203392.66447 -13032366.13744  22397616.2894                   22397616.1724
        43.0004         27.7504
 -11314134.35545  -8797922.31243  24962863.1954                   24962872.7424
        34.7504         18.5004
 -34797408.83647 -27053574.57447  21821244.1174                   21821242.3554
        46.0004         42.0004
 -12702008.53546  -9866222.21545  23865371.4144                   23865375.6094
        40.5004         32.7504
 -30984097.22347 -24089236.81244  22975008.7974                   22975011.5434
        42.2504         27.5004
 -50663359.15648 -39445084.24248  20076931.1804                   20076932.3134
        49.5004         50.2504
 -12530936.97346  -9738772.40243  24578504.1484                   24578506.0394
        40.0004         22.0004
 -41768743.87148 -32437696.43445  21320853.7664                   21320853.5204
        48.0004         34.0004
  -4868727.74646  -3763791.15244  25146684.6174                   25146688.6914
        37.5004         28.2504
 -33984474.42647 -26418901.12147  21632138.3594                   21632140.5204
        46.2504         43.0004
 25  8  8  0  1 30.0000000  0 10G16G02G31G09G01G03G28G04G06G26
 -18360909.75047 -13155106.60244  22367641.3284                   22367641.9024
        43.0004         27.7504
 -11296795.69546  -8784412.10243  24966163.7584                   24966172.5354
        36.5004         19.0004
 -34783275.46147 -27042561.58247  21823933.4694                   21823931.9344
        46.2504         42.0004
 -12848314.02046  -9980226.34045  23837529.8134                   23837534.5354
        40.5004         33.5004
 -30967315.62547 -24076160.39544  22978202.1644                   22978204.8714
        42.5004         28.0004
 -50737701.17647 -39503013.08248  20062784.6414                   20062785.5314
        47.7504         50.2504
 -12500894.11746  -9715362.52743  24584223.0234                   24584223.1484
        40.2504         21.5004
 -41879619.90647 -32524093.28945  21299754.2894                   21299754.2934
        47.7504         34.2504
  -4989968.11346  -3858264.13344  25123612.6804                   25123617.5514
        38.0004         27.5004
 -34060628.69547 -26478242.07447  21617646.2894                   21617648.6914
        44.0004         42.7504
 25  8  8  0  2  0.0000000  0 10G16G02G31G09G01G03G28G04G06G26
 -18518117.23847 -13277605.83644  22337725.5084                   22337725.9104
        42.5004         27.0004
 -11279566.05946  -8770986.77743  24969442.7274                   24969450.8594
        37.0004         20.0004
 -34768891.01647 -27031352.93747  21826670.2274                   21826669.1684
        45.5004         42.0004
 -12994611.81646 -10094224.49245  23809690.6094                   23809694.8484
        40.0004         34.2504
 -30950332.39147 -24062926.87944  22981434.3524                   22981437.0124
        42.7504         27.2504
 -50811504.60548 -39560522.23848  20048739.7504                   20048740.9574
        49.0004         50.0004
 -12470843.92646  -9691946.87143  24589941.0234                   24589941.5044
        39.7504         21.5004
 -41990364.80947 -32610387.97745  21278680.1024                   21278680.5514
        47.5004         34.5004
  -5110750.40246  -3952380.16044  25100628.7424                   25100632.9534
        37.5004         27.7504
 -34136182.40247 -26537115.07447  21603269.2664                   21603271.1604
        45.7504         43.0004
 25  8  8  0  2 30.0000000  0 10G16G02G31G09G01G03G28G04G06G26
 -18675013.22747 -13399862.31644  22307869.2584                   22307869.3404
        43.7504         28.0004
 -11262449.53146  -8757649.60543  24972699.6334                   24972708.9614
        37.5004         21.0004
 -34754260.47747 -27019952.54746  21829455.0474                   21829453.4534
        45.5004         41.5004
 -13140903.60946 -10208217.94545  23781851.4064                   23781856.1174
        40.5004         34.0004
 -30933152.53147 -24049540.12944  22984703.8054                   22984705.7584
        43.0004         27.7504
 -50884770.30548 -39617612.37548  20034798.0554                   20034798.9494
        48.2504         50.2504
 -12440790.09046  -9668528.30943  24595659.3754                   24595660.5394
        41.2504         21.5004
 -42100980.13347 -32696581.69545  21257631.0004                   21257631.3164
        47.2504         34.2504
  -5231075.09446  -4046139.62144  25077731.4144                   25077735.9574
        36.5004         27.7504
 -34211136.91447 -26595521.15247  21589006.0394                   21589008.1054
        44.0004         42.7504
 25  8  8  0  3  0.0000000  0 10G16G02G31G09G01G03G28G04G06G26
 -18831592.73447 -13521872.19544  22278073.4924                   22278073.2274
        43.2504         29.2504
 -11245447.10546  -8744401.35943  24975935.7734                   24975945.2074
        37.2504         20.5004
 -34739384.49647 -27008360.89146  21832285.5314                   21832284.3324
        45.7504         41.7504
 -13287187.62546 -10322205.35545  23754015.3524                   23754019.2304
        40.5004         34.2504
 -30915777.59847 -24036001.36344  22988009.6724                   22988012.3874
        43.2504         27.7504
 -50957495.76648 -39674281.55948  20020958.6024                   20020960.0514
        49.7504         50.2504
 -12410732.45746  -9645106.96943  24601380.5004                   24601380.4924
        40.5004         21.0004
 -42211463.92247 -32782672.91445  21236606.7584                   21236606.4774
        46.7504         34.7504
  -5350939.04746  -4139540.07044  25054922.1484                   25054926.4024
        37.2504         27.5004
 -34285490.04747 -26653458.62947  21574856.8674                   21574859.0234
        46.0004         42.5004
 25  8  8  0  3 30.0000000  0 10G16G02G31G09G01G03G28G04G06G26
 -18987848.04747 -13643629.46144  22248338.6414                   22248338.9924
        43.0004         28.2504
 -11228557.12546  -8731240.71543  24979150.3364                   24979159.0004
        37.0004         20.7504
 -34724261.25447 -26996576.57046  21835163.7664                   21835162.2934
        45.0004         41.2504
 -13433459.41446 -10436183.23045  23726180.4454                   23726184.4384
        40.0004         33.7504
 -30898206.41447 -24022309.67644  22991354.1414                   22991356.2114
        42.2504         25.5004
 -51029675.87548 -39730525.79748  20007223.2504                   20007224.4844
        48.2504         50.2504
 -12380668.85946  -9621680.76243  24607098.5944                   24607101.8874
        37.5004         22.0004
 -42321811.65247 -32868658.11745  21215607.7734                   21215607.8714
        47.0004         34.2504
  -5470336.60246  -4232577.08644  25032200.7504                   25032205.5634
        37.7504         28.5004
 -34359237.01247 -26710923.76647  21560823.3444                   21560825.1644
        45.0004         43.0004
 25  8  8  0  4  0.0000000  0 10G16G02G31G09G01G03G28G04G06G26
 -19143773.48047 -13765129.68745  22218667.4534                   22218667.0204
        43.5004         30.2504
 -11211779.48846  -8718167.58643  24982343.2034                   24982352.1024
        37.0004         21.7504
 -34708891.38347 -26984600.07846  21838088.3134                   21838086.9264
        44.5004         41.0004
 -13579716.39146 -10550149.54745  23698348.0634                   23698352.3794
        40.0004         34.0004
 -30880439.90646 -24008465.78144  22994734.4144                   22994737.2504
        41.7504         26.5004
 -51101307.35948 -39786342.52748  19993592.2664                   19993593.1954
        48.7504         50.2504
 -12350598.48046  -9598249.41043  24612823.9924                   24612823.9774
        41.0004         21.2504
 -42432020.59047 -32954535.17245  21194635.8984                   21194636.1334
        47.0004         34.2504
  -5589264.00046  -4325247.76244  25009569.5784                   25009574.1094
        38.5004         28.2504
 -34432375.02747 -26767914.39847  21546905.5474                   21546907.3954
        44.0004         42.7504
 25  8  8  0  4 30.0000000  0 10G16G02G31G09G01G03G28G04G06G26
 -19299367.61347 -13886371.74244  22189058.1644                   22189058.9574
        43.5004         29.2504
 -11195118.58646  -8705185.43743  24985514.1414                   24985523.0274
        38.5004         21.5004
 -34693278.88747 -26972434.51646  21841059.2584                   21841057.8754
        45.2504         41.2504
 -13725960.36346 -10664105.74645  23670518.9534                   23670523.0784
        40.0004         34.5004
 -30862483.06246 -23994473.60944  22998151.4454                   22998155.0514
        40.5004         26.5004
 -51172391.30948 -39841732.62148  19980065.6804                   19980066.5904
        48.2504         50.5004
 -12320524.96146  -9574815.51243  24618544.6564                   24618546.3134
        37.7504         21.7504
 -42542092.33247 -33040305.33245  21173690.0474                   21173689.8554
        46.7504         34.5004
  -5707721.77746  -4417552.48844  24987028.4844                   24987032.6914
        37.7504         27.7504
 -34504905.57047 -26824431.68047  21533103.4224                   21533105.4104
        44.5004         43.2504
 25  8  8  0  5  0.0000000  0 10G16G02G31G09G01G03G28G04G06G26
 -19454623.55547 -14007350.29744  22159514.1254                   22159514.0744
        44.5004         29.0004
 -11178573.66046  -8692293.66043  24988662.8134                   24988671.6454
        39.2504         21.7504
 -34677423.37947 -26960079.60247  21844076.8754                   21844075.1174
        45.2504         42.0004
 -13872187.63346 -10778048.92245  23642693.0084                   23642696.8094
        40.2504         34.0004
 -30844335.60946 -23980332.90644  23001605.7974                   23001608.2814
        40.5004         25.7504
 -51242923.49248 -39896692.76248  19966643.7424                   19966644.7504
        49.5004         50.2504
 -12290446.67646  -9551377.99243  24624270.3204                   24624270.2384
        40.5004         21.0004
 -42652023.12547 -33125965.65245  21152770.6254                   21152770.4264
        47.2504         34.5004
  -5825705.11346  -4509487.52044  24964577.4614                   24964581.2344
        37.7504         27.0004
 -34576824.72747 -26880472.54747  21519417.4774                   21519419.4224
        45.0004         42.7504
 25  8  8  0  5 30.0000000  0 10G16G02G31G09G01G03G28G04G06G26
 -19609539.29347 -14128063.74644  22130034.5634                   22130034.7464
        43.5004         29.0004
 -11162148.58646  -8679495.32443  24991788.4144                   24991797.9304
        39.0004         22.5004
 -34661328.80147 -26947538.39146  21847139.3054                   21847138.2384
        45.7504         41.2504
 -14018399.39146 -10891980.02745  23614869.1804                   23614873.7234
        39.7504         34.0004
 -30826002.18446 -23966047.28544  23005094.4614                   23005097.1604
        41.0004         26.5004
 -51312904.39848 -39951223.33248  19953326.5554                   19953327.5704
        48.5004         50.2504
 -12260366.76646  -9527939.14143  24629992.7584                   24629994.9264
        39.5004         21.5004
 -42761813.97347 -33211516.92645  21131878.4064                   21131877.8914
        47.7504         34.5004
  -5943213.94546  -4601052.82844  24942216.4844                   24942220.5354
        37.7504         27.2504
 -34648133.51247 -26936037.80947  21505847.9144                   21505850.3984
        44.5004         43.0004
 25  8  8  0  6  0.0000000  0 10G16G02G31G09G01G03G28G04G06G26
 -19764109.95747 -14248508.31644  22100620.0784                   22100620.7304
        43.2504         29.5004
 -11145844.28946  -8666791.04743  24994891.5004                   24994900.8244
        39.5004         21.7504
 -34644996.05547 -26934811.59846  21850247.3524                   21850245.9884
        45.7504         41.5004
 -14164593.96246 -11005897.73745  23587049.2114                   23587053.5204
        40.7504         34.0004
 -30807484.36746 -23951617.99644  23008618.8054                   23008621.7664
        40.5004         26.0004
 -51382331.86747 -40005322.65648  19940115.4384                   19940116.2384
        47.7504         50.2504
 -12230285.23846  -9504499.08243  24635717.0084                   24635718.8524
        38.7504         21.0004
 -42871463.09447 -33296957.77045  21111012.8984                   21111012.6724
        47.2504         35.0004
  -6060245.48446  -4692246.19944  24919945.6564                   24919950.3284
        37.7504         27.7504
 -34718830.07047 -26991126.00447  21492394.9144                   21492396.7734
        44.0004         42.7504
 25  8  8  0  6 30.0000000  0 10G16G02G31G09G01G03G28G04G06G26
 -19918331.73847 -14368681.01244  22071273.3834                   22071273.4844
        43.7504         28.5004
 -11129662.39846  -8654182.15243  24997970.6804                   24997981.2304
        39.2504         21.5004
 -34628426.96547 -26921900.64846  21853400.4534                   21853399.1564
        45.5004         41.2504
 -14310770.25046 -11119801.21545  23559233.2504                   23559237.0124
        40.2504         33.7504
 -30788784.58646 -23937046.92244  23012176.8204                   23012180.0904
        40.0004         26.5004
 -51451204.21948 -40058989.42648  19927009.0394                   19927010.2624
        49.2504         50.5004
 -12200203.12546  -9481058.59043  24641442.9144                   24641443.5594
        38.7504         21.2504
 -42980969.25447 -33382287.21945  21090174.6644                   21090174.3134
        47.2504         34.2504
  -6176797.49246  -4783065.93444  24897766.0164                   24897771.3954
        37.5004         28.5004
 -34788913.22747 -27045736.22747  21479058.4384                   21479060.5204
        46.2504         43.0004
 25  8  8  0  7  0.0000000  0 10G16G02G31G09G01G03G28G04G06G26
 -20072203.96147 -14488581.33244  22041991.8984                   22041992.2814
        43.7504         29.0004
 -11113608.04346  -8641672.66443  25001026.4694                   25001036.2114
        40.5004         22.5004
 -34611626.84047 -26908809.66047  21856597.5164                   21856596.0984
        45.2504         42.0004
 -14456931.10246 -11233692.65245  23531419.2894                   23531423.0984
        40.2504         33.5004
 -30769908.89146 -23922338.78544  23015769.1334                   23015772.4024
        39.7504         25.5004
 -51519523.71148 -40112225.39148  19914008.3754                   19914009.7814
        50.0004         50.2504
 -12170125.08646  -9457621.15643  24647164.4774                   24647167.3554
        37.7504         21.7504
 -43090335.08247 -33467507.31245  21069362.6094                   21069362.4144
        47.7504         34.7504
  -6292871.79346  -4873513.43044  24875677.6334                   24875682.8794
        36.7504         29.0004
 -34858385.66847 -27099870.57847  21465838.1414                   21465840.1294
        46.7504         43.0004
 25  8  8  0  7 30.0000000  0 10G16G02G31G09G01G03G28G04G06G26
 -20225721.75447 -14608205.46944  22012778.8054                   22012778.4734
        44.2504         28.7504
 -11097682.67646  -8629263.64543  25004056.6954                   25004067.1214
        39.0004         21.7504
 -34594597.10247 -26895539.75846  21859838.1804                   21859836.7774
        45.5004         41.5004
 -14603075.02046 -11347570.91845  23503607.9614                   23503612.5864
        40.5004         33.7504
 -30750859.22346 -23907495.06644  23019393.9064                   23019397.7774
        39.7504         25.7504
 -51587288.37948 -40165029.02748  19901113.3364                   19901114.1994
        48.2504         50.2504
 -12140051.40645  -9434187.17243  24652886.3674                   24652890.1954
        34.5004         21.5004
 -43199558.96547 -33552616.79745  21048577.8364                   21048578.0474
        47.5004         35.0004
  -6408465.77046  -4963586.63344  24853680.8674                   24853685.9264
        38.0004         29.0004
 -34927245.88347 -27153527.86747  21452734.7424                   21452736.7544
        46.5004         43.2504
 25  8  8  0  8  0.0000000  0 10G16G02G31G09G01G03G28G04G06G26
 -20378879.84047 -14727549.30944  21983633.5164                   21983633.4884
        44.5004         29.7504
 -11081886.68046  -8616955.44143  25007063.7114                   25007073.0394
        39.5004         22.5004
 -34577338.55147 -26882091.55146  21863121.7114                   21863121.0274
        46.7504         41.5004
 -14749199.60546 -11461434.10945  23475801.8204                   23475806.1094
        40.7504         33.7504
 -30731636.63346 -23892516.60944  23023051.6564                   23023055.5044
        40.5004         25.2504
 -51654495.38747 -40217398.12148  19888324.2734                   19888325.2194
        47.7504         50.5004
 -12109981.73846  -9410756.43443  24658613.1884                   24658612.2734
        39.0004         19.7504
 -43308638.40648 -33637613.73445  21027821.0944                   21027821.0664
        48.0004         35.7504
  -6523576.02746  -5053282.92244  24831775.7584                   24831781.1684
        37.5004         27.7504
 -34995491.43747 -27206706.19547  21439747.5634                   21439749.7464
        44.0004         43.0004
 25  8  8  0  8 30.0000000  0 10G16G02G31G09G01G03G28G04G06G26
 -20531675.94547 -14846611.09444  21954557.1024                   21954556.8444
        44.0004         29.0004
 -11066223.19546  -8604750.52343  25010043.8594                   25010054.1804
        39.2504         21.2504
 -34559854.38347 -26868467.55946  21866449.5474                   21866448.1524
        46.5004         41.5004
 -14895305.51746 -11575282.76445  23447999.3984                   23448002.8754
        41.0004         33.5004
 -30712245.23847 -23877406.60544  23026742.6724                   23026745.5554
        42.0004         27.2504
 -51721144.97748 -40269332.85948  19875641.2504                   19875642.3324
        50.0004         50.2504
 -12079918.68046  -9387330.68743  24664332.7274                   24664333.9774
        39.2504         21.5004
 -43417573.89147 -33722498.50045  21007091.3594                   21007091.1094
        47.5004         34.2504
  -6638202.23846  -5142602.02044  24809963.3754                   24809967.9804
        39.2504         28.0004
 -35063123.09447 -27259406.16847  21426877.8134                   21426880.1174
        45.7504         43.0004
 25  8  8  0  9  0.0000000  0 10G16G02G31G09G01G03G28G04G06G26
 -20684105.21547 -14965387.02344  21925550.9304                   21925550.5824
        44.5004         29.2504
 -11050693.07446  -8592649.51243  25012999.5004                   25013010.2814
        39.7504         21.0004
 -34542145.72747 -26854668.62546  21869819.3674                   21869818.0704
        46.0004         41.0004
 -15041391.08646 -11689115.55145  23420199.5944                   23420203.3954
        40.0004         34.2504
 -30692686.65246 -23862166.32844  23030464.2664                   23030467.5434
        41.5004         25.5004
 -51787234.98848 -40320831.57048  19863064.6024                   19863065.6994
        48.5004         50.2504
 -12049862.23446  -9363910.13343  24670050.3914                   24670052.8714
        36.5004         21.0004
 -43526363.60247 -33807269.66845  20986389.1334                   20986389.1844
        47.5004         35.5004
  -6752341.68446  -5231541.82444  24788243.5084                   24788247.9104
        37.7504         29.0004
 -35130139.08647 -27311626.39547  21414125.4064                   21414127.3794
        46.7504         42.7504
 25  8  8  0  9 30.0000000  0 11G16G02G31G09G01G03G28G04G06G26G07
 -20836166.42247 -15083876.16444  21896614.4694                   21896614.2274
        43.7504         29.0004
 -11035301.09046  -8580656.14543  25015929.2504                   25015939.3834
        39.2504         21.5004
 -34524217.05947 -26840698.26246  21873231.1724                   21873229.8554
        46.2504         40.7504
 -15187458.12946 -11802933.91445  23392403.9774                   23392408.0514
        40.7504         34.2504
 -30672966.09447 -23846799.85544  23034217.2034                   23034220.0744
        43.0004         26.2504
 -51852766.87948 -40371895.37948  19850594.6954                   19850595.3874
        49.7504         50.2504
 -12019816.19946  -9340497.74243  24675769.2114                   24675770.2504
        37.0004         19.0004
 -43635009.19947 -33891928.53945  20965714.7114                   20965714.2774
        47.7504         34.5004
  -6865995.19546  -5320102.98444  24766616.1564                   24766620.8484
        38.5004         29.2504
 -35196541.33247 -27363368.38347  21401488.9384                   21401491.0554
        45.7504         42.7504
   -210102.48456   -126588.52754  25158171.9844                   25158180.6294
        38.0004         26.2504
 25  8  8  0 10  0.0000000  0 11G16G02G31G09G01G03G28G04G06G26G07
 -20987859.05147 -15202078.10544  21867748.5704                   21867748.5314
        44.2504         29.5004
 -11020052.57046  -8568774.53143  25018831.2344                   25018841.1484
        39.0004         21.0004
 -34506074.06247 -26826560.89846  21876683.8594                   21876682.1254
        45.7504         40.7504
 -15333509.44546 -11916740.02045  23364611.9304                   23364615.0044
        40.7504         34.7504
 -30653089.87947 -23831312.10244  23038000.3364                   23038003.1524
        42.7504         26.7504
 -51917743.09448 -40422526.19148  19838229.7664                   19838230.8284
        49.5004         50.0004
 -11989785.27046  -9317097.07443  24681483.9064                   24681484.9494
        38.0004         19.5004
 -43743513.33247 -33976477.17245  20945066.9224                   20945067.1024
        47.2504         35.0004
  -6979164.71946  -5408287.00045  24745081.0314                   24745085.3634
        38.5004         30.5004
 -35262332.79347 -27414634.43447  21388969.8444                   21388971.5554
        46.5004         42.5004
   -365185.99245   -247432.47744  25128654.8834                   25128669.4184
        31.0004         24.2504
 25  8  8  0 10 30.0000000  0 11G16G02G31G09G01G03G28G04G06G26G07
 -21139183.30547 -15319993.00445  21838952.2424                   21838951.8014
        44.0004         30.2504
 -11004953.29346  -8557009.23043  25021704.5314                   25021714.7034
        39.7504         20.2504
 -34487722.74247 -26812261.19946  21880175.6094                   21880174.5704
        46.0004         40.5004
 -15479548.13346 -12030536.28545  23336820.7504                   23336824.5474
        41.0004         34.5004
 -30633064.54747 -23815708.12944  23041811.0944                   23041814.2854
        42.7504         27.2504
 -51982166.48848 -40472726.23448  19825970.3914                   19825971.5434
        49.5004         50.0004
 -11959774.45346  -9293712.09443  24687195.2584                   24687196.4224
        38.0004         20.0004
 -43851879.05147 -34060917.94945  20924445.4614                   20924445.3674
        47.5004         35.2504
  -7091852.40246  -5496095.56644  24723636.7664                   24723641.9844
        37.7504         29.7504
 -35327516.77347 -27465427.12147  21376565.4844                   21376567.9454
        46.0004         43.0004
   -520143.87955   -368178.50854  25099170.7114                   25099180.3244
        35.5004         25.0004
 25  8  8  0 11  0.0000000  0 11G16G02G31G09G01G03G28G04G06G26G07
 -21290138.71947 -15437620.48444  21810226.3914                   21810226.4304
        43.7504         27.7504
 -10990008.44946  -8545364.22743  25024548.8054                   25024559.2854
        38.5004         19.5004
 -34469168.06247 -26797803.03946  21883706.1884                   21883705.0554
        45.7504         40.2504
 -15625576.58246 -12144324.55145  23309032.7894                   23309036.1374
        40.7504         34.5004
 -30612895.87947 -23799992.48844  23045649.1174                   23045652.1564
        43.0004         27.7504
 -52046039.07048 -40522497.07448  19813815.8054                   19813816.9534
        50.0004         50.2504
 -11929787.92646  -9270346.00843  24692900.6024                   24692903.1914
        36.5004         20.0004
 -43960108.54347 -34145252.58245  20903850.3134                   20903850.6214
        47.5004         35.5004
  -7204059.78546  -5583529.87145  24702283.5704                   24702289.6564
        38.2504         30.0004
 -35392095.81647 -27515748.43047  21364276.4384                   21364278.7734
        45.5004         42.7504
   -674975.58255   -488826.19953  25069706.9774                   25069716.4024
        34.5004         23.2504
 25  8  8  0 11 30.0000000  0 11G16G02G31G09G01G03G28G04G06G26G07
 -21440718.35947 -15554955.17244  21781571.8674                   21781571.4844
        43.7504         29.2504
 -10975216.20746  -8533838.17243  25027363.1724                   25027374.5474
        38.5004         19.7504
 -34450408.96147 -26783185.59046  21887275.8674                   21887274.9884
        45.7504         40.5004
 -15771590.93046 -12258101.83645  23281246.6094                   23281250.4184
        40.2504         33.5004
 -30592583.39147 -23784164.77044  23049514.2504                   23049518.5554
        42.5004         27.5004
 -52109356.68748 -40571835.47748  19801767.0474                   19801767.9654
        50.0004         50.2504
 -11899823.67645  -9246997.32443  24698601.6804                   24698604.7424
        35.0004         20.2504
 -44068197.75047 -34229477.89545  20883281.2504                   20883281.6024
        47.5004         35.5004
  -7315782.09046  -5670586.19545  24681024.1884                   24681029.4144
        38.0004         30.0004
 -35456066.21547 -27565595.47347  21352103.2344                   21352105.1884
        46.5004         42.7504
   -829677.69145   -609372.68744  25040267.7114                   25040278.4414
        35.5004         26.0004
 25  8  8  0 12  0.0000000  0 11G16G02G31G09G01G03G28G04G06G26G07
 -20015480.02347 -14444379.74244  22052785.2114                   22052785.0554
        44.0004         29.7504
  -9385146.31646  -7294823.01643  25329943.8984                   25329955.0744
        38.5004         19.5004
 -32856015.18747 -25540800.87946  22190679.4924                   22190678.3094
        46.2504         41.0004
 -14342152.37146 -11144253.46945  23553259.9384                   23553263.5594
        39.5004         33.7504
 -28996697.31647 -22540617.38344  23353200.6094                   23353205.1884
        42.7504         27.2504
 -50596683.09448 -39393128.78548  20089619.2584                   20089620.5044
        49.2504         50.2504
 -10294450.71945  -7996057.34043  25004094.2274                   25004097.2074
        34.7504         19.5004
 -42600709.00847 -33085980.12545  21162535.1094                   21162535.1884
        47.2504         35.5004
  -5851580.91446  -4529650.20744  24959651.9224                   24959657.3554
        38.5004         29.7504
 -33943992.22747 -26387355.98447  21639841.1884                   21639843.2504
        46.0004         42.5004
    591189.44945    497797.01243  25310648.0164                   25310659.0904
        34.0004         22.7504
 25  8  8  0 12 30.0000000  0 10G16G31G09G01G03G28G04G06G26G07
 -20165267.32447 -14561096.99645  22024281.2894                   22024281.4264
        44.2504         30.0004
 -32836823.86347 -25525846.63746  22194331.5314                   22194330.2274
        45.7504         40.7504
 -14488106.78946 -11257984.02045  23525485.4224                   23525489.5234
        39.7504         34.2504
 -28976075.85947 -22524548.92644  23357125.8524                   23357129.0044
        42.5004         25.5004
 -50658858.42248 -39441577.08648  20077787.4224                   20077788.4774
        49.5004         50.2504
 -10264504.97745  -7972723.10543  25009793.1024                   25009796.1954
        35.5004         19.7504
 -42708485.58247 -33169961.83246  21142025.7114                   21142026.0704
        47.2504         36.0004
  -5962298.90246  -4615923.94545  24938583.7504                   24938588.5434
        39.0004         30.0004
 -34006714.46547 -26436230.44547  21627905.2584                   21627907.8404
        46.0004         42.5004
    436780.04345    377478.45743  25281263.7814                   25281274.9184
        33.5004         22.7504
 25  8  8  0 13  0.0000000  0 10G16G31G09G01G03G28G04G06G26G07
 -20314648.92647 -14677498.12545  21995855.1024                   21995854.7074
        44.5004         30.5004
 -32817416.02347 -25510723.67646  22198024.2504                   22198023.0164
        45.7504         40.0004
 -14634026.48846 -11371687.51645  23497717.6484                   23497721.6954
        39.5004         34.0004
 -28955300.28146 -22508360.37944  23361079.9454                   23361082.6644
        41.0004         25.2504
 -50720457.53548 -39489576.39848  20066065.9534                   20066066.9844
        49.5004         50.2504
 -10234566.48046  -7949394.38743  25015490.4774                   25015491.8874
        36.7504         18.2504
 -42816100.82847 -33253817.81645  21121547.3754                   21121547.4804
        47.0004         35.0004
  -6072508.83246  -4701801.78945  24917611.9384                   24917615.9414
        38.7504         31.0004
 -34068808.36347 -26484615.28147  21616089.4064                   21616091.4804
        45.5004         42.2504
    282522.70346    257278.46944  25251911.7894                   25251919.8284
        37.0004         24.2504
 25  8  8  0 13 30.0000000  0 10G16G31G09G01G03G28G04G06G26G07
 -20463622.19147 -14793581.07844  21967506.4844                   21967506.3324
        43.7504         29.7504
 -32797794.22347 -25495433.99646  22201758.3984                   22201757.2854
        45.0004         40.7504
 -14779911.35946 -11485363.87545  23469956.5554                   23469960.1174
        39.0004         34.0004
 -28934374.02047 -22492054.39144  23365061.6564                   23365065.1884
        42.0004         26.5004
 -50781480.18048 -39537126.50848  20054453.5634                   20054454.3444
        50.2504         50.2504
 -10204637.03545  -7926072.89843  25021187.0164                   25021188.5394
        35.5004         19.0004
 -42923554.56247 -33337547.94945  21101100.0554                   21101099.6564
        47.5004         35.5004
  -6182209.82446  -4787283.07445  24896735.9304                   24896740.2464
        39.0004         30.5004
 -34130274.18047 -26532510.69947  21604393.0554                   21604394.8324
        46.2504         42.2504
    128417.81346    137197.18843  25222587.0084                   25222594.7584
        38.2504         22.2504
 25  8  8  0 14  0.0000000  0 10G16G31G09G01G03G28G04G06G26G07
 -20612174.52347 -14909336.02745  21939237.2034                   21939237.4064
        44.2504         30.0004
 -32777951.83647 -25479972.43446  22205534.1564                   22205533.3794
        46.0004         41.0004
 -14925751.89546 -11599005.67245  23442203.9224                   23442207.8054
        39.7504         34.7504
 -28913290.94147 -22475626.21944  23369073.4614                   23369077.3554
        42.2504         25.2504
 -50841916.67248 -39584219.87548  20042952.6484                   20042953.9024
        49.5004         50.0004
 -10174708.87545  -7902752.28543  25026880.2664                   25026883.8954
        33.7504         19.5004
 -43030837.04748 -33421144.64545  21080684.4064                   21080684.3674
        48.0004         35.2504
  -6291391.59846  -4872359.76245  24875959.8054                   24875964.2074
        39.0004         30.7504
 -34191102.73047 -26579909.54747  21592817.9304                   21592819.8364
        45.5004         43.0004
    -25524.52346     17242.58644  25193294.8834                   25193300.6804
        40.0004         27.7504
 25  8  8  0 14 30.0000000  0 10G16G31G09G01G03G28G04G06G26G07
 -20760303.63347 -15024761.20344  21911050.2344                   21911049.4224
        43.5004         29.7504
 -32757892.37147 -25464341.71546  22209351.1484                   22209350.5664
        46.0004         40.7504
 -15071548.84046 -11712613.50845  23414459.7034                   23414463.5004
        38.2504         34.2504
 -28892055.25847 -22459079.14844  23373115.4844                   23373118.7664
        42.2504         26.2504
 -50901767.68048 -39630857.02048  20031563.6414                   20031564.5824
        49.0004         50.0004
 -10144784.74645  -7879434.69943  25032574.9224                   25032578.2194
        34.5004         18.2504
 -43137948.91847 -33504608.40245  21060301.5314                   21060301.4774
        47.5004         35.5004
  -6400054.22746  -4957031.91445  24855281.3284                   24855286.3634
        38.5004         30.5004
 -34251295.19947 -26626812.75047  21581363.5864                   21581365.7814
        46.5004         42.7504
   -179303.36755    -82608.26654  25164026.8914                   25164036.3634
        35.2504         25.2504
 25  8  8  0 15  0.0000000  0 10G16G31G09G01G03G28G04G06G26G07
 -20908005.52347 -15139853.48845  21882943.1884                   21882942.6914
        45.0004         30.2504
 -32737617.18047 -25448542.90646  22213209.7894                   22213208.7664
        46.0004         40.5004
 -15217300.92646 -11826186.39145  23386723.2974                   23386727.7504
        38.5004         34.0004
 -28870669.16847 -22442414.88744  23377185.1644                   23377188.3634
        43.0004         26.5004
 -50961031.82848 -39677036.87148  20020286.1024                   20020287.2114
        49.5004         49.7504
 -10114864.96546  -7856120.70343  25038269.6884                   25038271.5434
        36.2504         19.2504
 -43244888.73447 -33587938.08645  21039951.5314                   21039951.1804
        47.2504         35.5004
  -6508195.73846  -5041298.02345  24834703.1334                   24834707.4344
        38.0004         31.0004
 -34310850.73447 -26673219.64547  21570030.4614                   21570032.6484
        46.5004         43.0004
   -332918.84045   -202308.27343  25134793.7034                   25134804.3284
        34.2504         22.7504
 25  8  8  0 15 30.0000000  0 10G16G31G09G01G03G28G04G06G26G07
 -21055279.60247 -15254612.39845  21854917.8134                   21854916.8674
        44.0004         30.5004
 -32717131.64547 -25432580.19146  22217108.5944                   22217107.0704
        46.5004         40.5004
 -15363010.53546 -11939726.16845  23358995.5784                   23358999.8284
        37.7504         34.5004
 -28849138.50047 -22425637.98044  23381282.8674                   23381285.9494
        43.2504         27.2504
 -51019711.48848 -39722761.27348  20009119.5164                   20009120.2894
        50.2504         50.0004
 -10084953.94146  -7832813.52343  25043961.5394                   25043964.4344
        36.2504         18.5004
 -43351658.76647 -33671135.46945  21019634.2034                   21019633.7704
        47.0004         35.0004
  -6615817.80946  -5125159.37544  24814222.5634                   24814227.6644
        38.2504         29.7504
 -34369772.26647 -26719132.50847  21558818.1334                   21558819.9884
        47.0004         43.0004
   -486372.07046   -321881.62544  25105595.2584                   25105602.6374
        40.7504         29.0004
 25  8  8  0 16  0.0000000  0 10G16G31G09G01G03G28G04G06G26G07
 -21202123.39547 -15369036.02745  21826974.0474                   21826973.3284
        44.5004         30.0004
 -32696439.04347 -25416456.12946  22221046.1414                   22221044.8134
        46.2504         40.2504
 -15508678.27046 -12053233.32845  23331275.9304                   23331279.6564
        37.7504         34.0004
 -28827467.33647 -22408751.57844  23385405.9534                   23385409.8634
        42.2504         25.0004
 -51077807.21948 -39768030.66848  19998064.6564                   19998065.3014
        50.5004         50.2504
 -10055054.01245  -7809514.84442  25049650.8914                   25049652.8164
        34.5004         17.7504
 -43458259.45347 -33754200.89845  20999348.4454                   20999348.3324
        47.5004         35.2504
  -6722920.57446  -5208616.07445  24793842.7584                   24793846.9734
        37.5004         30.5004
 -34428060.91447 -26764552.21947  21547726.0004                   21547728.1604
        46.7504         42.7504
   -639662.98446   -441328.64844  25076421.4844                   25076431.8594
        37.0004         26.0004
 25  8  8  0 16 30.0000000  0 10G16G31G09G01G03G28G04G06G26G07
 -21348534.02747 -15483122.14145  21799112.9694                   21799112.3284
        45.5004         31.0004
 -32675542.02747 -25400172.77746  22225022.2274                   22225021.3834
        46.2504         39.7504
 -15654304.02346 -12166707.77345  23303564.5164                   23303568.3594
        39.5004         34.2504
 -28805659.05547 -22391758.35244  23389556.6024                   23389560.0234
        42.2504         25.2504
 -51135318.89548 -39812844.96148  19987120.0474                   19987121.5124
        50.0004         50.0004
 -10025166.96545  -7786226.32843  25055337.2734                   25055341.0274
        33.7504         18.5004
 -43564690.50447 -33837134.15245  20979095.0554                   20979095.2234
        47.5004         35.2504
  -6829503.11746  -5291667.38344  24773559.9614                   24773565.2074
        37.7504         29.7504
 -34485717.08647 -26809479.09847  21536754.5784                   21536756.6294
        46.0004         43.2504
   -792790.75846   -560648.61344  25047283.6094                   25047291.9734
        40.5004         27.0004
 25  8  8  0 17  0.0000000  0 10G16G31G09G01G03G28G04G06G26G07
 -21494508.32447 -15596868.24645  21771334.9384                   21771334.6684
        46.0004         31.2504
 -32654442.67647 -25383731.76646  22229038.1644                   22229036.3324
        46.2504         39.5004
 -15799887.23046 -12280149.06245  23275860.6804                   23275864.0704
        40.0004         35.0004
 -28783716.53147 -22374660.50043  23393732.1174                   23393736.2194
        42.0004         23.5004
 -51192246.06648 -39857203.79348  19976287.4224                   19976288.3874
        50.0004         50.2504
  -9995293.98846  -7762948.76643  25061024.6804                   25061025.5514
        37.2504         18.2504
 -43670951.25047 -33919934.69945  20958874.6254                   20958874.3524
        47.5004         35.0004
  -6935564.50846  -5374312.62145  24753377.1564                   24753382.0004
        38.2504         30.7504
 -34542740.85947 -26853913.19147  21525903.0394                   21525905.0314
        46.5004         42.5004
   -945754.75846   -679840.87944  25018175.8054                   25018182.2234
        40.0004         26.2504
 25  8  8  0 17 30.0000000  0 10G16G31G09G01G03G28G04G06G26G07
 -21640043.64147 -15710272.28545  21743639.7274                   21743639.3524
        46.0004         31.2504
 -32633144.57447 -25367135.87546  22233090.4694                   22233089.3984
        45.2504         40.0004
 -15945428.48846 -12393557.66845  23248165.3914                   23248168.4924
        40.5004         35.2504
 -28761643.86747 -22357461.27044  23397933.1334                   23397935.6484
        42.0004         24.0004
 -51248589.35548 -39901107.64548  19965565.6484                   19965566.4184
        50.0004         50.2504
  -9965437.58246  -7739684.01642  25066704.5474                   25066706.6024
        36.2504         16.2504
 -43777042.14547 -34002602.89145  20938685.9844                   20938685.7194
        47.2504         35.5004
  -7041104.68746  -5456551.70745  24733293.6644                   24733298.1884
        37.7504         30.2504
 -34599133.47747 -26897855.48047  21515172.0004                   21515174.0704
        46.0004         42.7504
  -1098555.27046   -798905.84044  24989096.4774                   24989104.8404
        38.5004         25.5004
 25  8  8  0 18  0.0000000  0 10G16G31G09G01G03G28G04G06G26G07
 -21785138.43747 -15823333.07445  21716029.4774                   21716029.4694
        44.7504         30.5004
 -32611651.71947 -25350388.23446  22237180.6484                   22237179.1884
        45.2504         39.5004
 -16090928.98446 -12506934.51245  23220477.1804                   23220480.6214
        40.7504         35.2504
 -28739445.74647 -22340164.24244  23402156.9774                   23402160.8874
        42.0004         25.0004
 -51304350.02748 -39944557.52748  19954954.7424                   19954955.5354
        50.0004         50.2504
  -9935600.60546  -7716434.51642  25072382.6254                   25072385.1214
        37.0004         17.2504
 -43882964.15247 -34085139.48845  20918529.8284                   20918529.6094
        47.7504         34.7504
  -7146124.41046  -5538385.23045  24713309.1414                   24713313.6844
        39.0004         30.0004
 -34654896.69147 -26941307.32447  21504561.0394                   21504562.5164
        46.5004         43.2504
  -1251192.71146   -917843.65244  24960051.4384                   24960058.4614
        39.5004         25.5004
 25  8  8  0 18 30.0000000  0 10G16G31G09G01G03G28G04G06G26G07
 -21929789.62547 -15936048.19145  21688503.2814                   21688503.2584
        45.0004         31.0004
 -32589966.00447 -25333490.31246  22241307.3754                   22241306.1094
        45.7504         39.5004
 -16236388.03546 -12620279.07445  23192797.8284                   23192800.4454
        39.7504         35.5004
 -28717124.99647 -22322771.68443  23406405.1884                   23406408.0394
        43.0004         23.5004
 -51359527.61748 -39987553.04748  19944454.7894                   19944455.7384
        50.5004         50.2504
  -9905784.30146  -7693201.08642  25078056.2584                   25078059.3954
        37.5004         17.7504
 -43988716.55947 -34167543.92645  20898405.5634                   20898405.3324
        47.2504         35.0004
  -7250622.40246  -5619812.20745  24693424.1804                   24693428.2734
        38.0004         30.5004
 -34710030.62947 -26984268.81647  21494068.9144                   21494071.1604
        47.0004         43.0004
  -1403665.84446  -1036653.46944  24931037.4844                   24931043.8914
        40.7504         26.7504
 25  8  8  0 19  0.0000000  0 10G16G31G09G01G03G28G04G06G26G07
 -22073998.29347 -16048418.49245  21661061.2664                   21661060.3094
        45.2504         30.5004
 -32568094.61347 -25316447.71546  22245469.3674                   22245467.7114
        46.0004         38.5004
 -16381809.98046 -12733594.71546  23165124.1564                   23165127.4494
        40.0004         36.2504
 -28694689.36746 -22305289.59444  23410673.8834                   23410678.4884
        41.5004         25.2504
 -51414126.49248 -40030097.62548  19934064.9924                   19934066.1724
        50.0004         50.2504
  -9875994.71546  -7669988.43742  25083725.1954                   25083728.7034
        37.0004         17.2504
 -44094303.44147 -34249819.38745  20878313.1174                   20878313.1334
        47.2504         35.7504
  -7354602.58646  -5700835.69945  24673636.6644                   24673641.5664
        37.7504         30.0004
 -34764540.24247 -27026743.82847  21483696.1804                   21483698.3014
        46.5004         42.5004
  -1555978.57446  -1155338.36344  24902051.5004                   24902059.8524
        38.5004         27.7504
 25  8  8  0 19 30.0000000  0 10G16G31G09G01G03G28G04G06G26G07
 -22217759.62147 -16160440.19945  21633704.4454                   21633703.7194
        45.2504         30.7504
 -32546037.65647 -25299260.50846  22249666.2664                   22249665.2344
        45.2504         39.0004
 -16527192.51246 -12846879.65646  23137458.7424                   23137461.8444
        40.0004         36.7504
 -28672140.05947 -22287718.96143  23414965.6174                   23414969.4734
        42.0004         23.7504
 -51468144.65248 -40072189.70348  19923785.5394                   19923786.5704
        49.7504         50.2504
  -9846231.47346  -7646796.34442  25089388.8834                   25089391.4184
        37.5004         16.7504
 -44199722.41847 -34331964.02046  20858252.6724                   20858252.3164
        46.7504         36.0004
  -7458062.24246  -5781453.58645  24653948.4454                   24653953.7194
        37.5004         30.5004
 -34818424.06647 -27068731.21947  21473442.4694                   21473444.6764
        46.0004         42.5004
  -1708128.77746  -1273896.56244  24873097.1254                   24873106.4344
        38.5004         27.7504
 25  8  8  0 20  0.0000000  0 10G16G31G09G01G03G28G04G06G26G07
 -22361072.21947 -16272112.27045  21606432.3364                   21606432.0044
        44.5004         30.5004
 -32523800.01247 -25281932.52046  22253897.8754                   22253897.0944
        45.0004         39.2504
 -16672537.16046 -12960135.07846  23109800.6094                   23109803.6844
        39.2504         36.7504
 -28649482.16047 -22270063.69543  23419277.4924                   23419281.3524
        42.0004         23.7504
 -51521583.75848 -40113830.56248  19913616.4774                   19913617.2274
        50.0004         50.0004
  -9816497.73446  -7623627.22342  25095047.4224                   25095048.8594
        37.5004         16.7504
 -44304974.83247 -34413978.85946  20838223.8284                   20838223.2814
        47.2504         36.2504
  -7561002.48446  -5861666.73844  24634360.0554                   24634364.8554
        38.0004         29.0004
 -34871684.42647 -27110232.77347  21463307.3524                   21463309.3014
        46.5004         43.0004
  -1860117.05546  -1392328.61744  24844174.2584                   24844183.2194
        38.5004         26.5004
 25  8  8  0 20 30.0000000  0 10G16G31G09G01G03G28G04G06G26G07
 -22503931.10947 -16383430.79745  21579247.5314                   21579246.7504
        45.5004         30.7504
 -32501381.76247 -25264463.80146  22258164.2274                   22258162.9104
        44.7504         39.0004
 -16817841.45346 -13073359.06646  23082150.2584                   23082153.0084
        40.2504         36.7504
 -28626716.65246 -22252324.59444  23423609.2344                   23423613.5864
        39.5004         24.7504
 -51574441.62948 -40155018.52048  19903557.6954                   19903558.8554
        50.2504         50.0004
  -9786792.94146  -7600480.65242  25100700.1094                   25100702.1954
        37.5004         16.2504
 -44410058.04747 -34495861.85245  20818226.9454                   20818226.7544
        47.0004         35.5004
  -7663420.46946  -5941472.91445  24614870.9774                   24614875.7774
        37.2504         30.5004
 -34924319.63347 -27151247.20347  21453291.2664                   21453292.9264
        46.2504         42.5004
  -2011940.96146  -1510632.53144  24815284.1724                   24815291.4964
        39.2504         26.0004
 25  8  8  0 21  0.0000000  0 10G16G31G09G01G03G28G04G06G26G07
 -22646337.34447 -16494396.60545  21552148.3914                   21552147.5784
        45.5004         31.0004
 -32478789.41447 -25246859.42246  22262463.2034                   22262462.6764
        44.5004         38.7504
 -16963109.12546 -13186554.52346  23054505.8754                   23054509.1374
        39.5004         36.5004
 -28603850.86346 -22234507.36744  23427960.5784                   23427965.5744
        41.5004         24.0004
 -51626722.31248 -40195756.71948  19893608.9304                   19893610.5274
        49.5004         50.0004
  -9757122.62946  -7577361.00842  25106345.5084                   25106347.9774
        37.5004         16.7504
 -44514975.71947 -34577615.85246  20798261.8524                   20798261.6374
        47.0004         36.0004
  -7765319.64546  -6020874.85245  24595479.5784                   24595484.4494
        37.0004         30.5004
 -34976334.34847 -27191778.13747  21443393.4304                   21443394.8444
        47.0004         42.7504
  -2163603.57046  -1628810.82844  24786423.7114                   24786430.7034
        41.0004         26.0004
 25  8  8  0 21 30.0000000  0 10G16G31G09G01G03G28G04G06G26G07
 -22788283.42647 -16605003.85945  21525137.0554                   21525135.9694
        45.0004         31.5004
 -32456021.18047 -25229117.98446  22266796.2344                   22266795.2114
        44.0004         38.2504
 -17108335.66846 -13299717.93446  23026870.5314                   23026873.3204
        41.2504         36.2504
 -28580883.68046 -22216611.10544  23432331.4844                   23432336.3444
        41.2504         24.5004
 -51678421.55148 -40236041.84448  19883771.0394                   19883772.3954
        49.7504         50.0004
  -9727483.93746  -7554265.93742  25111985.4224                   25111987.9224
        36.5004         16.7504
 -44619723.15247 -34659237.19545  20778329.1334                   20778329.0864
        47.2504         35.2504
  -7866695.03546  -6099868.63745  24576188.9064                   24576193.4774
        36.5004         31.0004
 -35027724.94547 -27231822.73847  21433613.2894                   21433615.8244
        47.0004         42.7504
  -2315100.12146  -1746859.73844  24757593.3914                   24757601.5474
        39.7504         27.5004
 25  8  8  0 22  0.0000000  0 10G16G31G09G01G03G28G04G06G26G07
 -22929766.71947 -16715250.48845  21498213.3984                   21498212.8444
        44.7504         31.0004
 -32433079.93047 -25211241.74246  22271162.6884                   22271160.6724
        45.5004         38.5004
 -17253521.02346 -13412849.26246  22999242.4534                   22999245.5594
        41.0004         36.2504
 -28557818.59846 -22198638.56244  23436720.8524                   23436725.4534
        40.2504         25.7504
 -51729539.61348 -40275874.10548  19874043.9304                   19874044.8484
        50.2504         50.2504
  -9697878.69546  -7531196.94542  25117619.8594                   25117621.5514
        38.0004         17.2504
 -44724300.12947 -34740725.72346  20758428.7114                   20758428.3834
        47.2504         36.2504
  -7967546.51646  -6178454.17245  24556998.1414                   24557001.6804
        36.7504         31.0004
 -35078492.31647 -27271381.71147  21423952.7734                   21423955.1334
        46.7504         42.5004
  -2466430.06646  -1864778.82444  24728795.8204                   24728804.6484
        37.2504         27.5004
 25  8  8  0 22 30.0000000  0 10G16G31G09G01G03G28G04G06G26G07
 -23070782.46947 -16825132.80945  21471378.8444                   21471378.5164
        43.7504         31.5004
 -32409966.07847 -25193230.97346  22275559.6484                   22275559.3404
        45.0004         38.7504
 -17398663.05547 -13525946.83646  22971622.6954                   22971625.7814
        42.5004         37.0004
 -28534656.98046 -22180590.81244  23441128.3364                   23441133.1214
        41.5004         25.7504
 -51780074.74248 -40315252.12548  19864427.0164                   19864428.1134
        49.5004         50.0004
  -9668306.56646  -7508153.76642  25123246.8364                   25123249.9144
        38.5004         16.2504
 -44828704.35247 -34822079.62945  20738561.0164                   20738560.9304
        46.5004         35.5004
  -8067871.54746  -6256629.48845  24537906.1804                   24537910.7194
        37.0004         30.5004
 -35128635.22347 -27310454.10247  21414410.9144                   21414413.1884
        46.7504         42.5004
  -2617591.16446  -1982566.34444  24700028.7734                   24700038.5234
        36.7504         27.2504
 25  8  8  0 23  0.0000000  0 10G16G31G09G01G03G28G04G06G26G07
 -23211325.31647 -16934646.63745  21444634.6804                   21444633.8284
        45.0004         31.5004
 -32386679.20347 -25175085.42646  22279991.9224                   22279990.2544
        44.0004         38.7504
 -17543758.89147 -13639008.41846  22944011.9844                   22944014.6764
        42.5004         37.5004
 -28511399.55146 -22162468.37944  23445554.5864                   23445558.9694
        41.0004         24.5004
 -51830024.53548 -40354174.04348  19854921.9454                   19854923.2304
        50.5004         50.0004
  -9638766.49646  -7485135.60542  25128868.1644                   25128870.9574
        37.0004         16.2504
 -44932932.92647 -34903296.67245  20718727.2814                   20718727.0704
        46.7504         35.7504
  -8167667.09046  -6334392.20745  24518915.8444                   24518919.7344
        37.5004         30.2504
 -35178151.90247 -27349038.52347  21404988.3754                   21404990.7274
        45.5004         42.2504
  -2768580.09846  -2100219.59044  24671300.7584                   24671305.6334
        41.2504         24.7504
 25  8  8  0 23 30.0000000  0 10G16G31G09G01G03G28G04G06G26G07
 -21775968.46947 -15816186.67245  21717773.6334                   21717773.6134
        44.5004         31.0004
 -30787804.19147 -23929208.83246  22584248.0394                   22584246.6094
        44.7504         39.0004
 -16113384.32047 -12524430.73446  23216203.1414                   23216205.7854
        43.0004         36.5004
 -26912631.21146 -20916675.11744  23749789.9534                   23749794.6414
        39.5004         24.5004
 -50303968.36348 -39165039.35948  20145321.2034                   20145322.4104
        50.2504         50.0004
  -8033841.70746  -6234544.91443  25434276.2894                   25434277.9064
        38.5004         18.2504
 -43461562.75047 -33756774.42245  20998719.5864                   20998719.5164
        46.2504         34.7504
  -6691510.23446  -5184140.09044  24799819.3134                   24799823.0394
        37.2504         29.0004
 -33651622.35947 -26159534.98447  21695476.8984                   21695479.0004
        46.7504         42.2504
  -1343972.23446   -990135.21944  24942392.8914                   24942399.3054
        41.2504         26.5004
 25  8  8  0 24  0.0000000  0 10G16G31G09G01G03G28G04G06G26G07
 -21915560.34047 -15924959.46945  21691210.1884                   21691210.1054
        44.2504         31.5004
 -30764183.46147 -23910803.11746  22588742.2114                   22588741.5514
        44.2504         38.5004
 -16258390.46147 -12637422.42246  23188609.3674                   23188612.1134
        42.5004         36.7504
 -26889195.30146 -20898413.60243  23754249.4844                   23754254.7304
        39.5004         22.2504
 -50352751.42248 -39203052.14148  20136037.9064                   20136038.8954
        49.7504         50.0004
  -8004373.54346  -6211582.70342  25439883.7504                   25439885.4694
        39.2504         17.2504
 -43565442.08247 -33837719.32446  20978952.1724                   20978951.7774
        46.5004         36.0004
  -6790248.85945  -5261079.26644  24781029.6334                   24781034.0704
        35.7504         29.5004
 -33699892.35947 -26197147.96147  21686291.6884                   21686293.6764
        46.5004         42.5004
  -1494618.95746  -1107521.93744  24913725.2584                   24913731.6414
        41.0004         26.0004
 25  8  8  0 24 30.0000000  0 10G16G31G09G01G03G28G04G06G26G07
 -22054670.63747 -16033357.03145  21664738.4844                   21664738.0704
        44.5004         31.7504
 -30740397.87147 -23892268.93746  22593268.4454                   22593267.6134
        43.5004         38.7504
 -16403349.99247 -12750377.80146  23161024.4304                   23161027.1524
        42.5004         37.0004
 -26865673.67246 -20880085.32843  23758725.9924                   23758731.1724
        39.7504         22.5004
 -50400950.05548 -39240609.52048  20126866.1024                   20126867.1054
        50.0004         50.0004
  -7974942.26646  -6188649.30942  25445484.6254                   25445485.6644
        38.5004         17.7504
 -43669144.85947 -33918526.64845  20959217.5164                   20959217.6254
        46.0004         35.5004
  -6888457.07445  -5337605.10544  24762341.4384                   24762345.3554
        35.7504         29.2504
 -33747538.87147 -26234275.10547  21677225.1094                   21677226.8674
        46.5004         42.5004
  -1645092.23846  -1224773.43744  24885091.8674                   24885097.5044
        40.7504         25.7504
 25  8  8  0 25  0.0000000  0 10G16G31G09G01G03G28G04G06G26G07
 -22193296.17247 -16141376.84045  21638358.7734                   21638358.4304
        45.5004         32.2504
 -30716449.04347 -23873607.57046  22597826.0474                   22597825.0204
        45.0004         38.5004
 -16548261.77347 -12863295.97746  23133448.4614                   23133451.2814
        43.0004         37.2504
 -26842068.79346 -20861692.17244  23763218.2424                   23763223.4614
        40.2504         24.0004
 -50448563.68048 -39277711.04348  20117805.4224                   20117806.3244
        48.7504         50.0004
  -7945548.61346  -6165745.19142  25451076.9144                   25451078.8634
        38.0004         16.7504
 -43772669.78147 -33999195.38745  20939517.9064                   20939517.3914
        45.7504         35.5004
  -6986133.60245  -5413716.66044  24743753.9924                   24743758.5554
        35.7504         29.5004
 -33794561.95747 -26270916.46147  21668276.5084                   21668278.7344
        45.2504         42.5004
  -1795390.82846  -1341888.89544  24856489.5084                   24856495.9924
        39.7504         26.2504
 25  8  8  0 25 30.0000000  0 10G16G31G09G01G03G28G04G06G26G07
 -22331433.81647 -16249016.47745  21612072.3444                   21612071.5824
        45.0004         32.2504
 -30692339.19947 -23854820.72746  22602414.8364                   22602412.6414
        44.7504         38.7504
 -16693125.25447 -12976176.51246  23105881.7114                   23105884.8014
        42.7504         37.7504
 -26818383.53146 -20843236.40643  23767725.6724                   23767730.2584
        41.0004         23.7504
 -50495592.25448 -39314356.69548  20108856.5004                   20108857.0004
        49.7504         50.0004
  -7916193.65246  -6142871.20343  25456662.6724                   25456665.2154
        38.5004         19.0004
 -43876016.17247 -34079725.01245  20919851.3204                   20919851.6524
        46.0004         35.5004
  -7083277.77346  -5489413.39845  24725268.2194                   24725272.3914
        36.2504         30.0004
 -33840962.19947 -26307072.49247  21659446.6884                   21659448.7934
        45.0004         42.0004
  -1945514.12146  -1458867.72344  24827920.5634                   24827928.2734
        37.0004         26.7504
 25  8  8  0 26  0.0000000  0 10G16G31G09G01G03G28G04G06G26G07
 -22469079.23447 -16356272.55545  21585878.6884                   21585878.2464
        44.7504         32.2504
 -30668069.55147 -23835909.36746  22607032.7894                   22607031.3014
        45.5004         38.5004
 -16837938.64847 -13089018.03146  23078324.8204                   23078327.5744
        43.0004         37.2504
 -26794619.74646 -20824719.42643  23772247.2734                   23772252.7624
        39.7504         22.5004
 -50542034.66448 -39350545.59048  20100018.4224                   20100019.4884
        49.2504         50.0004
  -7886877.48046  -6120027.41842  25462242.5084                   25462244.2234
        38.0004         16.7504
 -43979182.15647 -34160114.05546  20900219.7194                   20900219.3054
        46.2504         36.2504
  -7179887.87546  -5564693.97344  24706883.5784                   24706887.9534
        37.2504         29.7504
 -33886739.04347 -26342742.75447  21650736.0004                   21650737.6684
        45.0004         42.0004
  -2095459.99246  -1575708.28144  24799386.6954                   24799393.7814
        38.2504         26.7504
 25  8  8  0 26 30.0000000  0 10G16G31G09G01G03G28G04G06G26G07
 -22606230.86747 -16463143.87545  21559779.6174                   21559779.4224
        45.0004         32.7504
 -30643643.53547 -23816876.14546  22611681.1254                   22611679.4924
        45.0004         37.5004
 -16982702.79347 -13201821.15246  23050777.1884                   23050779.8674
        43.0004         37.2504
 -26770781.78146 -20806144.65243  23776783.7274                   23776789.1564
        39.0004         22.5004
 -50587892.30548 -39386278.82048  20091292.1254                   20091292.7074
        49.5004         50.0004
  -7857602.53946  -6097215.80542  25467812.9534                   25467814.5004
        37.5004         17.2504
 -44082168.37547 -34240363.03145  20880621.8524                   20880621.6914
        45.2504         35.5004
  -7275964.64146  -5639558.94945  24688601.5314                   24688604.8634
        38.0004         30.5004
 -33931894.56247 -26377928.86746  21642143.2114                   21642144.8714
        45.2504         41.7504
  -2245228.92246  -1692410.96944  24770885.9384                   24770894.1604
        38.0004         27.7504
 25  8  8  0 27  0.0000000  0 10G16G31G09G01G03G28G04G06G26G07
 -22742883.46947 -16569626.34045  21533775.7034                   21533774.8484
        45.0004         33.0004
 -30619061.20747 -23797721.11346  22616358.1884                   22616357.3914
        43.5004         38.2504
 -17127415.03547 -13314583.83246  23023239.0314                   23023241.7814
        42.7504         37.5004
 -26746870.45746 -20787512.71543  23781334.5704                   23781339.4844
        39.2504         21.5004
 -50633163.14148 -39421554.80548  20082677.4144                   20082678.0204
        49.2504         50.0004
  -7828368.02046  -6074435.71542  25473376.1644                   25473377.9534
        37.2504         17.2504
 -44184972.00847 -34320469.72346  20861058.9924                   20861058.7034
        45.5004         36.0004
  -7371505.41846  -5714006.28145  24670421.0314                   24670424.8284
        37.7504         30.5004
 -33976427.35947 -26412629.75047  21633669.1884                   21633671.0354
        45.2504         42.0004
  -2394818.37946  -1808973.75844  24742421.3674                   24742427.6914
        40.0004         27.5004
 25  8  8  0 27 30.0000000  0 10G16G31G09G01G03G28G04G06G26G07
 -22879037.66847 -16675720.44545  21507866.0394                   21507865.7034
        44.5004         32.5004
 -30594328.42647 -23778448.87546  22621064.6804                   22621064.2774
        44.0004         38.5004
 -17272078.46947 -13427308.46946  22995710.1254                   22995713.0164
        43.0004         37.2504
 -26722892.48446 -20768828.85543  23785896.0394                   23785902.4534
        37.5004         21.0004
 -50677850.96548 -39456376.48848  20074173.4534                   20074174.4654
        49.2504         50.0004
  -7799178.82846  -6051690.93742  25478930.9924                   25478932.5824
        36.2504         17.2504
 -44287596.08647 -34400436.50446  20841530.7114                   20841530.1484
        46.2504         36.7504
  -7466513.31246  -5788038.37145  24652340.7194                   24652344.8244
        37.5004         30.2504
 -34020341.85247 -26446848.83647  21625311.9534                   21625314.0864
        44.5004         42.0004
  -2544231.09446  -1925398.82444  24713989.0164                   24713994.6884
        39.0004         27.7504
 25  8  8  0 28  0.0000000  0  9G16G31G09G01G03G04G06G26G07
 -23014687.23447 -16781421.32445  21482053.1254                   21482051.8594
        45.0004         32.7504
 -30569443.86747 -23759058.35946  22625800.9454                   22625799.4804
        44.7504         38.0004
 -17416689.19947 -13539992.05146  22968191.6334                   22968194.4534
        42.7504         37.5004
 -26698847.46146 -20750092.78543  23790473.4144                   23790478.4384
        39.5004         20.2504
 -50721952.58648 -39490741.40248  20065781.2194                   20065782.1334
        48.0004         50.0004
 -44390036.51647 -34480260.18746  20822036.4454                   20822036.2974
        45.5004         36.2504
  -7560984.49646  -5861652.26645  24634363.6644                   24634367.6684
        37.0004         30.0004
 -34063635.48847 -26480584.13347  21617073.5704                   21617075.6024
        45.0004         42.2504
  -2693462.96946  -2041683.01644  24685589.6174                   24685596.1484
        39.2504         27.5004
 25  8  8  0 28 30.0000000  0  9G16G31G09G01G03G04G06G26G07
 -23149826.82047 -16886724.81645  21456336.6954                   21456335.4804
        45.0004         33.0004
 -30544407.43447 -23739549.48046  22630564.6334                   22630563.7424
        44.0004         38.0004
 -17561244.36347 -13652632.32846  22940683.7034                   22940686.5864
        43.0004         37.2504
 -26674736.14546 -20731305.03143  23795062.4224                   23795066.8954
        40.0004         22.0004
 -50765465.91448 -39524647.88748  20057500.8674                   20057501.6604
        48.0004         50.0004
 -44492290.32847 -34559938.46146  20802578.1174                   20802578.0084
        45.2504         36.5004
  -7654916.27046  -5934845.82845  24616488.5234                   24616493.1294
        37.2504         30.0004
 -34106306.76847 -26513834.48047  21608953.4454                   21608955.5274
        44.2504         42.2504
  -2842511.08646  -2157824.01644  24657226.8754                   24657232.9534
        39.7504         28.5004
 25  8  8  0 29  0.0000000  0  9G16G31G09G01G03G04G06G26G07
 -23284449.75047 -16991625.73045  21430718.7584                   21430717.9384
        44.5004         32.7504
 -30519217.93447 -23719921.32846  22635357.9064                   22635357.0434
        44.0004         38.0004
 -17705739.60547 -13765225.91846  22913187.1804                   22913189.6414
        42.5004         37.2504
 -26650557.79746 -20712465.01643  23799663.1334                   23799668.5004
        40.5004         22.2504
 -50808387.34848 -39558093.17248  20049333.2664                   20049334.3554
        48.2504         50.0004
 -44594353.08647 -34639467.84846  20783156.4064                   20783156.1454
        47.2504         36.5004
  -7748304.40246  -6007615.77045  24598718.3594                   24598722.1254
        37.0004         30.2504
 -34148352.76647 -26546597.59847  21600952.6254                   21600954.9734
        45.0004         42.0004
  -2991371.09846  -2273818.45344  24628900.3134                   24628905.7624
        40.2504         29.2504
 25  8  8  0 29 30.0000000  0  9G16G31G09G01G03G04G06G26G07
 -23418548.89147 -17096118.49245  21405200.5084                   21405199.5164
        44.7504         32.5004
 -30493872.84447 -23700171.94946  22640181.1024                   22640180.1994
        44.5004         38.0004
 -17850170.25447 -13877769.16446  22885702.3524                   22885705.5354
        43.2504         37.7504
 -26626311.17246 -20693571.84043  23804277.8834                   23804282.6764
        41.0004         22.7504
 -50850713.00848 -39591074.21148  20041278.9224                   20041279.6914
        48.5004         49.7504
 -44696219.91047 -34718844.57446  20763771.9454                   20763771.4104
        46.2504         36.0004
  -7841144.28546  -6079958.50844  24581050.1884                   24581055.1094
        36.5004         29.5004
 -34189770.24247 -26578870.94947  21593070.8204                   21593073.1564
        45.0004         42.5004
  -3140038.09846  -2389662.48044  24600608.9064                   24600615.1884
        39.2504         29.7504
 25  8  8  0 30  0.0000000  0  9G16G31G09G01G03G04G06G26G07
 -23552115.42647 -17200196.22745  21379783.7734                   21379782.5984
        44.2504         32.2504
 -30468368.44547 -23680298.43446  22645034.8444                   22645033.4384
        43.7504         37.5004
 -17994529.50047 -13990256.77346  22858232.0474                   22858234.8484
        43.0004         38.0004
 -26601992.96546 -20674622.89843  23808905.5474                   23808910.5044
        41.2504         23.7504
 -50892436.86348 -39623586.31648  20033339.2274                   20033340.3554
        49.0004         49.7504
 -44797883.85947 -34798063.21146  20744425.8674                   20744425.3014
        46.0004         36.0004
  -7933429.39546  -6151868.96145  24563489.9064                   24563494.0594
        37.2504         30.2504
 -34230553.80547 -26610650.34047  21585309.9844                   21585312.1604
        45.0004         42.5004
  -3288505.27346  -2505350.80544  24572357.8754                   24572361.8594
        40.2504         29.2504
 25  8  8  0 30 30.0000000  0  9G16G31G09G01G03G04G06G26G07
 -23685150.09847 -17303859.53145  21354467.8984                   21354467.0704
        44.2504         32.0004
 -30442710.74647 -23660305.44946  22649917.1254                   22649915.9884
        44.0004         37.7504
 -18138820.50447 -14102691.20346  22830774.2114                   22830776.8954
        42.5004         37.7504
 -26577610.09446 -20655623.55544  23813544.9454                   23813551.1414
        40.5004         24.7504
 -50933563.02748 -39655632.68748  20025513.0474                   20025514.2894
        48.2504         49.5004
 -44899348.10247 -34877126.23846  20725117.8524                   20725117.2544
        45.2504         36.0004
  -8025163.10946  -6223349.74244  24546033.1024                   24546037.5234
        37.2504         29.5004
 -34270708.24247 -26641939.51247  21577668.9384                   21577671.1094
        44.2504         42.5004
  -3436775.51646  -2620885.69144  24544139.9694                   24544147.2154
        38.2504         29.0004
 25  8  8  0 31  0.0000000  0  9G16G31G09G01G03G04G06G26G07
 -23817651.10947 -17407107.01245  21329253.7114                   21329252.6684
        44.5004         32.0004
 -30416902.99247 -23640195.55146  22654828.0004                   22654827.0744
        44.0004         37.2504
 -18283043.85547 -14215072.92246  22803329.2814                   22803331.8444
        43.0004         37.5004
 -26553166.56646 -20636576.96944  23818197.0234                   23818202.8674
        41.5004         25.2504
 -50974092.92248 -39687214.43448  20017800.9304                   20017801.6884
        48.0004         49.7504
 -45000612.91047 -34956033.85546  20705847.5784                   20705847.3874
        45.5004         36.5004
  -8116346.20346  -6294401.46144  24528681.5864                   24528685.5664
        38.0004         29.7504
 -34310235.61347 -26672740.05147  21570146.9064                   21570149.1484
        44.5004         42.2504
  -3584849.50046  -2736267.62944  24515962.9774                   24515968.6524
        39.2504         29.5004
 25  8  8  0 31 30.0000000  0  9G16G31G09G01G03G04G06G26G07
 -23949614.61747 -17509935.64845  21304142.0784                   21304140.7704
        44.2504         32.5004
 -30390946.11347 -23619969.45346  22659767.9534                   22659766.1334
        43.5004         37.0004
 -18427197.85247 -14327400.60546  22775897.2584                   22775900.6764
        42.5004         37.5004
 -26528664.20746 -20617484.53144  23822860.2664                   23822866.2424
        39.7504         24.2504
 -51014025.76648 -39718330.94948  20010201.7274                   20010202.8524
        48.2504         49.5004
 -45101676.55947 -35034784.74246  20686615.9304                   20686615.6804
        46.0004         36.0004
  -8206977.28146  -6365023.04345  24511435.6484                   24511439.3484
        37.7504         30.5004
 -34349135.77347 -26703051.86347  21562744.4454                   21562746.9384
        44.0004         42.0004
  -3732725.46546  -2851495.30544  24487823.6094                   24487828.5204
        40.0004         29.5004
 25  8  8  0 32  0.0000000  0  9G16G31G09G01G03G04G06G26G07
 -24081042.31647 -17612346.78145  21279131.9144                   21279130.7664
        44.7504         32.5004
 -30364846.77347 -23599632.32846  22664734.3134                   22664732.9534
        43.5004         37.2504
 -18571286.48047 -14439677.35246  22748478.2274                   22748481.0234
        43.2504         37.7504
 -26504110.64846 -20598352.19143  23827533.3204                   23827538.5664
        39.2504         22.0004
 -51053366.52048 -39748986.09448  20002715.1484                   20002716.2034
        48.0004         49.5004
 -45202542.87147 -35113381.84846  20667421.5234                   20667421.1994
        46.2504         36.2504
  -8297060.64546  -6435217.83645  24494292.8984                   24494296.8984
        38.0004         30.0004
 -34387414.36347 -26732879.32447  21555460.4694                   21555462.2894
        44.5004         42.2504
  -3880407.50846  -2966571.82844  24459720.3134                   24459725.5274
        39.5004         29.0004
 25  8  8  0 32 30.0000000  0  9G16G31G09G01G03G04G06G26G07
 -24211932.59447 -17714339.13345  21254224.0554                   21254222.8794
        44.7504         33.5004
 -30338608.31247 -23579186.80946  22669727.1174                   22669726.1914
        43.0004         37.0004
 -18715310.35947 -14551903.64846  22721071.4454                   22721074.2464
        43.2504         38.2504
 -26479510.05546 -20579183.21543  23832213.6094                   23832220.1334
        39.7504         22.0004
 -51092116.76248 -39779181.09448  19995341.1804                   19995342.3284
        49.0004         49.5004
 -45303212.35947 -35191825.59046  20648264.7344                   20648264.2154
        44.7504         36.0004
  -8386597.10946  -6504986.46944  24477254.2584                   24477258.5704
        37.5004         29.7504
 -34425073.60947 -26762224.19147  21548294.7894                   21548296.1214
        45.2504         42.5004
  -4027896.05946  -3081497.62144  24431653.4454                   24431658.6914
        41.0004         29.2504
 25  8  8  0 33  0.0000000  0  9G16G31G09G01G03G04G06G26G07
 -24342281.36347 -17815909.53545  21229419.3914                   21229418.7424
        44.7504         33.5004
 -30312231.72747 -23558633.66046  22674746.2194                   22674745.4734
        43.5004         36.7504
 -18859267.75447 -14664078.14146  22693677.1254                   22693679.8674
        43.0004         37.5004
 -26454864.19546 -20559978.98444  23836904.9384                   23836910.5204
        39.2504         24.0004
 -51130275.80548 -39808915.41848  19988079.8914                   19988081.0864
        48.5004         49.5004
 -45403683.13347 -35270114.49645  20629146.1804                   20629145.6174
        45.5004         35.7504
  -8475585.52346  -6574328.05945  24460319.8284                   24460324.3984
        38.0004         30.2504
 -34462113.45347 -26791086.41447  21541246.0164                   21541247.8634
        45.5004         42.7504
  -4175189.34446  -3196271.25844  24403623.9614                   24403629.2274
        40.0004         29.7504
 25  8  8  0 33 30.0000000  0  9G16G31G09G01G03G04G06G26G07
 -24472091.03947 -17917059.85545  21204717.7114                   21204717.1684
        44.5004         33.0004
 -30285723.96547 -23537978.31646  22679791.6954                   22679789.7664
        43.5004         37.2504
 -19003162.80147 -14776204.05546  22666295.1094                   22666297.3834
        43.2504         38.0004
 -26430180.87946 -20540745.57043  23841602.2034                   23841607.3324
        39.0004         22.7504
 -51167848.80147 -39838193.08648  19980930.1024                   19980931.3444
        47.5004         49.5004
 -45503959.26247 -35348251.72746  20610063.7814                   20610063.4574
        45.5004         36.0004
  -8564030.38346  -6643246.10544  24443490.0474                   24443493.9384
        37.0004         29.2504
 -34498539.75047 -26819470.55547  21534313.9774                   21534315.9734
        44.2504         42.2504
  -4322291.72346  -3310896.14845  24375631.8834                   24375636.5664
        39.7504         30.0004
 25  8  8  0 34  0.0000000  0  9G16G31G09G01G03G04G06G26G07
 -24601357.04747 -18017786.54345  21180119.1484                   21180117.9694
        45.2504         32.7504
 -30259085.42647 -23517221.05146  22684860.3834                   22684858.7584
        43.7504         37.2504
 -19146993.28547 -14888279.65246  22638925.2114                   22638927.2194
        43.5004         38.2504
 -26405461.43746 -20521483.94943  23846305.4774                   23846312.0274
        38.7504         22.5004
 -51204834.63747 -39867013.23048  19973892.0394                   19973893.0164
        47.7504         49.5004
 -45604038.35247 -35426235.41846  20591019.5864                   20591019.0554
        45.7504         36.2504
  -8651929.74246  -6711739.09444  24426763.7814                   24426767.3634
        37.7504         29.5004
 -34534351.98047 -26847376.19147  21527499.4694                   21527501.5864
        44.2504         42.2504
  -4469200.64846  -3425370.30145  24347675.4454                   24347680.3554
        41.0004         30.2504
 25  8  8  0 34 30.0000000  0  9G16G31G09G01G03G04G06G26G07
 -24730076.37947 -18118087.25045  21155624.9064                   21155623.9104
        44.5004         33.0004
 -30232318.02747 -23496363.35246  22689953.7814                   22689952.3244
        42.0004         37.0004
 -19290758.18747 -15000304.16046  22611567.3524                   22611569.3094
        42.7504         37.5004
 -26380708.30546 -20502196.11743  23851017.2114                   23851022.7074
        39.7504         22.2504
 -51241233.39148 -39895375.89848  19966965.3204                   19966966.7544
        48.2504         49.5004
 -45703919.32847 -35504064.74246  20572013.0634                   20572012.5394
        46.0004         36.0004
  -8739283.22746  -6779806.72344  24410140.5944                   24410144.2304
        37.0004         29.2504
 -34569550.94547 -26874803.95747  21520801.2734                   21520803.7304
        44.7504         42.2504
  -4615915.66046  -3539693.37144  24319755.8444                   24319761.5314
        40.2504         29.7504
 25  8  8  0 35  0.0000000  0  9G16G31G09G01G03G04G06G26G07
 -23282823.53147 -16990357.69545  21431027.7194                   21431026.6094
        45.7504         33.5004
 -28630006.35947 -22247808.85546  22994863.5004                   22994862.5394
        42.5004         36.5004
 -17859033.82047 -13884674.69146  22884015.2424                   22884017.2424
        43.5004         37.5004
 -24780507.14146 -19255286.42243  24155524.4614                   24155531.2584
        38.2504         22.2504
 -49701626.11748 -38695681.93448  20259943.1254                   20259944.1374
        48.0004         49.5004
 -44228179.82047 -34354137.83646  20852836.4694                   20852836.6374
        45.0004         36.7504
  -7250669.52746  -5619847.94944  24693414.6954                   24693417.9884
        38.2504         28.5004
 -33028718.39147 -25674155.21947  21814012.0944                   21814013.9884
        46.2504         42.2504
  -3187012.78146  -2426262.19945  24591667.6094                   24591672.2074
        40.5004         30.2504
 25  8  8  0 35 30.0000000  0  9G16G31G09G01G03G04G06G26G07
 -23410440.90647 -17089799.74245  21406743.1644                   21406742.1374
        45.0004         33.5004
 -28602987.00447 -22226754.86346  23000005.3134                   23000003.8364
        42.5004         36.7504
 -18002665.46147 -13996595.35546  22856682.7664                   22856685.2544
        43.0004         38.0004
 -24755695.52746 -19235953.02043  24160246.5314                   24160253.2304
        38.0004         22.2504
 -49736852.13747 -38723130.78948  20253239.7344                   20253240.9454
        47.5004         49.5004
 -44327662.03547 -34431656.42246  20833906.1884                   20833905.5354
        45.5004         36.2504
  -7336930.60246  -5687064.34844  24676998.8444                   24677002.5314
        37.7504         28.2504
 -33062694.10547 -25700629.78947  21807546.4844                   21807548.5984
        44.0004         42.5004
  -3333337.52346  -2540281.16844  24563821.5164                   24563827.1884
        39.0004         29.7504
 25  8  8  0 36  0.0000000  0  9G16G31G09G01G03G04G06G26G07
 -23537504.97747 -17188810.64145  21382563.2274                   21382562.0004
        44.5004         33.2504
 -28575846.20347 -22205606.21546  23005169.1334                   23005169.2154
        42.0004         36.5004
 -18146230.97347 -14108464.49246  22829363.0394                   22829365.8874
        44.0004         39.0004
 -24730860.39546 -19216601.32843  24164973.4224                   24164979.3634
        38.5004         22.0004
 -49771494.01248 -38750124.45748  20246647.5234                   20246648.7234
        48.5004         49.2504
 -44426945.19147 -34509019.91046  20815012.9304                   20815012.4884
        45.5004         36.5004
  -7422646.69146  -5753856.07444  24660687.8524                   24660691.7544
        38.0004         28.7504
 -33096061.46947 -25726630.34047  21801196.9694                   21801199.0354
        45.7504         42.2504
  -3479467.67246  -2654148.46944  24536013.4924                   24536019.2384
        39.5004         29.2504
 25  8  8  0 36 30.0000000  0  9G16G31G09G01G03G04G06G26G07
 -23664015.33647 -17287390.07845  21358488.7274                   21358487.4694
        44.5004         33.0004
 -28548588.25047 -22184366.32046  23010357.0784                   23010356.2114
        42.7504         37.0004
 -18289732.02347 -14220283.39146  22802055.5634                   22802058.0634
        43.5004         39.0004
 -24706007.18746 -19197235.49643  24169702.8984                   24169708.6454
        37.5004         20.5004
 -49805554.73048 -38776665.28948  20240165.8444                   20240166.8204
        48.2504         49.2504
 -44526030.94147 -34586229.57045  20796156.9774                   20796157.0274
        45.2504         35.7504
  -7507820.23046  -5820225.03544  24644479.8204                   24644483.7704
        37.5004         28.2504
 -33128824.12947 -25752159.68747  21794962.2894                   21794964.3484
        45.0004         42.0004
  -3625405.14846  -2767865.67244  24508242.3834                   24508247.9734
        40.2504         29.5004
 25  8  8  0 37  0.0000000  0  9G16G31G09G01G03G04G06G26G07
 -23789971.13347 -17385537.38345  21334520.7584                   21334519.3014
        45.0004         33.5004
 -28521217.43047 -22163038.46546  23015565.7734                   23015564.0704
        43.0004         37.2504
 -18433170.02047 -14332053.16846  22774760.5704                   22774762.7304
        43.7504         38.0004
 -24681140.69946 -19177859.28543  24174434.2974                   24174441.6844
        37.7504         22.5004
 -49839036.89148 -38802755.29348  20233794.2734                   20233795.6564
        48.0004         49.2504
 -44624920.48447 -34663286.33646  20777339.0004                   20777338.7854
        46.5004         36.5004
  -7592453.06246  -5886172.68744  24628374.4774                   24628378.0594
        38.0004         29.0004
 -33160985.27747 -25777220.31647  21788841.9384                   21788844.2154
        44.2504         42.0004
  -3771151.41846  -2881433.87145  24480508.6024                   24480512.8484
        41.0004         30.7504
 25  8  8  0 37 30.0000000  0  9G16G31G09G01G03G04G06G26G07
 -23915366.25447 -17483247.79345  21310658.3444                   21310657.4264
        45.0004         33.2504
 -28493732.52347 -22141621.69546  23020795.6564                   23020794.3284
        42.5004         36.5004
 -18576540.84447 -14443770.60246  22747478.0314                   22747480.0004
        44.2504         38.2504
 -24656260.59446 -19158472.50843  24179169.3204                   24179176.0044
        38.0004         22.0004
 -49871937.73048 -38828392.32848  20227533.9144                   20227535.0234
        49.5004         49.2504
 -44723609.59447 -34740186.91846  20758559.4614                   20758559.1764
        46.2504         36.2504
  -7676541.79346  -5951696.35944  24612373.3284                   24612377.1254
        37.7504         28.5004
 -33192542.87547 -25801810.65247  21782837.0164                   21782839.1564
        45.2504         42.0004
  -3916702.63746  -2994850.06645  24452810.6024                   24452814.8984
        41.0004         30.5004
 25  8  8  0 38  0.0000000  0  9G16G31G09G01G03G04G06G26G07
 -24040199.03147 -17580520.02045  21286903.6094                   21286902.3914
        44.5004         33.2504
 -28466135.16047 -22120117.32446  23026047.6884                   23026046.7544
        43.2504         37.0004
 -18719843.97747 -14555435.29346  22720208.1564                   22720210.5084
        43.0004         39.0004
 -24631369.79746 -19139077.41043  24183906.2274                   24183912.9064
        38.7504         22.5004
 -49904258.00848 -38853576.96548  20221383.4304                   20221383.8954
        49.0004         49.0004
 -44822097.66847 -34816930.84846  20739817.9454                   20739818.0704
        45.7504         36.0004
  -7760086.59846  -6016796.19544  24596475.2344                   24596479.4694
        36.5004         29.2504
 -33223498.32447 -25825931.77746  21776946.4614                   21776948.4414
        46.2504         41.5004
  -4062058.23046  -3108113.87545  24425149.5314                   24425154.4614
        39.7504         30.7504
 25  8  8  0 38 30.0000000  0  9G16G31G09G01G03G04G06G26G07
 -24164465.14147 -17677350.69945  21263256.4144                   21263255.2664
        45.5004         33.5004
 -28438426.30547 -22098526.07046  23031320.0314                   23031319.1684
        42.0004         36.2504
 -18863077.32447 -14667045.61346  22692951.7504                   22692953.6024
        43.5004         39.0004
 -24606469.86746 -19119675.18443  24188644.5234                   24188651.6134
        38.0004         22.0004
 -49935997.04348 -38878308.69948  20215343.1954                   20215344.5944
        48.7504         49.0004
 -44920382.53547 -34893516.44146  20721114.4454                   20721114.4804
        46.2504         36.5004
  -7843086.09846  -6081471.14144  24580680.7734                   24580685.2114
        37.5004         29.0004
 -33253851.59847 -25849583.66846  21771170.8754                   21771172.4924
        45.5004         41.7504
  -4207216.49646  -3221223.91045  24397526.1024                   24397531.7384
        40.2504         30.0004
 25  8  8  0 39  0.0000000  0  9G16G31G09G01G03G04G06G26G07
 -24288163.51647 -17773738.98445  21239717.2974                   21239716.1994
        45.0004         33.2504
 -28410609.79746 -22076850.93046  23036613.3054                   23036612.7544
        41.7504         36.5004
 -19006241.96947 -14778602.39146  22665708.1334                   22665710.4454
        43.7504         39.0004
 -24581565.41046 -19100269.43043  24193384.4224                   24193390.9804
        38.2504         22.2504
 -49967157.21148 -38902589.37148  20209414.1644                   20209415.0474
        49.2504         49.2504
 -45018465.15247 -34969944.43746  20702450.1254                   20702449.9144
        47.0004         36.2504
  -7925542.09446  -6145722.56644  24564989.9064                   24564994.2974
        37.0004         29.2504
 -33283605.83247 -25872768.77346  21765508.3594                   21765510.3054
        46.2504         41.7504
  -4352178.41446  -3334180.95344  24369941.5394                   24369945.6454
        40.7504         29.2504
 25  8  8  0 39 30.0000000  0  9G16G31G09G01G03G04G06G26G07
 -24411294.85247 -17869685.41445  21216286.0634                   21216284.7274
        44.7504         33.5004
 -28382690.54747 -22055095.75046  23041926.8524                   23041925.7424
        42.5004         36.5004
 -19149340.29747 -14890107.49646  22638477.3524                   22638479.6914
        42.5004         38.2504
 -24556662.52346 -19080864.90643  24198122.9384                   24198130.4144
        37.7504         22.0004
 -49997742.43048 -38926422.02048  20203593.9384                   20203595.1214
        48.5004         49.0004
 -45116347.82847 -35046216.62946  20683823.6884                   20683823.4964
        46.5004         36.2504
  -8007457.72746  -6209552.94144  24549401.6024                   24549406.3444
        37.2504         29.2504
 -33312765.47747 -25895490.58646  21759959.9694                   21759961.2704
        46.0004         41.5004
  -4496946.98446  -3446987.33645  24342392.4224                   24342396.9734
        40.5004         30.2504
 25  8  8  0 40  0.0000000  0  9G16G31G09G01G03G04G06G26G07
 -24533853.58247 -17965185.66045  21192964.0164                   21192962.7304
        45.2504         34.0004
 -28354667.73046 -22033259.84446  23047258.5314                   23047258.1914
        41.5004         36.0004
 -19292368.66047 -15001558.08246  22611260.1414                   22611262.0004
        43.0004         38.7504
 -24531761.02346 -19061461.53143  24202862.7274                   24202869.1024
        37.5004         21.2504
 -50027750.42648 -38949804.89148  20197883.7274                   20197884.7074
        48.2504         49.0004
 -45214026.78147 -35122330.08246  20665236.1334                   20665235.8054
        46.7504         36.2504
  -8088830.21546  -6272960.07044  24533917.2814                   24533921.6644
        38.0004         29.0004
 -33341329.03947 -25917747.90646  21754524.4224                   21754525.8134
        43.7504         41.5004
  -4641518.72346  -3559640.34844  24314880.7344                   24314885.0044
        41.2504         29.7504
 25  8  8  0 40 30.0000000  0  9G16G31G09G01G03G04G06G26G07
 -24655839.95347 -18060239.91045  21169750.9614                   21169749.3094
        45.5004         34.0004
 -28326545.69147 -22011346.63745  23052610.6174                   23052609.8054
        42.2504         35.5004
 -19435328.61747 -15112955.36346  22584055.6174                   22584057.5554
        43.5004         39.5004
 -24506866.17246 -19042063.23443  24207599.2274                   24207607.1094
        37.5004         21.2504
 -50057184.31648 -38972740.41448  20192282.4924                   20192283.7234
        49.0004         49.5004
 -45311503.51247 -35198285.94946  20646686.3594                   20646686.3014
        46.2504         36.2504
  -8169661.92246  -6335945.83244  24518536.1254                   24518539.3794
        37.2504         29.5004
 -33369300.16047 -25939543.57446  21749200.7344                   21749202.8244
        44.7504         41.7504
  -4785895.33246  -3672141.30145  24287406.8524                   24287411.3914
        40.0004         30.2504
 25  8  8  0 41  0.0000000  0  9G16G31G09G01G03G04G06G26G07
 -24777247.68047 -18154843.27745  21146647.6094                   21146646.4064
        44.5004         33.5004
 -28298322.52047 -21989354.62545  23057981.3914                   23057980.4104
        42.0004         35.5004
 -19578215.94147 -15224296.05146  22556865.0004                   22556866.8164
        43.5004         39.0004
 -24481977.23846 -19022669.67243  24212335.5554                   24212343.1844
        37.0004         20.7504
 -50086041.34448 -38995226.43448  20186791.0234                   20186792.1954
        48.5004         49.0004
 -45408773.70747 -35274080.89146  20628176.9774                   20628176.0124
        46.2504         36.0004
  -8249949.52346  -6398507.60944  24503256.9844                   24503261.5904
        37.0004         28.2504
 -33396676.86747 -25960876.08646  21743992.1564                   21743993.6294
        45.0004         41.5004
  -4930072.61346  -3784486.96545  24259970.3284                   24259975.2704
        39.5004         30.0004
 25  8  8  0 41 30.0000000  0  9G16G31G09G01G03G04G06G26G07
 -24898073.09847 -18248992.89845  21123654.8674                   21123653.5164
        45.2504         33.5004
 -28269999.25447 -21967284.62546  23063372.1024                   23063370.3284
        43.0004         36.2504
 -19721028.57447 -15335578.53146  22529688.7894                   22529690.2114
        43.0004         38.7504
 -24457095.79346 -19003281.87943  24217070.8674                   24217078.6954
        37.0004         19.7504
 -50114321.04348 -39017262.58248  20181409.8204                   20181410.7854
        48.0004         49.0004
 -45505835.23047 -35349713.22346  20609706.8364                   20609706.2934
        46.5004         37.2504
  -8329691.83246  -6460644.48444  24488082.5474                   24488086.9774
        37.5004         28.5004
 -33423459.31647 -25981745.53146  21738895.2194                   21738897.3364
        44.0004         41.5004
  -5074049.06646  -3896676.11344  24232572.4614                   24232577.0824
        38.5004         29.2504
 25  8  8  0 42  0.0000000  0  9G16G31G09G01G03G04G06G26G07
 -25018315.96147 -18342688.57445  21100773.9534                   21100772.2734
        46.2504         34.7504
 -28241580.12147 -21945139.90645  23068779.3524                   23068778.1134
        43.2504         35.7504
 -19863768.29347 -15446804.19146  22502525.9694                   22502528.4384
        43.0004         38.7504
 -24432227.18046 -18983904.10543  24221803.2274                   24221811.4414
        37.0004         19.5004
 -50142026.66448 -39038851.39548  20176137.8914                   20176138.9414
        49.5004         49.2504
 -45602689.69947 -35425184.21546  20591275.6954                   20591275.3554
        46.0004         36.7504
  -8408891.44546  -6522358.48444  24473012.6024                   24473016.0434
        38.5004         29.0004
 -33449651.42247 -26002154.95346  21733910.8984                   21733912.8364
        45.0004         41.2504
  -5217826.70346  -4008710.32844  24205211.9224                   24205216.4224
        38.2504         29.7504
 25  8  8  0 42 30.0000000  0  9G16G31G09G01G03G04G06G26G07
 -25137973.53547 -18435928.18745  21078003.6414                   21078002.2464
        45.2504         34.0004
 -28213066.16447 -21922921.31645  23074205.6724                   23074204.1954
        43.7504         35.5004
 -20006433.41847 -15557971.72746  22475377.7814                   22475379.8554
        42.5004         39.0004
 -24407373.31246 -18964537.77743  24226533.4454                   24226541.1844
        36.2504         19.5004
 -50169158.19948 -39059992.87148  20170974.7344                   20170975.7544
        49.0004         49.0004
 -45699335.43447 -35500492.56246  20572885.1414                   20572884.5234
        46.5004         36.7504
  -8487547.83246  -6583649.18744  24458043.4694                   24458047.9694
        38.0004         29.2504
 -33475253.82847 -26022104.87946  21729038.7504                   21729041.0314
        45.2504         41.5004
  -5361404.14546  -4120588.58644  24177889.6954                   24177894.6334
        38.5004         29.0004
 25  8  8  0 43  0.0000000  0  9G16G31G09G01G03G04G06G26G07
 -25257041.79747 -18528708.58645  21055345.6334                   21055344.2384
        46.5004         34.5004
 -28184458.01247 -21900629.29745  23079648.9454                   23079648.5704
        43.7504         35.5004
 -20149021.89147 -15669079.54346  22448244.0004                   22448246.0744
        42.7504         39.2504
 -24382535.75046 -18945184.20743  24231260.1414                   24231268.1414
        37.7504         19.0004
 -50195715.19548 -39080686.66048  20165920.9384                   20165922.3444
        48.5004         49.0004
 -45795770.22747 -35575636.53946  20554533.8134                   20554533.3954
        47.0004         36.5004
  -8565659.81246  -6644515.67644  24443180.1414                   24443183.6134
        38.2504         29.0004
 -33500266.75847 -26041595.48846  21724279.3834                   21724281.2154
        44.5004         41.5004
  -5504779.53946  -4232309.37944  24150606.5704                   24150610.6334
        38.5004         29.2504
 25  8  8  0 43 30.0000000  0  9G16G31G09G01G03G04G06G26G07
 -25375521.61747 -18621030.47345  21032799.4844                   21032798.6254
        45.5004         34.0004
 -28155760.78547 -21878267.89545  23085110.2034                   23085109.1374
        43.2504         35.2504
 -20291536.19547 -15780129.55546  22421123.8524                   22421125.7384
        42.5004         39.5004
 -24357720.59446 -18925848.07843  24235983.5164                   24235990.3284
        37.5004         19.2504
 -50221701.84448 -39100936.01648  20160976.2194                   20160977.1094
        48.5004         49.2504
 -45891996.50047 -35650618.03146  20536222.6024                   20536222.3444
        47.0004         36.0004
  -8643230.93446  -6704960.70744  24428417.9064                   24428422.0474
        37.5004         28.5004
 -33524695.06647 -26060630.53946  21719631.0634                   21719632.5354
        45.0004         41.5004
  -5647955.64546  -4343874.89544  24123360.8674                   24123364.9964
        38.0004         28.2504
 25  8  8  0 44  0.0000000  0  9G16G31G09G01G03G04G06G26G07
 -25493405.70347 -18712888.14545  21010366.9844                   21010365.6334
        46.2504         34.0004
 -28126971.49647 -21855834.74245  23090589.0164                   23090587.5784
        42.7504         35.2504
 -20433970.50447 -15891117.23046  22394019.3834                   22394022.0984
        43.0004         39.2504
 -24332925.60946 -18906527.62143  24240701.2344                   24240709.1954
        38.7504         19.7504
 -50247113.98448 -39120737.70348  20156140.5394                   20156141.6994
        49.0004         49.2504
 -45988008.34047 -35725432.43446  20517952.4384                   20517951.6604
        45.5004         37.0004
  -8720256.39846  -6764980.56644  24413760.7584                   24413764.9804
        38.5004         29.7504
 -33548535.25047 -26079207.30946  21715094.3834                   21715095.8914
        46.2504         41.5004
  -5790927.05546  -4455280.93744  24096153.2584                   24096157.6094
        37.7504         29.2504
 25  8  8  0 44 30.0000000  0  9G16G31G09G01G03G04G06G26G07
 -25610695.27047 -18804282.55945  20988047.6484                   20988046.3794
        45.7504         34.2504
 -28098095.31247 -21833333.89845  23096084.1644                   23096082.9104
        43.2504         35.2504
 -20576327.43447 -16002044.60946  22366930.1804                   22366932.3134
        42.5004         39.5004
 -24308157.05146 -18887227.78143  24245414.6254                   24245422.5864
        39.0004         20.0004
 -50271956.01248 -39140095.14148  20151413.0004                   20151414.4344
        49.0004         49.2504
 -46083808.40647 -35800081.81246  20499721.8594                   20499721.4734
        46.5004         36.7504
  -8796739.98446  -6824578.19144  24399206.1804                   24399210.2774
        38.7504         28.7504
 -33571792.35947 -26097329.73046  21710667.5944                   21710670.4884
        45.2504         41.0004
  -5933696.93746  -4566529.91445  24068986.5864                   24068989.5984
        39.0004         30.0004
 25  8  8  0 45  0.0000000  0  9G16G31G09G01G03G04G06G26G07
 -25727387.61747 -18895211.60945  20965841.3444                   20965840.0664
        46.2504         34.7504
 -28069133.68746 -21810766.44145  23101593.7034                   23101594.3794
        41.7504         34.2504
 -20718605.91847 -16112910.85946  22339855.2584                   22339857.4224
        42.2504         39.2504
 -24283417.34446 -18867950.44143  24250122.9064                   24250131.1294
        40.0004         20.7504
 -50296228.55148 -39159008.83248  20146794.3524                   20146795.2154
        49.5004         49.5004
 -46179395.38347 -35874565.15246  20481532.2664                   20481531.6844
        47.0004         36.2504
  -8872681.62946  -6883753.51244  24384755.0084                   24384759.4574
        38.2504         29.7504
 -33594467.66447 -26114998.80146  21706352.7664                   21706355.1254
        45.0004         41.2504
  -6076264.22746  -4677621.03544  24041856.6094                   24041859.5004
        38.2504         28.5004
 25  8  8  0 45 30.0000000  0  9G16G31G09G01G03G04G06G26G07
 -25843480.67647 -18985673.68445  20943750.1564                   20943748.3874
        46.0004         34.5004
 -28040089.09047 -21788134.36745  23107122.2584                   23107121.2384
        42.0004         34.5004
 -20860805.69147 -16223715.78546  22312795.8984                   22312797.3204
        42.5004         39.5004
 -24258709.91446 -18848698.31243  24254825.7734                   24254832.8164
        40.2504         21.0004
 -50319933.15648 -39177479.98048  20142283.4694                   20142284.1954
        48.0004         49.2504
 -46274769.03147 -35948882.26246  20463383.5554                   20463382.7034
        46.5004         36.5004
  -8948082.25846  -6942507.27344  24370407.1564                   24370411.5634
        39.0004         29.7504
 -33616563.45347 -26132216.30946  21702148.3594                   21702150.7424
        43.2504         40.7504
  -6218629.55946  -4788554.78144  24014764.6254                   24014768.0984
        38.2504         29.2504
 25  8  8  0 46  0.0000000  0  9G16G31G09G01G03G04G06G26G07
 -25958972.73447 -19075667.44945  20921772.6804                   20921771.2504
        47.0004         34.5004
 -28010963.50447 -21765439.18445  23112664.7814                   23112664.0354
        43.0004         34.0004
 -21002925.87947 -16334458.69546  22285750.8364                   22285752.9024
        42.5004         40.0004
 -24234037.48046 -18829473.43743  24259519.9844                   24259528.9534
        39.2504         21.5004
 -50343070.82047 -39195509.34448  20137880.4924                   20137881.1564
        47.5004         49.0004
 -46369928.43447 -36023032.41846  20445275.4614                   20445274.7194
        47.2504         36.7504
  -9022942.28546  -7000839.77345  24356161.7274                   24356166.4694
        38.5004         30.7504
 -33638081.21947 -26148983.42246  21698054.4844                   21698056.0704
        43.7504         41.0004
  -6360791.98046  -4899330.40244  23987711.7734                   23987715.9804
        39.0004         29.0004
 25  8  8  0 46 30.0000000  0  9G16G31G09G01G03G04G06G26G07
 -24498434.20347 -17937585.42245  21199703.5634                   21199702.3284
        46.0004         34.5004
 -26406336.22747 -20515080.31245  23418014.7424                   23418014.4884
        42.5004         34.0004
 -19569537.66447 -15217532.71946  22558515.4844                   22558517.3204
        43.2504         39.5004
 -22633980.31646 -17582676.03943  24564001.1094                   24564009.9344
        39.0004         22.5004
 -48790218.45747 -37985494.53948  20433378.3984                   20433379.5514
        47.2504         48.7504
 -44889446.16847 -34869409.85546  20727001.3364                   20727001.3444
        47.2504         36.5004
  -7521836.23846  -5831146.78145  24641812.8914                   24641816.5164
        38.2504         30.0004
 -32083598.69547 -24937698.34446  21993862.6564                   21993864.1484
        43.7504         41.0004
  -4927323.44546  -3782341.66045  24260492.7034                   24260494.9264
        40.0004         30.0004
 25  8  8  0 47  0.0000000  0  9G16G31G09G01G03G04G06G26G07
 -24612713.97747 -18026634.55145  21177956.5084                   21177955.3094
        46.2504         33.5004
 -26377050.77046 -20492260.55145  23423587.9384                   23423587.4224
        41.2504         33.7504
 -19711493.02347 -15328147.19946  22531502.4064                   22531504.3554
        43.2504         40.0004
 -22609382.88746 -17563509.62143  24568682.0234                   24568690.6644
        38.0004         19.5004
 -48812222.02748 -38002640.19548  20429191.3914                   20429192.3284
        49.7504         49.0004
 -44984171.11747 -34943221.47746  20708975.9224                   20708975.4614
        46.5004         37.0004
  -7595612.85946  -5888635.08245  24627773.4064                   24627778.0744
        39.0004         30.5004
 -32103962.40247 -24953566.18446  21989987.1954                   21989989.1374
        45.2504         41.5004
  -5069076.47346  -3892798.32045  24233516.6254                   24233519.5554
        39.2504         30.2504
 25  8  8  0 47 30.0000000  0  9G16G31G09G01G03G04G06G26G07
 -24726383.21147 -18115207.94145  21156326.3054                   21156324.8054
        46.2504         34.2504
 -26347687.01646 -20469379.78145  23429176.1024                   23429174.9184
        41.7504         34.2504
 -19853363.59046 -15438695.60546  22504505.2894                   22504507.2624
        41.7504         40.0004
 -22584826.05946 -17544374.83243  24573355.7114                   24573364.3164
        38.5004         19.7504
 -48833659.09848 -38019344.43048  20425112.0704                   20425113.2704
        49.5004         49.0004
 -45078676.43447 -35016861.96546  20690992.5004                   20690991.5474
        47.0004         36.7504
  -7668847.37546  -5945700.97345  24613837.1334                   24613842.1134
        38.2504         30.5004
 -32123750.55547 -24968985.53546  21986221.3444                   21986223.6564
        45.2504         41.7504
  -5210622.99246  -4003094.01645  24206580.5084                   24206584.1094
        39.2504         30.2504
 25  8  8  0 48  0.0000000  0  9G16G31G09G01G03G04G06G26G07
 -24839443.25047 -18203306.63345  21134811.8054                   21134810.1174
        45.7504         34.5004
 -26318250.01246 -20446441.89845  23434777.6564                   23434776.6214
        41.7504         34.5004
 -19995152.04347 -15549180.01646  22477523.6334                   22477525.4024
        42.5004         40.0004
 -22560316.04746 -17525276.56243  24578020.9924                   24578028.4104
        38.5004         20.2504
 -48854534.20748 -38035610.77048  20421139.4774                   20421140.7774
        49.0004         49.0004
 -45172964.68047 -35090333.31246  20673049.7274                   20673048.9024
        47.0004         37.0004
  -7741543.66046  -6002347.46145  24600004.0164                   24600008.6174
        38.5004         31.0004
 -32142968.38347 -24983960.47746  21982564.0634                   21982566.7464
        44.5004         41.2504
  -5351965.98446  -4113231.14545  24179684.3054                   24179687.3324
        39.5004         31.7504
 25  8  8  0 48 30.0000000  0  9G16G31G09G01G03G04G06G26G07
 -24951889.06647 -18290926.69945  21113413.5474                   21113412.3094
        46.5004         34.0004
 -26288739.25847 -20423446.57045  23440393.8054                   23440393.0704
        42.0004         34.5004
 -20136854.69147 -15659597.58246  22450558.6564                   22450560.0314
        42.5004         40.5004
 -22535852.80146 -17506214.69543  24582675.0234                   24582684.0044
        36.5004         19.5004
 -48874845.65247 -38051437.89148  20417274.6884                   20417275.8014
        47.2504         49.0004
 -45267032.12147 -35163632.59046  20655149.3524                   20655148.6844
        46.7504         37.2504
  -7813699.43446  -6058572.76645  24586273.1254                   24586277.9454
        39.2504         30.7504
 -32161614.78547 -24998490.14846  21979015.8594                   21979018.8444
        43.0004         41.0004
  -5493102.44546  -4223207.32845  24152826.1024                   24152829.7814
        39.2504         31.7504
 25  8  8  0 49  0.0000000  0  9G16G31G09G01G03G04G06G26G07
 -25063721.13747 -18378068.53545  21092133.0234                   21092131.4414
        46.0004         34.5004
 -26259158.64547 -20400396.80545  23446023.4534                   23446021.9304
        43.0004         34.5004
 -20278472.98847 -15769949.41446  22423609.1414                   22423611.0204
        42.7504         40.0004
 -22511441.32446 -17487193.21143  24587320.4924                   24587330.0084
        37.0004         18.5004
 -48894596.91048 -38066828.50048  20413515.6564                   20413517.1484
        48.5004         48.7504
 -45360880.19947 -35236760.94146  20637290.7734                   20637290.2854
        47.5004         37.0004
  -7885317.51646  -6114379.09445  24572644.1414                   24572649.3834
        38.5004         31.2504
 -32179693.90247 -25012577.79346  21975575.6414                   21975577.9344
        44.7504         41.0004
  -5634034.32846  -4333024.11345  24126007.5004                   24126011.1724
        39.2504         31.7504
 25  8  8  0 49 30.0000000  0  9G16G31G09G01G03G04G06G26G07
 -25174934.41847 -18464728.18745  21070969.4144                   21070968.1524
        45.5004         34.5004
 -26229507.24247 -20377291.85245  23451665.2114                   23451664.5274
        42.7504         34.2504
 -20420003.27347 -15880232.67646  22396676.8364                   22396678.7854
        42.7504         40.5004
 -22487081.59046 -17468212.02743  24591957.3284                   24591965.4774
        38.2504         19.0004
 -48913786.32847 -38081781.31648  20409864.3054                   20409865.7424
        47.7504         48.5004
 -45454505.18047 -35309715.45346  20619474.2034                   20619474.1254
        46.5004         37.2504
  -7956395.63746  -6169764.66445  24559118.6644                   24559123.5004
        37.0004         30.0004
 -32197204.71947 -25026222.60246  21972243.8134                   21972246.0164
        43.0004         41.0004
  -5774758.21146  -4442678.80945  24099229.7664                   24099232.2974
        40.2504         31.2504
 25  8  8  0 50  0.0000000  0  9G16G31G09G01G03G04G06G26G07
 -25285526.96547 -18550904.16445  21049924.4064                   21049922.5704
        46.2504         34.0004
 -26199786.57046 -20354132.92245  23457319.3134                   23457320.3594
        41.0004         34.5004
 -20561444.75047 -15990446.73446  22369761.4924                   22369763.6294
        42.2504         40.5004
 -22462776.48446 -17449273.39143  24596583.7344                   24596591.3874
        38.5004         19.0004
 -48932415.16848 -38096297.32048  20406319.5084                   20406320.7504
        49.0004         48.5004
 -45547906.19547 -35382495.43446  20601700.6954                   20601700.0474
        47.2504         37.5004
  -8026934.48046  -6224730.02745  24545695.8204                   24545700.1884
        39.0004         30.7504
 -32214149.18047 -25039426.07846  21969019.1564                   21969021.5164
        45.0004         40.7504
  -5915274.31246  -4552171.62545  24072489.6094                   24072492.6804
        39.7504         31.2504
 25  8  8  0 50 30.0000000  0  9G16G31G09G01G03G04G06G26G07
 -25395496.53947 -18636594.70345  21028998.3204                   21028996.6414
        46.2504         34.5004
 -26169998.38746 -20330921.42245  23462988.8134                   23462988.6804
        41.7504         34.7504
 -20702796.19447 -16100590.63046  22342862.8134                   22342865.1994
        42.5004         40.5004
 -22438528.20746 -17430379.09443  24601197.2734                   24601206.0664
        38.0004         18.5004
 -48950484.35548 -38110377.22348  20402881.2734                   20402882.3094
        49.2504         48.5004
 -45641082.05947 -35455099.98446  20583969.6414                   20583969.0164
        47.5004         37.2504
  -8096934.19946  -6279275.28545  24532375.0944                   24532379.8054
        37.5004         30.7504
 -32230528.77347 -25052189.41046  21965902.0634                   21965904.4654
        45.0004         40.7504
  -6055581.78146  -4661501.85945  24045789.4064                   24045792.7034
        39.0004         32.2504
 25  8  8  0 51  0.0000000  0  9G16G31G09G01G03G04G06G26G07
 -25504841.91047 -18721798.84845  21008190.4534                   21008188.7034
        46.2504         34.0004
 -26140145.11747 -20307659.21145  23468670.2504                   23468669.7974
        42.2504         34.5004
 -20844057.66047 -16210664.41846  22315981.8054                   22315983.5784
        43.2504         40.2504
 -22414340.53946 -17411531.97743  24605799.6724                   24605809.0864
        36.7504         19.5004
 -48967996.02748 -38124022.69948  20399548.7034                   20399549.7194
        49.2504         48.5004
 -45734032.75447 -35527529.07446  20566281.7194                   20566281.0984
        47.0004         37.2504
  -8166396.45746  -6333401.75045  24519156.8674                   24519161.6374
        38.2504         31.5004
 -32246346.34847 -25064514.81246  21962892.1644                   21962894.9024
        45.0004         40.7504
  -6195680.89847  -4770669.75845  24019130.0784                   24019132.6994
        42.0004         33.0004
 25  8  8  0 51 30.0000000  0  9G16G31G09G01G03G04G06G26G07
 -25613561.18047 -18806515.12545  20987501.6724                   20987499.8634
        46.2504         34.7504
 -26110228.90646 -20284347.91445  23474362.6804                   23474362.5864
        41.0004         34.0004
 -20985228.41047 -16320667.52746  22289118.1954                   22289119.1804
        43.7504         40.5004
 -22390216.32046 -17392734.34843  24610391.3984                   24610400.8594
        36.7504         19.5004
 -48984951.55148 -38137234.82448  20396322.0704                   20396322.9574
        48.2504         48.5004
 -45826757.50047 -35599782.10546  20548636.9534                   20548636.1564
        47.0004         37.0004
  -8235321.99246  -6387109.99645  24506042.1174                   24506045.5474
        38.5004         30.5004
 -32261603.87147 -25076403.79346  21959989.1254                   21959991.3444
        43.2504         40.7504
  -6335572.02746  -4879675.61345  23992509.6414                   23992511.9264
        40.7504         33.2504
 25  8  8  0 52  0.0000000  0  9G16G31G09G01G03G04G06G26G07
 -25721654.00047 -18890743.26245  20966932.1484                   20966930.5594
        46.5004         34.7504
 -26080252.54746 -20260989.78545  23480067.2114                   23480066.9804
        41.7504         34.7504
 -21126308.84047 -16430600.26246  22262270.8754                   22262272.5784
        43.5004         40.2504
 -22366159.54746 -17373989.21943  24614969.4454                   24614979.4184
        36.5004         18.5004
 -49001353.60548 -38150015.67648  20393200.9384                   20393201.9024
        49.5004         48.5004
 -45919256.72347 -35671859.39846  20531034.7814                   20531034.1724
        47.5004         37.0004
  -8303712.77346  -6440401.54745  24493026.7344                   24493031.2814
        39.0004         31.0004
 -32276304.61347 -25087858.93046  21957191.8204                   21957193.5234
        46.0004         40.7504
  -6475256.18446  -4988520.19145  23965927.3914                   23965930.6884
        40.5004         34.2504
 25  8  8  0 52 30.0000000  0  9G16G31G09G01G03G04G06G26G07
 -25829116.22747 -18974480.02345  20946482.7814                   20946481.0394
        46.2504         35.0004
 -26050216.05547 -20237584.78945  23485783.3984                   23485782.4884
        42.0004         34.5004
 -21267296.07047 -16540460.37946  22235442.2034                   22235443.5354
        43.7504         40.7504
 -22342170.90646 -17355297.18043  24619534.3364                   24619544.1684
        36.5004         19.2504
 -49017201.44948 -38162364.67248  20390185.1094                   20390186.7234
        49.0004         48.2504
 -46011527.43747 -35743758.64546  20513476.6254                   20513476.1254
        47.2504         36.0004
  -8371567.50046  -6493275.39545  24480114.2664                   24480118.8244
        39.2504         30.5004
 -32290448.49247 -25098880.13746  21954500.2274                   21954501.9024
        45.5004         40.7504
  -6614730.87946  -5097201.55945  23939386.1484                   23939389.5164
        40.5004         34.0004
 25  8  8  0 53  0.0000000  0  9G16G31G09G01G03G04G06G26G07
 -25935944.78547 -19057723.02045  20926153.9534                   20926151.9104
        47.0004         34.2504
 -26020119.73047 -20214133.18445  23491510.5704                   23491509.8554
        42.0004         34.5004
 -21408187.85247 -16650246.11346  22208631.5234                   22208632.9734
        44.7504         41.2504
 -22318251.84846 -17336659.35243  24624086.5084                   24624096.6414
        36.7504         18.5004
 -49032495.10547 -38174281.83248  20387274.7814                   20387275.8284
        47.2504         48.2504
 -46103567.48047 -35815478.14146  20495961.7344                   20495961.3284
        47.7504         36.5004
  -8438885.57846  -6545731.05945  24467304.3524                   24467308.7344
        38.7504         31.2504
 -32304036.20747 -25109467.99246  21951915.0944                   21951916.4224
        43.7504         40.5004
  -6753994.30546  -5205718.29345  23912885.4224                   23912888.4534
        41.2504         33.5004
 25  8  8  0 53 30.0000000  0  9G16G31G09G01G03G04G06G26G07
 -26042139.82047 -19140472.35945  20905945.5474                   20905944.0904
        46.2504         34.5004
 -25989967.25046 -20190637.76245  23497246.8674                   23497248.2894
        41.2504         34.5004
 -21548985.19547 -16759958.26246  22181837.9534                   22181840.1644
        44.5004         40.7504
 -22294406.81246 -17318079.22743  24628624.6334                   24628634.1054
        36.0004         19.0004
 -49047237.79348 -38185769.67248  20384469.6484                   20384471.0904
        48.5004         48.5004
 -46195377.72747 -35887018.58246  20478490.8594                   20478490.2304
        47.5004         37.0004
  -8505669.53146  -6597770.53545  24454595.4064                   24454600.6374
        37.0004         31.5004
 -32317071.52047 -25119625.37146  21949433.6954                   21949436.1954
        45.0004         40.0004
  -6893048.41046  -5314071.93445  23886424.0164                   23886426.9804
        41.5004         33.5004
 25  8  8  0 54  0.0000000  0  9G16G31G09G01G03G04G06G26G07
 -26147699.69547 -19222726.76645  20885858.3204                   20885856.6914
        47.0004         35.0004
 -25959760.56246 -20167100.16845  23502996.0474                   23502995.9224
        41.2504         33.7504
 -21689687.46147 -16869596.31646  22155063.5704                   22155065.2734
        44.0004         40.7504
 -22270638.91846 -17299559.19543  24633147.8204                   24633157.8634
        36.7504         20.2504
 -49061431.23848 -38196829.53948  20381768.5474                   20381769.8284
        48.0004         48.7504
 -46286957.57848 -35958379.49246  20461063.8754                   20461063.1414
        48.0004         36.5004
  -8571920.59446  -6649394.76645  24441988.6804                   24441993.5234
        37.2504         31.7504
 -32329556.84047 -25129354.21146  21947058.2034                   21947060.0634
        43.2504         40.0004
  -7031893.21946  -5422262.52745  23860002.6954                   23860005.3244
        40.7504         33.5004
 25  8  8  0 54 30.0000000  0  9G16G31G09G01G03G04G06G26G07
 -26252622.04347 -19304484.40645  20865892.1644                   20865890.4104
        47.2504         35.0004
 -25929500.43747 -20143520.92645  23508754.2814                   23508754.2584
        42.0004         34.0004
 -21830292.97347 -16979158.98446  22128307.2974                   22128308.5704
        44.7504         41.2504
 -22246950.02346 -17281100.72743  24637656.2194                   24637665.2464
        37.0004         19.2504
 -49075076.06248 -38207461.89848  20379172.1884                   20379173.4774
        49.2504         48.5004
 -46378305.33647 -36029559.55546  20443680.7894                   20443680.0944
        47.7504         37.0004
  -8637638.66446  -6700603.68745  24429483.4924                   24429487.7114
        39.2504         32.2504
 -32341493.37547 -25138655.42246  21944787.0554                   21944788.6954
        45.5004         40.2504
  -7170527.88347  -5530289.34045  23833621.1024                   23833623.8244
        42.7504         33.2504
 25  8  8  0 55  0.0000000  0  9G16G31G09G01G03G04G06G26G07
 -26356906.34847 -19385744.85945  20846047.6954                   20846046.0204
        46.2504         35.0004
 -25899190.38747 -20119902.78945  23514522.2344                   23514522.2624
        42.2504         34.5004
 -21970802.39547 -17088646.79346  22101569.0864                   22101570.6644
        45.0004         41.7504
 -22223344.53146 -17262707.23843  24642147.1724                   24642157.8554
        36.5004         19.2504
 -49088175.30548 -38217669.12548  20376679.4384                   20376680.8014
        50.0004         48.2504
 -46469421.75047 -36100559.35246  20426341.9614                   20426341.4574
        47.2504         37.0004
  -8702826.32846  -6751399.29345  24417078.4844                   24417083.0164
        37.0004         31.2504
 -32352884.77347 -25147531.84446  21942618.7974                   21942620.9844
        43.7504         40.2504
  -7308953.55547  -5638153.31245  23807279.5704                   23807282.2624
        42.0004         33.7504
 25  8  8  0 55 30.0000000  0  9G16G31G09G01G03G04G06G26G07
 -26460550.72347 -19466506.68045  20826324.5164                   20826323.0314
        46.2504         34.7504
 -25868831.69147 -20096246.75445  23520299.9924                   23520299.3404
        42.0004         34.2504
 -22111214.32447 -17198058.62546  22074849.5704                   22074851.1684
        44.7504         41.5004
 -22199824.49646 -17244380.37543  24646624.2504                   24646633.8204
        37.2504         19.0004
 -49100729.93448 -38227451.98448  20374290.1724                   20374291.8054
        49.5004         48.5004
 -46560305.31247 -36171377.69546  20409047.3284                   20409046.8834
        47.5004         37.0004
  -8767483.83246  -6801781.79345  24404774.1644                   24404779.1804
        38.2504         31.5004
 -32363732.63347 -25155984.75446  21940554.9064                   21940556.5314
        44.2504         40.2504
  -7447169.33247  -5745853.70745  23780976.9454                   23780979.7304
        42.0004         34.0004
 25  8  8  0 56  0.0000000  0  9G16G31G09G01G03G04G06G26G07
 -26563553.35947 -19546768.43745  20806723.6254                   20806721.9454
        46.2504         34.7504
 -25838425.73847 -20072553.86745  23526085.5394                   23526085.8164
        42.0004         34.5004
 -22251527.68047 -17307393.64846  22048148.5474                   22048150.2814
        45.2504         41.2504
 -22176392.54746 -17226122.11343  24651083.3984                   24651093.6804
        38.2504         19.5004
 -49112741.26648 -38236811.49648  20372004.9774                   20372005.9224
        49.5004         48.5004
 -46650954.92647 -36242013.75446  20391797.1174                   20391796.5044
        47.7504         37.5004
  -8831611.88846  -6851751.75345  24392571.4924                   24392575.9304
        38.5004         31.5004
 -32374038.88347 -25164015.60546  21938593.5164                   21938595.5164
        44.2504         39.7504
  -7585174.88347  -5853390.30145  23754716.1024                   23754718.4654
        43.0004         33.0004
 25  8  8  0 56 30.0000000  0  9G16G31G09G01G03G04G06G26G07
 -26665912.31247 -19626528.62145  20787245.7034                   20787243.8164
        46.2504         35.2504
 -25807973.71147 -20048825.13745  23531881.1254                   23531880.3794
        42.7504         33.0004
 -22391741.32847 -17416650.98446  22021466.9924                   22021468.4454
        45.0004         41.0004
 -22153051.07046 -17207934.36343  24655525.1254                   24655535.3484
        38.2504         19.7504
 -49124210.60548 -38245748.67648  20369822.0704                   20369823.3244
        48.5004         48.0004
 -46741369.52047 -36312466.66846  20374592.1484                   20374591.7034
        47.5004         37.5004
  -8895211.30146  -6901309.77045  24380468.7274                   24380473.3364
        38.5004         31.2504
 -32383805.41047 -25171625.91446  21936735.1414                   21936737.4534
        44.0004         40.0004
  -7722970.27047  -5960763.13745  23728494.4144                   23728496.7154
        43.0004         33.5004
 25  8  8  0 57  0.0000000  0  9G16G31G09G01G03G04G06G26G07
 -26767625.83647 -19705785.88745  20767890.3134                   20767888.7664
        47.0004         35.5004
 -25777477.86347 -20025062.21545  23537684.8984                   23537684.1484
        42.0004         34.5004
 -22531854.35947 -17525829.92646  21994804.0474                   21994805.5354
        44.7504         41.5004
 -22129802.78546 -17189819.21143  24659949.4774                   24659960.1294
        37.2504         20.5004
 -49135139.57048 -38254264.78548  20367742.3524                   20367743.6684
        48.5004         48.0004
 -46831548.21147 -36382735.77046  20357431.7504                   20357430.8834
        47.5004         37.7504
  -8958282.92246  -6950456.52345  24368466.5394                   24368471.2504
        37.5004         32.0004
 -32393034.45347 -25178817.39846  21934978.5234                   21934980.7274
        44.5004         39.7504
  -7860555.43446  -6067972.17245  23702312.5784                   23702314.7384
        41.5004         33.2504
 25  8  8  0 57 30.0000000  0  9G16G31G09G01G03G04G06G26G07
 -26868686.37547 -19784534.32445  20748658.7814                   20748657.4264
        46.0004         34.7504
 -25746933.84446 -20001261.73845  23543495.7894                   23543495.9844
        41.2504         33.7504
 -22671859.78947 -17634925.02346  21968162.3594                   21968163.7114
        44.7504         41.7504
 -22106644.34446 -17171774.06643  24664357.1804                   24664367.4964
        38.0004         20.2504
 -49145523.60547 -38262356.27348  20365766.4694                   20365767.9494
        47.5004         48.0004
 -46921483.98047 -36452815.59046  20340317.3204                   20340316.4884
        47.0004         37.7504
  -9020821.69546  -6999188.06645  24356565.7894                   24356570.8324
        37.0004         31.0004
 -32401722.03947 -25185586.97346  21933325.7114                   21933327.4614
        43.0004         39.5004
  -7997923.73046  -6175012.19945  23676172.1254                   23676174.2624
        41.5004         33.0004
 25  8  8  0 58  0.0000000  0  9G16G31G09G01G03G04G06G26G07
 -25393669.71547 -18635170.64845  21029345.4534                   21029343.4344
        46.2504         35.5004
 -24140924.47347 -18749825.95345  23849109.8834                   23849109.5434
        43.2504         34.0004
 -21236332.33647 -16516332.15246  22241333.9064                   22241335.6564
        45.0004         41.5004
 -20508159.40646 -15926201.80943  24968539.0164                   24968549.4494
        37.5004         19.2504
 -47579944.32448 -37042424.39148  20663686.6954                   20663687.6374
        48.5004         48.0004
 -45435753.26247 -35295103.32046  20623042.5394                   20623042.0354
        47.7504         37.2504
  -7507407.01246  -5819903.93045  24644558.4924                   24644563.5744
        37.7504         31.7504
 -30834450.45747 -23964336.39546  22231567.7974                   22231569.4614
        44.5004         39.5004
  -6559650.91447  -5054279.91845  23949866.0474                   23949868.5864
        42.5004         33.7504
 25  8  8  0 58 30.0000000  0  9G16G31G09G01G03G04G06G26G07
 -25493420.45347 -18712898.45345  21010363.4454                   21010361.6764
        46.5004         35.2504
 -24110288.88747 -18725954.15645  23854940.0314                   23854939.4414
        43.2504         34.5004
 -21376120.13747 -16625257.66446  22214733.0164                   22214734.7974
        45.5004         41.7504
 -20485188.90246 -15908303.12543  24972910.6724                   24972921.1604
        37.7504         19.2504
 -47589243.80948 -37049670.77348  20661916.8914                   20661918.4104
        48.5004         48.0004
 -45525200.89147 -35364802.76646  20606021.2114                   20606020.6764
        47.0004         37.2504
  -7568883.62946  -5867807.82845  24632860.9534                   24632864.7424
        37.0004         31.2504
 -30842062.24247 -23970267.67246  22230118.3594                   22230121.0554
        44.0004         39.7504
  -6696585.73047  -5160982.14145  23923808.7734                   23923810.8164
        42.5004         34.2504
 25  8  8  0 59  0.0000000  0  9G16G31G09G01G03G04G06G26G07
 -25592514.43447 -18790114.50845  20991506.1254                   20991504.3954
        46.5004         35.0004
 -24079610.53146 -18702049.02045  23860776.8204                   23860777.2464
        41.2504         33.7504
 -21515798.25847 -16734097.71147  22188153.1484                   22188154.6524
        45.5004         42.0004
 -20462316.98846 -15890481.23043  24977263.3674                   24977273.8204
        36.5004         19.5004
 -47598003.96548 -37056496.89847  20660249.8134                   20660251.4264
        48.5004         47.5004
 -45614403.63747 -35434311.39146  20589046.4064                   20589045.4694
        47.0004         37.2504
  -7629831.28146  -5915299.53945  24621262.7734                   24621267.4924
        36.7504         30.2504
 -30849139.87547 -23975782.75846  22228772.3754                   22228774.2274
        43.5004         39.5004
  -6833304.12547  -5267515.74245  23897791.1804                   23897793.5944
        43.0004         34.2504
 25  8  8  0 59 30.0000000  0  9G16G31G09G01G03G04G06G26G07
 -25690950.15247 -18866817.61745  20972774.4384                   20972772.8364
        47.5004         35.2504
 -24048891.10547 -18678111.87945  23866623.4224                   23866622.9224
        42.0004         34.0004
 -21655365.62547 -16842851.46147  22161594.3364                   22161596.0204
        46.2504         42.5004
 -20439546.09046 -15872738.08243  24981596.4304                   24981607.4924
        38.2504         18.5004
 -47606226.35248 -37062903.98447  20658685.1884                   20658686.6954
        48.2504         47.7504
 -45703360.39547 -35503628.33246  20572118.5474                   20572117.8874
        46.5004         37.5004
  -7690250.88346  -5962379.79745  24609765.3594                   24609769.4414
        37.0004         30.0004
 -30855685.61747 -23980883.35246  22227526.5704                   22227529.1884
        44.5004         39.7504
  -6969805.89847  -5373880.53545  23871815.1024                   23871818.1994
        42.2504         33.5004
 25  8  8  1  0  0.0000000  0  9G16G31G09G01G03G04G06G26G07
 -25788726.81647 -18943007.19545  20954168.0864                   20954166.2774
        47.5004         35.5004
 -24018133.02046 -18654144.63745  23872476.8754                   23872476.2384
        41.5004         33.5004
 -21794822.17647 -16951518.84847  22135056.5864                   22135058.1134
        45.5004         42.0004
 -20416879.76246 -15855076.33242  24985909.4534                   24985921.0394
        36.0004         17.7504
 -47613913.60548 -37068894.08648  20657222.4774                   20657223.5164
        49.0004         48.0004
 -45792071.23047 -35572753.64846  20555237.4144                   20555236.9804
        47.0004         37.2504
  -7750144.49646  -6009050.17645  24598367.4614                   24598372.7274
        36.5004         31.0004
 -30861702.60947 -23985571.93746  22226381.2114                   22226383.7234
        42.2504         40.0004
  -7106091.87947  -5480077.18445  23845881.2584                   23845883.4104
        43.0004         33.7504
 25  8  8  1  0 30.0000000  0  9G16G31G09G01G03G04G06G26G07
 -25885842.83247 -19018681.96945  20935687.7194                   20935685.7424
        46.5004         35.7504
 -23987337.64147 -18630148.29745  23878337.0234                   23878336.3794
        42.5004         33.0004
 -21934166.25047 -17060098.59447  22108540.0164                   22108541.4024
        45.7504         42.0004
 -20394319.98846 -15837497.72342  24990203.2584                   24990214.5784
        36.0004         15.5004
 -47621066.64148 -37074467.91047  20655861.0164                   20655862.1884
        48.2504         47.7504
 -45880534.46947 -35641686.02746  20538403.3364                   20538403.2664
        46.5004         37.0004
  -7809512.45746  -6055310.96545  24587071.1954                   24587074.7274
        38.0004         30.5004
 -30867192.41447 -23989849.74646  22225336.9774                   22225338.9104
        43.7504         39.7504
  -7242161.13347  -5586104.96545  23819988.0944                   23819989.6294
        42.5004         34.2504
 25  8  8  1  1  0.0000000  0  9G16G31G09G01G03G04G06G26G07
 -25982297.99247 -19093841.80145  20917332.5164                   20917331.2504
        46.5004         35.5004
 -23956507.52746 -18606124.92645  23884203.9224                   23884203.6484
        41.2504         32.0004
 -22073398.21147 -17168590.97747  22082045.3984                   22082046.7234
        45.7504         42.5004
 -20371870.73445 -15820005.14842  24994474.8284                   24994487.2584
        35.5004         17.2504
 -47627688.52748 -37079627.85947  20654601.3984                   20654602.1524
        48.7504         47.5004
 -45968750.52347 -35710425.80546  20521616.1094                   20521616.0944
        47.5004         37.5004
  -7868357.28946  -6101164.11745  24575871.7114                   24575877.6684
        37.5004         30.7504
 -30872158.56247 -23993719.50446  22224391.8594                   22224393.8484
        43.7504         39.2504
  -7378015.43747  -5691965.25845  23794136.2344                   23794137.5744
        43.2504         33.7504
 25  8  8  1  1 30.0000000  0  9G16G31G09G01G03G04G06G26G07
 -26078088.60547 -19168483.80945  20899104.2734                   20899102.6134
        46.7504         35.5004
 -23925641.91046 -18582073.87945  23890077.0234                   23890077.0354
        40.0004         32.5004
 -22212514.71547 -17276993.38347  22055572.5084                   22055573.8284
        45.5004         42.2504
 -20349532.20345 -15802598.87542  24998726.5084                   24998738.0204
        35.7504         17.2504
 -47633778.72348 -37084373.50047  20653442.3524                   20653443.7774
        48.0004         47.5004
 -46056716.14147 -35778970.42646  20504877.0164                   20504876.3794
        47.5004         38.0004
  -7926677.84446  -6146608.75044  24564775.0474                   24564779.5664
        37.0004         29.5004
 -30876601.17647 -23997181.30946  22223546.3204                   22223548.5744
        43.7504         39.0004
  -7513652.05147  -5797655.91445  23768324.9224                   23768326.2934
        43.0004         34.5004
 25  8  8  1  2  0.0000000  0  9G16G31G09G01G03G04G06G26G07
 -26173215.35547 -19242608.52345  20881002.3444                   20881000.5234
        46.2504         35.5004
 -23894744.25846 -18557997.85945  23895956.3364                   23895956.9104
        40.5004         32.5004
 -22351516.75447 -17385306.60547  22029121.1564                   22029122.3714
        46.0004         42.2504
 -20327309.05545 -15785282.51642  25002955.0634                   25002967.4534
        34.0004         17.2504
 -47639340.95347 -37088707.73847  20652383.7274                   20652385.2424
        47.0004         47.2504
 -46144432.35247 -35847320.70746  20488185.3364                   20488184.6764
        47.2504         38.0004
  -7984477.25446  -6191647.30544  24553775.8524                   24553780.3714
        36.0004         29.5004
 -30880524.43747 -24000238.41846  22222799.7894                   22222802.2384
        42.5004         40.2504
  -7649072.81647  -5903178.39545  23742554.0704                   23742556.8244
        42.7504         34.0004
 25  8  8  1  2 30.0000000  0  9G16G31G09G01G03G04G06G26G07
 -26267676.60247 -19316214.66845  20863027.0084                   20863025.1174
        46.5004         34.7504
 -23863816.39146 -18533898.30545  23901842.9844                   23901841.5434
        40.7504         32.5004
 -22490403.10547 -17493529.66447  22002691.3834                   22002693.5704
        45.7504         42.5004
 -20305203.67245 -15768057.91842  25007162.3984                   25007174.1294
        34.7504         15.5004
 -47644376.73448 -37092631.76247  20651425.3204                   20651426.7894
        48.0004         47.2504
 -46231897.98447 -35915475.73046  20471541.0394                   20471540.8014
        47.7504         37.5004
  -8041756.50846  -6236280.52745  24542876.2424                   24542880.3164
        37.5004         30.0004
 -30883930.54747 -24002892.55946  22222151.9384                   22222154.1724
        44.0004         39.2504
  -7784277.64547  -6008532.57445  23716826.3834                   23716827.9534
        42.5004         34.0004
 25  8  8  1  3  0.0000000  0  9G16G31G09G01G03G04G06G26G07
 -26361469.30947 -19389299.86745  20845178.5634                   20845176.8554
        46.5004         35.0004
 -23832857.63746 -18509774.64145  23907733.4694                   23907733.2464
        41.0004         32.0004
 -22629170.87547 -17601660.32047  21976284.8754                   21976286.6374
        46.0004         42.2504
 -20283216.62146 -15750925.46142  25011347.3204                   25011358.8754
        36.7504         16.2504
 -47648885.99647 -37096145.50847  20650567.5314                   20650569.0314
        47.5004         47.5004
 -46319110.18448 -35983433.27746  20454945.1174                   20454944.5634
        48.0004         38.0004
  -8098514.92246  -6280507.91045  24532075.4774                   24532079.9494
        36.5004         30.5004
 -30886819.91047 -24005144.03946  22221601.8134                   22221604.4184
        42.2504         39.7504
  -7919264.20347  -6113716.71545  23691138.8834                   23691140.5354
        42.2504         33.5004
 25  8  8  1  3 30.0000000  0  9G16G31G09G01G03G04G06G26G07
 -26454592.57047 -19461863.41845  20827458.2194                   20827456.3284
        47.0004         35.5004
 -23801869.73446 -18485628.32845  23913631.1094                   23913630.6024
        39.5004         31.2504
 -22767819.31247 -17709697.99647  21949900.9304                   21949902.8794
        44.7504         42.2504
 -20261350.74646 -15733887.50842  25015507.9694                   25015520.3754
        36.2504         16.2504
 -47652870.81648 -37099250.60247  20649809.4694                   20649810.6094
        48.5004         47.5004
 -46406068.32848 -36051192.85246  20438397.7584                   20438396.9804
        48.7504         37.7504
  -8154754.10246  -6324330.69544  24521373.0634                   24521377.9774
        37.2504         29.5004
 -30889195.13747 -24006994.90646  22221150.1644                   22221152.2034
        44.0004         39.0004
  -8054033.21147  -6218731.33645  23665492.1174                   23665494.1024
        42.5004         33.5004
 25  8  8  1  4  0.0000000  0  9G16G31G09G01G03G04G06G26G07
 -26547046.47747 -19533905.39146  20809864.5394                   20809862.8984
        47.0004         36.2504
 -23770855.68746 -18461461.57445  23919532.0634                   23919531.9574
        39.5004         30.7504
 -22906348.60247 -17817642.82047  21923539.4454                   21923541.2384
        45.0004         42.5004
 -20239609.91846 -15716946.87942  25019645.2504                   25019657.8284
        37.7504         17.2504
 -47656334.21147 -37101949.39547  20649149.8134                   20649151.0824
        46.7504         47.0004
 -46492772.62948 -36118754.63746  20421898.3674                   20421898.0004
        48.0004         37.2504
  -8210476.43046  -6367750.74245  24510769.1644                   24510774.6374
        37.7504         31.5004
 -30891059.85247 -24008447.96146  22220796.1644                   22220797.3714
        43.0004         39.5004
  -8188585.59447  -6323577.16445  23639888.5634                   23639889.6644
        42.5004         32.5004
 25  8  8  1  4 30.0000000  0  9G16G31G09G01G03G04G06G26G07
 -26638826.29347 -19605422.10545  20792399.4534                   20792397.7974
        46.5004         35.5004
 -23739813.68746 -18437273.07045  23925438.8984                   23925439.5004
        37.5004         30.2504
 -23044754.28547 -17925491.32447  21897202.0864                   21897203.2934
        45.5004         42.5004
 -20217993.32446 -15700103.10543  25023759.1094                   25023770.8054
        36.2504         18.5004
 -47659274.67248 -37104240.69947  20648590.6174                   20648592.0234
        48.5004         47.0004
 -46579218.75048 -36186115.23446  20405448.0004                   20405447.5664
        48.0004         37.0004
  -8265679.84446  -6410766.43745  24500265.4144                   24500269.7774
        38.0004         30.5004
 -30892413.01247 -24009502.39846  22220538.6414                   22220540.1334
        44.5004         39.7504
  -8322917.91846  -6428251.53145  23614325.1954                   23614326.8164
        41.2504         32.7504
 25  8  8  1  5  0.0000000  0  9G16G31G09G01G03G04G06G26G07
 -26729932.89847 -19676414.23045  20775062.4224                   20775060.9924
        46.2504         35.0004
 -23708747.18746 -18413065.48845  23931352.0944                   23931351.2624
        38.7504         30.0004
 -23183037.37147 -18033244.30547  21870887.8204                   21870889.0394
        45.7504         42.5004
 -20196505.53546 -15683359.72743  25027848.5554                   25027860.3984
        37.0004         18.2504
 -47661696.06647 -37106127.52747  20648130.2894                   20648131.3834
        47.0004         47.0004
 -46665407.77347 -36253275.50046  20389046.9454                   20389046.2854
        47.0004         37.5004
  -8320367.66846  -6453380.36745  24489858.0474                   24489863.0864
        38.2504         30.5004
 -30893259.06247 -24010161.69546  22220377.4224                   22220379.1684
        42.2504         38.7504
  -8457032.19146  -6532755.97745  23588804.5084                   23588805.6644
        41.0004         33.0004
 25  8  8  1  5 30.0000000  0  9G16G31G09G01G03G04G06G26G07
 -26820365.42247 -19746881.11345  20757853.7274                   20757851.8094
        45.5004         35.7504
 -23677658.10546 -18388840.22345  23937266.2814                   23937267.7934
        38.7504         30.5004
 -23321196.94147 -18140901.03547  21844596.0944                   21844598.0594
        45.5004         42.5004
 -20175149.10546 -15666718.69943  25031913.3524                   25031924.6334
        37.5004         19.0004
 -47663600.38347 -37107611.44547  20647767.8754                   20647769.2344
        47.5004         47.2504
 -46751338.80948 -36320234.73846  20372694.6804                   20372694.3014
        48.0004         37.7504
  -8374541.34446  -6495593.66445  24479549.5474                   24479554.2814
        37.5004         31.0004
 -30893600.55147 -24010427.81646  22220311.3754                   22220314.1844
        43.7504         39.0004
  -8590928.52347  -6637090.61345  23563324.3594                   23563325.7934
        42.2504         32.5004
 25  8  8  1  6  0.0000000  0  9G16G31G09G01G03G04G06G26G07
 -26910125.14847 -19816823.73045  20740772.8524                   20740771.2344
        47.5004         35.7504
 -23646549.77346 -18364600.05545  23943186.8594                   23943187.7854
        37.5004         30.7504
 -23459234.25847 -18248462.50847  21818328.4774                   21818330.0204
        45.5004         42.5004
 -20153928.95346 -15650183.81243  25035951.0394                   25035963.1374
        36.5004         18.2504
 -47664991.85247 -37108695.74647  20647503.2894                   20647504.2974
        47.7504         47.2504
 -46837013.24247 -36386994.02746  20356391.3754                   20356390.7194
        47.5004         36.7504
  -8428204.63745  -6537409.25445  24469337.8204                   24469342.9184
        35.7504         31.0004
 -30893442.17647 -24010304.44546  22220341.2894                   22220344.3404
        44.0004         38.7504
  -8724609.22347  -6741257.25445  23537886.8054                   23537887.1684
        42.2504         32.2504
 25  8  8  1  6 30.0000000  0  9G16G31G09G01G03G04G06G26G07
 -26999205.29747 -19886236.80945  20723821.5314                   20723819.8754
        45.7504         35.0004
 -23615418.29346 -18340341.83245  23949112.2664                   23949111.0704
        39.0004         31.5004
 -23597142.43047 -18355923.35247  21792086.0394                   21792086.9574
        46.2504         42.7504
 -20132841.74646 -15633752.57843  25039963.8204                   25039976.0594
        37.5004         19.7504
 -47665866.69147 -37109377.48047  20647336.7344                   20647337.6334
        47.2504         47.0004
 -46922424.32847 -36453548.10546  20340138.2504                   20340137.8134
        46.7504         37.5004
  -8481352.99246  -6578823.59844  24459224.3594                   24459229.0004
        37.0004         29.7504
 -30892780.66846 -24009789.03546  22220467.8984                   22220470.0744
        41.5004         38.5004
  -8858068.64146  -6845251.47345  23512488.4304                   23512490.5744
        41.5004         32.7504
 25  8  8  1  7  0.0000000  0  9G16G31G09G01G03G04G06G26G07
 -27087605.84847 -19955120.32445  20706999.3134                   20706997.4454
        46.5004         34.7504
 -23584266.12546 -18316067.45744  23955039.3134                   23955039.4304
        40.2504         29.2504
 -23734921.54347 -18463283.63347  21765867.1094                   21765868.7274
        45.5004         42.7504
 -20111891.18046 -15617427.76643  25043951.0784                   25043963.1484
        39.0004         20.0004
 -47666227.91047 -37109658.97747  20647267.7034                   20647268.8134
        47.5004         47.2504
 -47007572.22348 -36519897.10246  20323935.1414                   20323934.5514
        48.0004         37.5004
  -8533989.07046  -6619838.75844  24449207.0394                   24449212.1024
        36.7504         29.5004
 -30891619.59047 -24008884.34446  22220689.2504                   22220691.0314
        42.5004         38.5004
  -8991307.61747  -6949073.90245  23487134.6024                   23487135.9304
        42.0004         32.7504
 25  8  8  1  7 30.0000000  0  8G16G31G09G03G04G06G26G07
 -27175326.46147 -20023474.03145  20690306.6804                   20690304.7704
        45.0004         34.7504
 -23553095.60246 -18291778.78545  23960970.7194                   23960970.9614
        39.5004         30.5004
 -23872571.07047 -18570542.94147  21739673.5704                   21739674.9024
        45.2504         42.7504
 -47666077.98047 -37109542.18747  20647296.3834                   20647297.8404
        46.7504         47.0004
 -47092456.51647 -36586040.69546  20307782.4454                   20307781.5744
        47.0004         37.5004
  -8586114.83246  -6660456.28144  24439288.6094                   24439293.7894
        37.5004         29.7504
 -30889961.99647 -24007592.72346  22221004.3204                   22221006.6994
        42.2504         38.7504
  -9124326.75447  -7052725.03545  23461821.5164                   23461823.0274
        42.0004         33.5004
 25  8  8  1  8  0.0000000  0  8G16G31G09G03G04G06G26G07
 -27262366.30547 -20091297.25445  20673743.8754                   20673741.8914
        47.0004         34.7504
 -23521907.76646 -18267476.62145  23966905.8674                   23966905.6954
        39.5004         31.0004
 -24010090.02347 -18677700.49647  21713504.3834                   21713505.5634
        46.0004         42.7504
 -47665419.07447 -37109028.80547  20647421.6024                   20647423.2934
        47.0004         47.0004
 -47177076.34047 -36651978.21546  20291679.8524                   20291679.0394
        47.7504         37.5004
  -8637731.86746  -6700677.39544  24429466.0164                   24429471.0554
        36.7504         29.7504
 -30887810.35946 -24005916.16446  22221413.2664                   22221415.9884
        41.5004         38.2504
  -9257126.52047  -7156205.24645  23436550.9224                   23436552.2034
        42.2504         33.7504
 25  8  8  1  8 30.0000000  0  8G16G31G09G03G04G06G26G07
 -27348720.92647 -20158586.54745  20657310.9224                   20657309.1174
        45.7504         35.0004
 -23490700.73846 -18243159.50445  23972843.3524                   23972844.1094
        38.0004         30.7504
 -24147473.53947 -18784752.53547  21687361.2034                   21687362.1994
        46.0004         43.0004
 -47664249.37547 -37108117.38747  20647644.2734                   20647645.6024
        47.2504         47.0004
 -47261426.96548 -36717705.97346  20275628.4534                   20275627.6844
        48.0004         38.0004
  -8688837.86346  -6740500.28945  24419740.9064                   24419745.8794
        37.7504         30.7504
 -30885163.55946 -24003853.77346  22221917.8284                   22221919.6684
        41.7504         38.2504
  -9389702.96147  -7259511.43745  23411322.4144                   23411323.4344
        42.2504         33.7504
 25  8  8  1  9  0.0000000  0  8G16G31G09G03G04G06G26G07
 -27434381.36747 -20225334.92645  20641010.1254                   20641008.7114
        45.7504         35.5004
 -23459467.99646 -18218822.37145  23978787.6484                   23978787.9534
        39.0004         30.0004
 -24284712.96147 -18891692.28947  21661244.8984                   21661246.5274
        45.5004         42.7504
 -47662563.34048 -37106803.63347  20647964.9454                   20647966.6294
        48.0004         46.7504
 -47345499.80547 -36783217.26646  20259629.8054                   20259628.8204
        47.0004         38.0004
  -8739426.62546  -6779920.14545  24410113.8594                   24410119.6134
        38.0004         31.0004
 -30882016.40647 -24001401.48446  22222516.6954                   22222518.3204
        42.7504         37.7504
  -9522048.48047  -7362637.66845  23386137.4694                   23386138.4844
        43.0004         33.0004
 25  8  8  1  9 30.0000000  0  8G16G31G09G03G04G06G26G07
 -25943919.96147 -19063936.39845  20924635.5704                   20924634.0124
        47.0004         35.0004
 -21852788.27746 -16966864.19945  24284528.4454                   24284528.8554
        41.0004         30.2504
 -22846378.34847 -17770912.01647  21934951.0234                   21934952.2344
        46.0004         43.2504
 -46084938.85247 -35877485.89147  20948177.3444                   20948178.5634
        46.7504         46.7504
 -45853866.91447 -35620905.91446  20543477.8754                   20543477.1214
        47.5004         38.0004
  -7214073.90646  -5591333.67245  24700379.6564                   24700384.1024
        37.5004         31.2504
 -29302947.41446 -22770958.13346  22523002.7344                   22523005.8204
        41.0004         37.5004
  -8078734.77047  -6237977.50845  23660790.8054                   23660791.5554
        42.0004         33.2504
 25  8  8  1 10  0.0000000  0  8G16G31G09G03G04G06G26G07
 -26028178.66847 -19129592.51645  20908601.6884                   20908599.7734
        47.0004         35.2504
 -21821497.98046 -16942482.18445  24290482.9304                   24290483.2384
        40.5004         30.0004
 -22983314.75447 -17877615.65647  21908893.2034                   21908894.2034
        46.2504         43.5004
 -46082214.80947 -35875363.30547  20948695.1024                   20948696.8204
        47.7504         46.7504
 -45937369.89547 -35685973.16446  20527587.9614                   20527587.0594
        47.7504         38.0004
  -7263621.52746  -5629942.23845  24690949.9384                   24690955.7304
        37.0004         30.0004
 -29298795.86347 -22767723.20346  22523792.7274                   22523795.5434
        42.7504         37.2504
  -8210607.62547  -6340735.44545  23635696.4694                   23635697.2234
        42.5004         32.5004
 25  8  8  1 10 30.0000000  0  8G16G31G09G03G04G06G26G07
 -26111741.82847 -19194706.64145  20892700.0474                   20892698.1254
        47.0004         35.5004
 -21790186.98046 -16918084.03545  24296441.1804                   24296441.1024
        39.7504         31.2504
 -23120104.42647 -17984204.96947  21882863.1644                   21882864.1564
        45.7504         43.0004
 -46078981.31247 -35872843.73847  20949311.3524                   20949312.8284
        47.5004         46.7504
 -46020592.88347 -35750822.23846  20511750.7894                   20511750.0634
        47.0004         38.2504
  -7312657.33246  -5668152.01244  24681619.3524                   24681624.8674
        36.5004         29.5004
 -29294152.32447 -22764104.89846  22524676.7344                   22524679.4774
        42.5004         37.5004
  -8342250.30947  -6443314.02045  23610644.6254                   23610646.2584
        42.2504         33.2504
 25  8  8  1 11  0.0000000  0  8G16G31G09G03G04G06G26G07
 -26194608.76247 -19259278.25046  20876930.9844                   20876929.2464
        47.5004         36.0004
 -21758857.24246 -16893671.30945  24302403.1564                   24302403.3954
        40.5004         30.5004
 -23256746.37947 -18090679.16447  21856860.4774                   21856861.8594
        45.5004         43.2504
 -46075240.62148 -35869928.95747  20950022.4614                   20950024.0984
        48.0004         46.7504
 -46103535.06647 -35815452.50446  20495967.6254                   20495967.3164
        47.0004         37.7504
  -7361183.03146  -5705964.30945  24672385.5234                   24672390.2774
        37.2504         30.7504
 -29289019.55947 -22760105.38346  22525653.6094                   22525656.3324
        42.7504         37.5004
  -8473663.21947  -6545713.53945  23585638.0554                   23585639.3754
        42.0004         33.5004
 25  8  8  1 11 30.0000000  0  8G16G31G09G03G04G06G26G07
 -26276779.07847 -19323307.04745  20861294.9144                   20861292.2344
        47.5004         35.2504
 -21727510.62146 -16869245.44145  24308368.8054                   24308368.2734
        40.0004         30.2504
 -23393239.82047 -18197037.64147  21830887.1174                   21830888.3094
        45.7504         43.2504
 -46070995.21548 -35866620.88747  20950830.8284                   20950832.0824
        48.0004         46.7504
 -46186195.88747 -35879863.52046  20480237.4614                   20480237.1914
        46.5004         37.7504
  -7409200.68446  -5743380.71145  24663248.1884                   24663253.0704
        37.2504         30.2504
 -29283400.47346 -22755726.90646  22526722.8524                   22526725.4454
        41.2504         37.5004
  -8604847.11747  -6647934.60545  23560675.3284                   23560675.2154
        43.2504         33.7504
 25  8  8  1 12  0.0000000  0  8G16G31G09G03G04G06G26G07
 -26358249.17247 -19386790.21146  20845791.4224                   20845789.5594
        47.0004         36.2504
 -21696145.35546 -16844805.01645  24314337.2584                   24314337.2384
        41.0004         31.0004
 -23529580.71547 -18303277.25047  21804941.9844                   21804943.0944
        45.7504         43.7504
 -46066244.23447 -35862918.85547  20951734.8594                   20951736.4344
        47.5004         46.7504
 -46268571.37947 -35944052.21146  20464562.2114                   20464561.4144
        47.0004         38.0004
  -7456708.85946  -5780400.12945  24654207.6884                   24654212.2424
        36.7504         30.0004
 -29277294.77746 -22750969.26646  22527884.3984                   22527887.1094
        41.0004         37.7504
  -8735798.88347  -6749974.79745  23535755.7424                   23535756.0904
        43.5004         34.2504
 25  8  8  1 12 30.0000000  0  8G16G31G09G03G04G06G26G07
 -26439021.63747 -19449729.77045  20830420.7664                   20830419.2074
        46.5004         35.7504
 -21664765.98046 -16820353.62945  24320308.9844                   24320309.0514
        41.0004         31.5004
 -23665770.97747 -18409399.47747  21779025.5944                   21779026.8794
        45.5004         43.2504
 -46060992.96548 -35858827.00047  20952734.2584                   20952735.3554
        48.0004         46.7504
 -46350663.64147 -36008020.20346  20448940.8204                   20448939.9304
        45.5004         37.5004
  -7503712.37546  -5817026.29344  24645263.1564                   24645268.0904
        37.5004         29.5004
 -29270708.12947 -22745836.86346  22529138.1094                   22529140.6294
        43.5004         37.5004
  -8866521.66847  -6851836.54345  23510879.7894                   23510880.4144
        43.5004         35.0004
 25  8  8  1 13  0.0000000  0  8G16G31G09G03G04G06G26G07
 -26519100.16847 -19512128.59846  20815182.1644                   20815180.1644
        46.5004         36.2504
 -21633378.31646 -16795895.74245  24326281.8444                   24326281.6994
        41.5004         31.7504
 -23801814.01247 -18515406.97747  21753136.8594                   21753138.7704
        46.0004         43.7504
 -46055248.05948 -35854350.49247  20953827.5944                   20953829.0744
        48.5004         46.7504
 -46432476.27747 -36071770.30146  20433372.3834                   20433371.5314
        46.0004         38.2504
  -7550217.41446  -5853264.04345  24636413.0944                   24636418.5704
        37.5004         30.5004
 -29263647.61347 -22740335.19146  22530482.0004                   22530484.4224
        42.7504         36.5004
  -8997020.24247  -6953523.59045  23486046.0394                   23486046.7504
        44.0004         35.2504
 25  8  8  1 13 30.0000000  0  8G16G31G09G03G04G06G26G07
 -26598481.53947 -19573984.19546  20800076.1414                   20800074.8444
        47.5004         36.0004
 -21601981.11746 -16771430.44945  24332256.1024                   24332256.3244
        41.2504         31.0004
 -23937705.77347 -18621296.61747  21727277.8524                   21727279.0124
        45.7504         43.7504
 -46049008.86348 -35849488.82447  20955014.6414                   20955015.8164
        49.0004         46.5004
 -46514005.40647 -36135299.48446  20417857.6024                   20417857.0164
        47.2504         37.5004
  -7596222.77746  -5889112.43045  24627659.8984                   24627663.9654
        38.0004         30.2504
 -29256113.05547 -22734464.14846  22531916.2424                   22531917.8594
        44.0004         37.7504
  -9127291.84047  -7055033.76246  23461256.3444                   23461257.0744
        44.0004         36.0004
 25  8  8  1 14  0.0000000  0  8G16G31G09G03G04G06G26G07
 -26677164.30147 -19635295.41845  20785103.6564                   20785101.4304
        45.5004         35.2504
 -21570574.84846 -16746958.06245  24338232.7034                   24338232.8444
        41.5004         32.2504
 -24073444.21547 -18727066.78547  21701447.8364                   21701449.3134
        45.0004         43.7504
 -46042276.68447 -35844243.01647  20956295.6564                   20956297.2424
        47.7504         46.2504
 -46595249.12947 -36198606.29746  20402397.7034                   20402396.7814
        45.5004         38.2504
  -7641729.33646  -5924572.14845  24619000.4694                   24619004.7974
        38.0004         30.0004
 -29248106.18746 -22728225.05146  22533438.9844                   22533441.9384
        40.7504         37.7504
  -9257335.57447  -7156366.37945  23436509.5704                   23436510.2814
        43.5004         35.5004
 25  8  8  1 14 30.0000000  0  8G16G31G09G03G04G06G26G07
 -26755146.32447 -19696060.61745  20770263.8284                   20770262.2934
        47.0004         35.0004
 -21539159.42646 -16722478.59445  24344211.2194                   24344211.3164
        39.5004         30.0004
 -24209026.82847 -18832715.52047  21675647.5554                   21675648.2584
        45.7504         43.5004
 -46035052.39548 -35838613.74247  20957670.6094                   20957672.3094
        48.2504         46.2504
 -46676205.23047 -36261688.96946  20386992.2274                   20386991.4774
        47.5004         38.0004
  -7686737.43046  -5959643.44545  24610435.4064                   24610440.0204
        37.7504         31.0004
 -29239628.31647 -22721618.96946  22535052.4304                   22535055.2464
        42.5004         36.7504
  -9387150.50047  -7257520.70745  23411806.3444                   23411807.5004
        43.0004         35.5004
 25  8  8  1 15  0.0000000  0  8G16G31G09G03G04G06G26G07
 -26832429.86347 -19756281.53145  20755557.7814                   20755555.4304
        45.7504         35.7504
 -21507738.52746 -16697994.83645  24350191.1254                   24350190.1914
        41.2504         31.7504
 -24344454.85547 -18938243.78947  21649876.1024                   21649877.4574
        45.5004         43.5004
 -46027340.68048 -35832604.65647  20959137.9384                   20959139.6724
        48.2504         46.2504
 -46756875.07847 -36324548.58646  20371641.3754                   20371640.8204
        45.2504         37.7504
  -7731251.31246  -5994329.66044  24601964.1254                   24601969.1174
        37.2504         29.5004
 -29230684.59847 -22714649.88346  22536755.3204                   22536757.1764
        44.5004         37.0004
  -9516738.83647  -7358498.47346  23387146.9454                   23387147.4304
        43.5004         36.2504
 25  8  8  1 15 30.0000000  0  8G16G31G09G03G04G06G26G07
 -26909015.82847 -19815958.88345  20740983.8524                   20740981.8754
        46.7504         35.5004
 -21476315.00846 -16673509.00845  24356170.0944                   24356170.8134
        40.5004         32.2504
 -24479728.45347 -19043651.73447  21624134.3524                   21624135.3164
        45.2504         43.5004
 -46019145.09447 -35826218.52347  20960697.8204                   20960699.2154
        47.7504         46.2504
 -46837259.05547 -36387185.45346  20356344.0634                   20356343.7704
        46.5004         37.0004
  -7775274.07446  -6028633.17244  24593587.8054                   24593592.0904
        37.2504         29.0004
 -29221279.01247 -22707320.88346  22538544.9924                   22538547.5554
        43.5004         37.0004
  -9646102.51247  -7459301.17646  23362529.5474                   23362530.2814
        43.2504         36.5004
 25  8  8  1 16  0.0000000  0  8G16G31G09G03G04G06G26G07
 -26984903.98047 -19875092.49245  20726542.8284                   20726540.7154
        46.7504         35.2504
 -21444890.80546 -16649022.65245  24362149.4534                   24362150.3634
        38.2504         30.7504
 -24614846.91047 -19148938.78947  21598422.1094                   21598423.2344
        45.2504         43.5004
 -46010468.34447 -35819457.46147  20962348.7274                   20962350.5044
        47.2504         46.0004
 -46917356.61347 -36449599.12946  20341102.0474                   20341101.9384
        47.5004         37.2504
  -7818807.98446  -6062555.75444  24585302.2194                   24585307.5664
        37.0004         28.7504
 -29211414.58246 -22699634.35946  22540422.5084                   22540424.3324
        41.5004         37.7504
  -9775241.92647  -7559929.13746  23337954.8914                   23337955.3284
        43.0004         36.5004
 25  8  8  1 16 30.0000000  0  8G16G31G09G03G04G06G26G07
 -27060092.03547 -19933680.55945  20712234.7974                   20712232.7664
        47.2504         35.5004
 -21413465.35246 -16624535.37145  24368129.4454                   24368129.9964
        39.0004         31.0004
 -24749807.30547 -19254102.67647  21572740.0234                   21572741.2194
        46.2504         43.5004
 -46001311.09848 -35812322.00047  20964091.2894                   20964093.0514
        48.5004         46.0004
 -46997165.13347 -36511787.58246  20325915.1564                   20325914.6484
        47.0004         37.0004
  -7861853.14146  -6096097.49644  24577111.7424                   24577116.7304
        38.5004         29.7504
 -29201092.43047 -22691591.14146  22542386.6724                   22542388.6454
        43.5004         37.0004
  -9904155.62147  -7660381.21145  23313423.0784                   23313424.0984
        42.5004         35.7504
 25  8  8  1 17  0.0000000  0  8G16G31G09G03G04G06G26G07
 -27134581.29747 -19991724.11345  20698059.6954                   20698058.3014
        47.5004         35.7504
 -21382040.94146 -16600048.87545  24374109.1254                   24374109.8524
        39.0004         30.0004
 -24884609.40647 -19359143.22347  21547087.8284                   21547089.0554
        46.2504         43.7504
 -45991676.60248 -35804814.64147  20965925.1884                   20965926.5824
        48.5004         46.2504
 -47076684.57448 -36573750.77346  20310783.3054                   20310782.5824
        48.2504         37.5004
  -7904412.34446  -6129260.57444  24569012.8594                   24569018.0704
        37.5004         29.7504
 -29190316.18747 -22683194.08646  22544436.6644                   22544438.9654
        42.7504         37.0004
 -10032844.71547  -7760658.27745  23288934.7734                   23288935.1484
        43.2504         35.5004
 25  8  8  1 17 30.0000000  0  8G16G31G09G03G04G06G26G07
 -27208381.62147 -20049230.84845  20684016.5234                   20684014.1524
        47.2504         35.5004
 -21350629.17246 -16575572.19145  24380086.3674                   24380087.2304
        39.5004         31.0004
 -25019262.35247 -19464067.53947  21521464.5084                   21521465.1024
        45.5004         43.5004
 -45981577.44547 -35796945.21547  20967846.7894                   20967848.3524
        47.2504         46.0004
 -47155924.28947 -36635495.99646  20295704.6644                   20295703.8714
        47.7504         37.5004
  -7946497.71946  -6162054.44144  24561004.5084                   24561009.2344
        37.0004         28.7504
 -29179098.91446 -22674453.38346  22546571.3984                   22546573.6604
        40.7504         37.0004
 -10161319.79347  -7860768.59446  23264486.2424                   23264487.1414
        42.5004         36.2504
 25  8  8  1 18  0.0000000  0  8G16G31G09G03G04G06G26G07
 -27281491.17647 -20106199.31245  20670103.6024                   20670101.9614
        47.5004         35.7504
 -21319230.36746 -16551105.68444  24386061.3054                   24386063.1524
        37.7504         29.5004
 -25153763.56247 -19568873.62147  21495869.6724                   21495870.6644
        44.7504         44.0004
 -45971014.72347 -35788714.56247  20969856.6644                   20969858.4654
        47.0004         46.0004
 -47234881.95747 -36697021.44546  20280679.6024                   20280678.9144
        47.2504         37.7504
  -7988109.91446  -6194479.59844  24553086.7194                   24553090.7154
        37.0004         28.5004
 -29167442.00046 -22665370.11746  22548789.9614                   22548791.9494
        41.0004         36.5004
 -10289579.62547  -7960711.19146  23240079.2034                   23240080.0904
        43.0004         36.5004
 25  8  8  1 18 30.0000000  0  9G16G27G31G09G03G04G06G26G07
 -27353912.12947 -20162631.20745  20656322.6804                   20656320.6484
        46.7504         35.2504
   9218054.60555   7255876.94153  24911227.0004                   24911232.8834
        33.2504         19.0004
 -21287847.81246 -16526651.78945  24392033.9454                   24392034.9224
        38.5004         30.5004
 -25288114.28947 -19673562.44147  21470303.4614                   21470304.0864
        46.0004         43.7504
 -45959993.14848 -35780126.37147  20971954.0004                   20971955.8984
        48.0004         46.0004
 -47313558.98848 -36758328.21546  20265707.8284                   20265706.8484
        48.2504         38.0004
  -8029253.18746  -6226539.34844  24545256.7344                   24545261.8094
        37.0004         28.2504
 -29155350.48847 -22655948.18046  22551091.3524                   22551092.6684
        43.0004         36.7504
 -10417626.85947  -8060488.12546  23215712.6804                   23215713.1884
        43.0004         36.7504
 25  8  8  1 19  0.0000000  0  9G16G27G31G09G03G04G06G26G07
 -27425640.75447 -20218523.61345  20642673.1254                   20642670.9654
        46.7504         35.5004
   9070272.64845   7140722.37943  24883104.8054                   24883110.7424
        33.5004         18.5004
 -21256479.06646 -16502208.66845  24398002.8834                   24398004.3444
        39.0004         30.7504
 -25422309.55947 -19778130.13747  21444767.0084                   21444768.0204
        45.0004         44.0004
 -45948511.35548 -35771179.57047  20974139.3524                   20974140.8834
        49.0004         46.0004
 -47391950.75047 -36819412.69946  20250790.3524                   20250789.3524
        47.7504         37.7504
  -8069925.82846  -6258232.37144  24537516.4694                   24537521.2424
        36.5004         28.2504
 -29142823.60547 -22646186.99646  22553473.9844                   22553476.7344
        43.0004         36.7504
 -10545457.98047  -8160096.67646  23191386.8594                   23191387.6764
        42.7504         36.0004
 25  8  8  1 19 30.0000000  0  9G16G27G31G09G03G04G06G26G07
 -27496675.24247 -20273875.15245  20629156.0394                   20629154.3204
        46.7504         35.7504
   8922514.87545   7025586.65243  24854987.4064                   24854993.3014
        34.7504         21.5004
 -21225124.03146 -16477776.23044  24403969.4614                   24403970.0434
        38.7504         29.0004
 -25556346.85247 -19882574.73447  21419260.5394                   21419261.4614
        45.5004         44.2504
 -45936570.44548 -35761875.01247  20976411.3674                   20976413.0394
        48.5004         46.0004
 -47470054.98847 -36880273.13746  20235927.7974                   20235926.9734
        47.0004         37.5004
  -8110128.44546  -6289559.15644  24529866.5864                   24529870.8164
        37.0004         28.2504
 -29129862.67647 -22636087.59846  22555940.9144                   22555943.3524
        43.2504         36.7504
 -10673071.91447  -8259535.99246  23167103.1884                   23167103.3874
        43.7504         36.5004
 25  8  8  1 20  0.0000000  0  9G16G27G31G09G03G04G06G26G07
 -27567016.31247 -20328686.35545  20615770.2894                   20615768.0864
        47.2504         35.2504
   8774783.86345   6910471.75843  24826874.6484                   24826881.0784
        35.2504         22.0004
 -21193784.84046 -16453356.16444  24409934.2274                   24409933.9844
        38.7504         29.5004
 -25690225.21547 -19986895.49247  21393783.9534                   21393784.6884
        46.0004         44.5004
 -45924173.11348 -35752214.80947  20978770.5704                   20978772.7504
        48.2504         46.0004
 -47547871.00847 -36940908.98046  20221119.7274                   20221118.6684
        47.7504         38.0004
  -8149863.29746  -6320521.44144  24522305.2734                   24522309.7424
        36.5004         27.5004
 -29116470.83647 -22625652.41846  22558489.1024                   22558491.3284
        43.0004         36.5004
 -10800468.97747  -8358806.33246  23142860.0084                   23142860.0664
        43.5004         36.5004
 25  8  8  1 20 30.0000000  0  9G16G27G31G09G03G04G06G26G07
 -27636662.93447 -20382956.42646  20602516.7424                   20602514.8404
        47.0004         36.0004
   8627083.06646   6795380.42644  24798768.1414                   24798774.3014
        36.0004         24.2504
 -21162462.00046 -16428948.77744  24415895.2114                   24415894.2734
        39.7504         29.5004
 -25823942.90647 -20091091.05147  21368338.6484                   21368339.5864
        45.7504         44.2504
 -45911321.25848 -35742200.43047  20981216.1804                   20981218.0354
        48.0004         46.0004
 -47625397.28947 -37001319.05146  20206367.1414                   20206365.9064
        46.7504         37.2504
  -8189131.80146  -6351120.32044  24514833.4924                   24514837.8554
        37.0004         28.2504
 -29102650.25047 -22614883.14846  22561118.4224                   22561121.3914
        42.0004         36.5004
 -10927649.36747  -8457907.83646  23118658.1954                   23118658.6054
        42.2504         36.2504
 25  8  8  1 21  0.0000000  0  9G16G27G31G09G03G04G06G26G07
 -27705611.94147 -20436682.91445  20589396.6724                   20589394.3094
        45.7504         35.5004
   8479418.71146   6680317.47744  24770667.7034                   24770674.2274
        37.2504         26.2504
 -21131153.39846 -16404552.52745  24421852.7584                   24421853.4494
        38.5004         30.0004
 -25957495.61347 -20195158.05947  21342924.3834                   21342924.9064
        45.5004         44.2504
 -45898014.21148 -35731831.34847  20983748.7974                   20983750.0084
        48.0004         46.0004
 -47702629.80547 -37061500.21946  20191669.7344                   20191669.0944
        46.5004         37.5004
  -8227932.91845  -6381355.02044  24507449.0474                   24507454.2154
        35.2504         28.5004
 -29088400.68746 -22603779.63346  22563830.5164                   22563833.2774
        41.7504         36.5004
 -11054610.02746  -8556838.12546  23094498.4694                   23094498.2734
        41.7504         36.5004
 25  8  8  1 21 30.0000000  0  9G16G27G31G09G03G04G06G26G07
 -26198441.50447 -19262264.36345  20876201.3674                   20876199.5124
        47.0004         35.5004
   9907218.28546   7792888.75844  25042369.4224                   25042375.3754
        38.5004         29.0004
 -19524441.92246 -15152569.62944  24727599.0004                   24727600.5594
        38.2504         28.5004
 -24515457.94547 -19071492.30147  21617335.0704                   21617335.6844
        45.5004         44.5004
 -44308835.29747 -34493510.16847  21286159.3594                   21286160.9064
        47.7504         45.7504
 -46204145.38347 -35893850.00046  20476821.8524                   20476821.1094
        45.7504         37.5004
  -6690847.77346  -5183626.39844  24799946.4694                   24799952.6134
        37.5004         29.5004
 -27498305.79346 -21364744.68046  22866415.6334                   22866418.5634
        41.2504         36.2504
  -9605927.37547  -7427994.39546  23370173.0864                   23370173.9654
        42.5004         36.2504
 25  8  8  1 22  0.0000000  0  9G16G27G31G09G03G04G06G26G07
 -26265995.05147 -19314903.48045  20863346.2584                   20863344.3204
        46.7504         35.7504
   9759635.90246   7677889.68844  25014285.6094                   25014291.3324
        39.2504         29.7504
 -19493165.91446 -15128198.76644  24733550.9844                   24733551.2194
        37.7504         27.7504
 -24648676.55147 -19175298.97347  21591984.2814                   21591984.7424
        45.5004         44.5004
 -44294625.02047 -34482437.27747  21288863.3984                   21288865.1414
        46.7504         45.5004
 -46280787.18447 -35953570.85946  20462237.6254                   20462237.0164
        46.2504         38.2504
  -6728719.99246  -5213137.28544  24792740.1804                   24792745.2814
        37.2504         29.2504
 -27483206.30147 -21352978.86745  22869289.4614                   22869291.6054
        42.2504         35.7504
  -9732449.26247  -7526582.78546  23346096.8914                   23346097.6254
        43.5004         36.5004
 25  8  8  1 22 30.0000000  0  9G16G27G31G09G03G04G06G26G07
 -26332846.65647 -19366995.62546  20850624.7974                   20850623.0394
        47.7504         36.0004
   9612103.33646   7562929.43045  24986210.7194                   24986216.4534
        39.7504         31.0004
 -19461903.58246 -15103838.56244  24739500.7504                   24739501.0044
        38.0004         28.5004
 -24781721.94947 -19278970.67247  21566666.2814                   21566667.2304
        45.2504         44.5004
 -44279962.51247 -34471012.00847  21291653.6024                   21291655.7734
        47.5004         45.5004
 -46357127.91847 -36013057.12546  20447710.0234                   20447709.6954
        46.5004         37.5004
  -6766126.52046  -5242285.27745  24785622.2274                   24785627.2664
        37.5004         30.0004
 -27467681.90647 -21340881.96546  22872244.1644                   22872245.4414
        42.5004         36.5004
  -9858747.51247  -7624996.91446  23322063.1724                   23322063.4924
        43.0004         36.5004
 25  8  8  1 23  0.0000000  0  9G16G27G31G09G03G04G06G26G07
 -26398999.41447 -19418543.21546  20838036.4534                   20838034.8134
        47.5004         36.0004
   9464620.34446   7448007.82045  24958145.1724                   24958150.9924
        39.5004         31.0004
 -19430659.41046 -15079492.52044  24745445.4534                   24745446.5904
        36.7504         28.2504
 -24914596.01247 -19382508.87147  21541381.5864                   21541382.5084
        46.0004         44.7504
 -44264853.48047 -34459238.79747  21294529.0004                   21294530.4574
        46.5004         45.2504
 -46433169.71547 -36072310.46146  20433239.7034                   20433239.0944
        47.0004         38.0004
  -6803072.61346  -5271074.50045  24778591.8054                   24778596.3244
        38.5004         30.0004
 -27451738.39547 -21328458.44546  22875276.8134                   22875279.9804
        42.0004         36.5004
  -9984825.81247  -7723239.64846  23298070.8834                   23298071.4414
        43.5004         37.2504
 25  8  8  1 23 30.0000000  0  9G16G27G31G09G03G04G06G26G07
 -26464450.10547 -19469543.73846  20825581.5164                   20825579.4264
        47.0004         36.0004
   9317193.56346   7333130.01645  24930089.9924                   24930096.3054
        39.2504         32.0004
 -19399431.00446 -15055158.73044  24751387.7814                   24751389.0354
        36.7504         26.5004
 -25047293.95347 -19485909.84447  21516129.8834                   21516130.7814
        45.7504         44.7504
 -44249296.86347 -34447116.81247  21297489.2194                   21297490.6914
        47.5004         44.7504
 -46508908.09447 -36131327.35946  20418827.5784                   20418827.0234
        46.5004         38.0004
  -6839556.84846  -5299503.83644  24771649.2194                   24771654.0904
        38.0004         29.7504
 -27435375.10946 -21315707.87146  22878391.2894                   22878393.7934
        41.7504         36.5004
 -10110680.87147  -7821308.44546  23274121.3284                   23274121.8914
        43.0004         37.5004
 25  8  8  1 24  0.0000000  0  9G16G27G31G09G03G04G06G26G07
 -26529195.67647 -19519994.81646  20813260.9144                   20813259.1024
        46.7504         36.0004
   9169828.88746   7218300.60945  24902047.8674                   24902053.5434
        39.0004         30.5004
 -19368216.64146 -15030835.91044  24757328.8674                   24757328.4924
        38.2504         28.2504
 -25179811.56247 -19589170.28147  21490911.9694                   21490913.1134
        45.7504         44.7504
 -44233292.25047 -34434645.73447  21300534.7974                   21300536.5084
        46.5004         44.5004
 -46584339.22347 -36190104.84846  20404473.6884                   20404472.8834
        47.2504         38.5004
  -6875578.37946  -5327572.63344  24764794.3914                   24764799.8954
        38.2504         29.7504
 -27418592.05547 -21302630.19945  22881585.5474                   22881587.3404
        42.7504         35.7504
 -10236310.20347  -7919201.34446  23250215.0554                   23250215.3914
        43.7504         37.2504
 25  8  8  1 24 30.0000000  0  9G16G27G31G09G03G04G06G26G07
 -26593237.70347 -19569897.68046  20801073.8444                   20801072.1454
        47.5004         36.0004
   9022527.98046   7103520.89845  24874016.9454                   24874023.0634
        38.7504         31.2504
 -19337018.73846 -15006525.90244  24763264.7814                   24763265.1994
        36.7504         26.0004
 -25312148.83247 -19692290.19947  21465729.5554                   21465730.2934
        45.5004         44.7504
 -44216843.47347 -34421828.56247  21303664.8444                   21303666.4614
        47.0004         44.5004
 -46659463.48047 -36248643.21946  20390178.2274                   20390177.0514
        46.5004         38.5004
  -6911140.76646  -5355283.65245  24758026.9534                   24758032.1914
        37.2504         30.0004
 -27401393.30947 -21289228.59846  22884858.5554                   22884860.1804
        43.0004         36.0004
 -10361715.52747  -8016919.69546  23226351.6024                   23226351.6884
        43.0004         37.0004
 25  8  8  1 25  0.0000000  0  9G16G27G31G09G03G04G06G26G07
 -26656577.64147 -19619253.46146  20789020.8524                   20789018.7114
        47.5004         36.0004
   8875292.78146   6988792.38745  24845999.1884                   24846004.8164
        38.7504         31.7504
 -19305839.94146 -14982230.77344  24769197.2664                   24769198.8954
        37.5004         26.7504
 -25444305.65247 -19795269.52047  21440580.5474                   21440581.6684
        46.0004         45.0004
 -44199954.27747 -34408668.21147  21306878.8674                   21306881.0554
        47.0004         45.0004
 -46734280.96547 -36306942.54346  20375940.6644                   20375940.1294
        47.7504         37.7504
  -6946247.19546  -5382639.37945  24751346.1804                   24751351.9694
        37.2504         30.0004
 -27383782.85946 -21275506.19145  22888208.5394                   22888211.3594
        41.2504         35.7504
 -10486898.10947  -8114464.48446  23202529.6484                   23202530.2344
        43.0004         36.7504
 25  8  8  1 25 30.0000000  0  9G16G27G31G09G03G04G06G26G07
 -26719211.57447 -19668059.11345  20777101.8984                   20777099.9884
        46.7504         35.7504
   8728130.13346   6874120.40644  24817994.5554                   24818000.4144
        37.5004         29.7504
 -19274677.39846 -14957948.35544  24775127.8364                   24775128.6914
        37.7504         26.0004
 -25576276.75847 -19898104.12147  21415467.5944                   21415468.6484
        46.0004         45.0004
 -44182623.28147 -34395163.59447  21310177.0944                   21310178.6914
        47.2504         44.7504
 -46808786.84847 -36364999.06646  20361762.1884                   20361761.9064
        46.2504         38.0004
  -6980895.98446  -5409638.52744  24744753.6174                   24744758.1484
        38.0004         29.7504
 -27365759.63346 -21261462.16045  22891638.2194                   22891640.9064
        41.7504         35.5004
 -10611854.21547  -8211832.80146  23178751.1884                   23178751.8674
        43.0004         36.5004
 25  8  8  1 26  0.0000000  0  9G16G27G31G09G03G04G06G26G07
 -26781140.73447 -19716315.58246  20765317.6484                   20765315.0864
        47.0004         36.7504
   8581042.79746   6759507.08644  24790004.8914                   24790010.6524
        38.7504         29.5004
 -19243532.58646 -14933679.69544  24781053.8444                   24781055.5864
        36.2504         24.0004
 -25708061.20747 -20000793.27347  21390389.9614                   21390390.6054
        45.7504         45.2504
 -44164853.37147 -34381316.97347  21313558.8204                   21313560.3524
        47.0004         44.5004
 -46882980.51247 -36422812.30946  20347643.6174                   20347642.9384
        45.2504         38.0004
  -7015089.64546  -5436283.01244  24738246.0944                   24738250.8834
        36.7504         28.7504
 -27347326.87146 -21247099.00445  22895146.4224                   22895148.7034
        41.5004         35.5004
 -10736584.72347  -8309025.32446  23155015.3754                   23155016.0274
        42.5004         36.7504
 25  8  8  1 26 30.0000000  0  9G16G27G31G09G03G04G06G26G07
 -26842366.01247 -19764023.58646  20753666.5164                   20753664.6294
        47.5004         36.7504
   8434032.42646   6644953.76645  24762029.8754                   24762035.1564
        38.5004         30.2504
 -19212407.89146 -14909426.74244  24786978.2734                   24786978.3634
        37.2504         25.5004
 -25839659.05547 -20103337.02747  21365347.6564                   21365348.1724
        46.2504         45.5004
 -44146648.52347 -34367131.43447  21317022.8524                   21317024.6644
        47.7504         44.2504
 -46956862.34447 -36480382.56246  20333584.5944                   20333584.2774
        45.7504         38.0004
  -7048831.78546  -5462575.65644  24731824.5394                   24731830.1684
        36.7504         28.7504
 -27328488.77346 -21232419.98445  22898730.6804                   22898733.7274
        41.0004         34.7504
 -10861091.41447  -8406043.44546  23131322.9224                   23131322.8914
        42.5004         36.5004
 25  8  8  1 27  0.0000000  0  9G16G27G31G09G03G04G06G26G07
 -26902883.20348 -19811179.82446  20742150.4614                   20742148.3754
        48.0004         36.5004
   8287106.77746   6530466.43045  24734070.3834                   24734075.9414
        39.7504         31.0004
 -19181299.87146 -14885186.77744  24792896.7114                   24792897.7464
        37.2504         26.0004
 -25971064.24647 -20205730.64847  21340341.8914                   21340342.7504
        46.5004         45.7504
 -44128006.65247 -34352605.35947  21320569.9144                   21320572.0944
        47.0004         44.7504
 -47030426.70347 -36537705.44146  20319585.7814                   20319585.1884
        46.5004         37.5004
  -7082119.91846  -5488514.53944  24725490.8834                   24725496.0274
        36.0004         28.5004
 -27309243.47346 -21217423.66445  22902393.3914                   22902396.2234
        41.0004         35.0004
 -10985369.48047  -8502883.42646  23107673.3984                   23107673.5004
        43.7504         36.5004
 25  8  8  1 27 30.0000000  0  9G16G27G31G09G03G04G06G26G07
 -26962696.99248 -19857787.95746  20730768.3754                   20730766.4144
        48.2504         36.0004
   8140264.57446   6416044.12245  24706127.2584                   24706132.6484
        39.7504         33.0004
 -19150214.21146 -14860964.24244  24798812.8054                   24798813.4384
        38.5004         26.0004
 -26102279.88747 -20307976.57847  21315372.4924                   21315373.7664
        47.0004         45.5004
 -44108934.71547 -34337744.17247  21324199.8134                   21324201.5594
        47.0004         44.5004
 -47103676.98047 -36594783.57846  20305646.7894                   20305646.3404
        47.2504         38.0004
  -7114960.60546  -5514104.76244  24719242.8984                   24719247.0084
        37.0004         28.5004
 -27289598.28146 -21202115.75845  22906131.4924                   22906134.3954
        41.0004         35.0004
 -11109424.00847  -8599549.21546  23084066.8834                   23084066.7194
        43.2504         36.0004
 25  8  8  1 28  0.0000000  0  9G16G27G31G09G03G04G06G26G07
 -27021805.32047 -19903846.38346  20719520.3524                   20719518.3754
        47.5004         36.0004
   7993511.61746   6301691.36745  24678200.9774                   24678206.2584
        38.5004         32.0004
 -19119149.44146 -14836757.93744  24804723.4384                   24804724.8554
        38.2504         26.2504
 -26233301.74247 -20410071.50847  21290439.5554                   21290440.7074
        46.0004         45.7504
 -44089432.53947 -34322547.73847  21327911.0234                   21327912.9654
        46.0004         44.2504
 -47176609.45747 -36651614.08646  20291768.4144                   20291767.5984
        46.0004         38.0004
  -7147353.34446  -5539345.92644  24713077.6334                   24713082.5704
        36.7504         27.5004
 -27269553.25446 -21186496.28545  22909946.3134                   22909948.6884
        40.7504         35.0004
 -11233252.72747  -8696039.05546  23060502.3754                   23060502.6334
        43.5004         36.0004
 25  8  8  1 28 30.0000000  0  9G16G27G31G09G03G04G06G26G07
 -27080210.02347 -19949356.52046  20708406.1954                   20708404.1294
        47.5004         36.2504
   7846849.32046   6187409.28145  24650291.6484                   24650297.5044
        36.7504         31.0004
 -19088107.72346 -14812569.67643  24810631.6644                   24810631.8874
        38.2504         23.7504
 -26364130.13747 -20512015.68747  21265543.9774                   21265544.8444
        46.2504         46.0004
 -44069504.34047 -34307019.33647  21331703.0704                   21331704.4574
        46.2504         44.0004
 -47249224.76247 -36708197.44946  20277949.9304                   20277949.0164
        46.5004         38.2504
  -7179301.96146  -5564241.01644  24706997.9384                   24707003.5044
        36.0004         27.5004
 -27249112.84046 -21170568.73845  22913835.8594                   22913838.5514
        41.2504         35.0004
 -11356857.19547  -8792354.14846  23036981.3834                   23036981.7854
        44.0004         36.7504
 25  8  8  1 29  0.0000000  0  9G16G27G31G09G03G04G06G26G07
 -27137911.60547 -19994318.77746  20697426.3364                   20697424.4774
        47.5004         36.0004
   7700280.72746   6073200.20745  24622400.5784                   24622405.6374
        37.5004         31.5004
 -19057090.45346 -14788400.39544  24816534.1094                   24816535.1804
        39.0004         26.5004
 -26494763.78147 -20613808.10947  21240685.2504                   21240685.9224
        45.7504         46.0004
 -44049152.84447 -34291161.09047  21335575.8594                   21335577.6054
        45.7504         43.2504
 -47321521.98447 -36764532.95346  20264192.5004                   20264191.5394
        46.7504         38.2504
  -7210808.87145  -5588791.93044  24701001.9454                   24701007.9144
        35.0004         27.0004
 -27228280.08246 -21154335.46545  22917799.8364                   22917802.3164
        40.7504         34.0004
 -11480237.90647  -8888494.88746  23013502.9144                   23013503.1564
        43.7504         37.5004
 25  8  8  1 29 30.0000000  0  9G16G27G31G09G03G04G06G26G07
 -27194911.41047 -20038734.19945  20686579.1024                   20686576.8874
        47.7504         35.7504
   7553808.14846   5959065.91445  24594527.1724                   24594532.9224
        38.7504         31.7504
 -19026099.40246 -14764251.53544  24822431.7894                   24822432.3484
        38.7504         26.7504
 -26625202.05547 -20715448.30547  21215863.9064                   21215864.5274
        46.2504         46.0004
 -44028381.46947 -34274975.66447  21339528.5164                   21339529.7854
        45.5004         43.2504
 -47393500.94947 -36820620.45746  20250495.0704                   20250494.3914
        46.2504         38.5004
  -7241877.19546  -5613001.07844  24695090.0394                   24695095.9804
        36.0004         26.5004
 -27207058.50846 -21137799.22745  22921839.4304                   22921840.9614
        40.5004         34.5004
 -11603396.16447  -8984462.28546  22990066.7814                   22990066.5944
        45.2504         37.0004
 25  8  8  1 30  0.0000000  0  9G16G27G31G09G03G04G06G26G07
 -27251206.68048 -20082600.62545  20675866.7814                   20675864.8284
        48.0004         35.5004
   7407437.80946   5845011.25045  24566674.1484                   24566679.5554
        39.7504         30.7504
 -18995132.64546 -14740121.60244  24828324.5704                   24828325.1954
        38.7504         28.2504
 -26755440.48447 -20816932.76247  21191080.0554                   21191081.0394
        46.2504         46.2504
 -44007189.73047 -34258462.69147  21343560.9844                   21343563.0044
        45.0004         43.2504
 -47465157.59847 -36876456.80946  20236859.0634                   20236858.7114
        47.0004         38.5004
  -7272505.99246  -5636867.75044  24689262.4614                   24689267.6844
        36.5004         27.0004
 -27185447.94546 -21120959.86745  22925950.6884                   22925953.6374
        40.0004         34.2504
 -11726329.33247  -9080254.29346  22966673.2114                   22966673.1604
        44.5004         37.2504
 25  8  8  1 30 30.0000000  0  9G16G27G31G09G03G04G06G26G07
 -27306801.32048 -20125921.11745  20665287.5314                   20665285.2814
        48.5004         35.5004
   7261169.28546   5731035.91045  24538839.5864                   24538844.9844
        39.0004         32.2504
 -18964194.96946 -14716014.36744  24834211.0704                   24834211.7504
        39.0004         27.2504
 -26885481.19947 -20918263.16447  21166334.4304                   21166335.0474
        46.2504         46.2504
 -43985583.79347 -34241626.96547  21347673.0004                   21347674.8794
        45.5004         44.0004
 -47536494.41047 -36932043.93446  20223284.0164                   20223283.3444
        46.0004         38.5004
  -7302701.15646  -5660396.51644  24683515.7894                   24683521.2234
        36.5004         27.5004
 -27163454.77046 -21103822.39545  22930137.0394                   22930138.2624
        40.0004         34.0004
 -11849040.99647  -9175873.70346  22943322.1564                   22943321.8404
        44.5004         37.5004
 25  8  8  1 31  0.0000000  0  9G16G27G31G09G03G04G06G26G07
 -27361700.18447 -20168699.43446  20654840.8204                   20654838.1764
        47.5004         36.0004
   7115001.71546   5617139.23444  24511025.5164                   24511030.0944
        38.2504         29.2504
 -18933291.07846 -14691933.44144  24840092.1174                   24840093.1914
        39.5004         27.0004
 -27015326.72747 -21019441.47347  21141625.1254                   21141625.7624
        46.2504         46.2504
 -43963570.35547 -34224473.70347  21351861.9614                   21351863.7774
        45.0004         43.5004
 -47607514.44547 -36987384.22746  20209769.5784                   20209769.3794
        47.0004         38.0004
  -7332469.04746  -5683592.31644  24677850.6334                   24677856.5234
        36.0004         27.7504
 -27141085.91846 -21086392.14545  22934393.1644                   22934394.5634
        40.7504         34.0004
 -11971535.37147  -9271323.80546  22920012.2034                   22920012.0784
        45.0004         37.5004
 25  8  8  1 31 30.0000000  0  9G16G27G31G09G03G04G06G26G07
 -27415899.13348 -20210932.37146  20644526.5004                   20644524.6804
        48.0004         36.5004
   6968942.73445   5503327.19944  24483230.9064                   24483236.7304
        34.5004         28.2504
 -18902417.48846 -14667876.08244  24845967.4844                   24845967.3524
        40.0004         26.7504
 -27144971.06647 -21120463.00847  21116954.9304                   21116955.4614
        46.7504         46.0004
 -43941147.39147 -34207001.33647  21356128.6094                   21356130.9224
        45.0004         43.7504
 -47678212.04347 -37042473.25446  20196316.1644                   20196315.5204
        46.7504         38.5004
  -7361807.30146  -5706453.37144  24672269.9774                   24672273.7584
        36.2504         27.2504
 -27118339.56646 -21068667.75045  22938721.4694                   22938723.8754
        41.0004         34.0004
 -12093808.46147  -9366601.44946  22896743.9144                   22896744.2194
        44.5004         38.2504
 25  8  8  1 32  0.0000000  0  9G16G27G31G09G03G04G06G26G07
 -27469395.87947 -20252618.13745  20634346.7344                   20634344.4454
        47.5004         35.5004
   6822998.39545   5389604.52044  24455457.2034                   24455463.6374
        33.5004         28.5004
 -18871572.51646 -14643841.04344  24851836.4144                   24851837.2584
        39.7504         25.5004
 -27274410.00047 -21221324.48447  21092323.4224                   21092323.6764
        45.7504         46.0004
 -43918314.83247 -34189209.79747  21360473.7114                   21360475.5904
        45.0004         43.0004
 -47748583.48447 -37097308.14146  20182925.1724                   20182924.1764
        46.5004         38.5004
  -7390715.52746  -5728979.30144  24666768.0554                   24666773.0124
        36.0004         27.2504
 -27095215.79746 -21050649.27045  22943121.5164                   22943123.8634
        41.0004         33.5004
 -12215858.00847  -9461704.91846  22873518.6804                   22873518.5594
        44.5004         38.0004
 25  8  8  1 32 30.0000000  0  9G16G27G31G09G03G04G06G26G07
 -27522192.58248 -20293758.40645  20624299.6644                   20624297.5004
        48.0004         35.5004
   6677170.37146   5275972.47745  24427708.8204                   24427713.8484
        36.2504         30.0004
 -18840758.58646 -14619830.24244  24857700.5784                   24857700.9654
        39.2504         26.0004
 -27403643.49647 -21322025.87547  21067731.3444                   21067731.6604
        45.7504         46.0004
 -43895076.78147 -34171102.29747  21364895.7734                   21364898.4574
        44.2504         43.2504
 -47818629.23447 -37151889.23846  20169596.2274                   20169595.1094
        47.0004         38.2504
  -7419197.45346  -5751173.09044  24661348.1414                   24661353.0514
        36.2504         27.0004
 -27071718.94946 -21032340.07045  22947593.2504                   22947595.4964
        40.5004         33.5004
 -12337685.50047  -9556635.35546  22850336.0004                   22850335.2854
        45.0004         38.5004
 25  8  8  1 33  0.0000000  0  9G16G27G31G09G03G04G06G26G07
 -27574289.43748 -20334353.35245  20614386.0164                   20614383.8554
        48.0004         35.5004
   6531462.19946   5162433.79345  24399980.7344                   24399986.0744
        38.0004         31.0004
 -18809976.39546 -14595844.16844  24863558.7504                   24863559.5004
        38.7504         27.0004
 -27532669.79347 -21422565.81247  21043177.8524                   21043178.7664
        46.0004         46.0004
 -43871435.57847 -34152680.64847  21369394.5234                   21369396.8054
        45.5004         43.5004
 -47888347.88347 -37206215.45346  20156329.2504                   20156328.3594
        46.2504         38.5004
  -7447255.15245  -5773036.29344  24656007.9064                   24656013.9454
        35.5004         26.5004
 -27047851.48846 -21013742.09045  22952135.1724                   22952137.4494
        40.0004         33.7504
 -12459291.10947  -9651392.90246  22827194.9694                   22827194.7894
        44.5004         38.0004
 25  8  8  1 33 30.0000000  0  9G16G27G31G09G03G04G06G26G07
 -26050265.66848 -19146802.34846  20904398.0864                   20904395.9454
        48.0004         36.0004
   7961301.68846   6276594.58244  24672069.7894                   24672074.7894
        37.5004         29.2504
 -17203807.75046 -13344284.22344  25169202.2034                   25169202.4304
        38.5004         24.5004
 -26086063.30547 -20295339.92247  21318458.0784                   21318458.6524
        46.2504         46.0004
 -42271974.88747 -32906347.71547  21673761.9694                   21673764.1914
        44.7504         43.0004
 -46382316.37147 -36032684.39846  20442917.2584                   20442916.3834
        46.0004         38.5004
  -5899470.37945  -4566970.28944  24950541.3524                   24950547.4304
        34.7504         26.0004
 -25448197.27446 -19767258.34545  23256539.0944                   23256541.2894
        40.0004         33.7504
 -11005251.27047  -8518374.76246  23103889.3134                   23103889.4774
        44.0004         38.0004
 25  8  8  1 34  0.0000000  0  9G16G27G31G09G03G04G06G26G07
 -26100967.95748 -19186310.60946  20894749.8204                   20894747.7974
        48.0004         36.0004
   7815839.86746   6163247.84044  24644389.2424                   24644394.2344
        36.5004         28.0004
 -17173094.35546 -13320351.73044  25175047.0944                   25175046.9884
        38.5004         26.2504
 -26214673.48047 -20395555.60247  21293983.9384                   21293985.1764
        46.5004         46.0004
 -42247538.16447 -32887306.18047  21678412.2734                   21678414.2664
        45.2504         43.5004
 -46451380.65247 -36086500.71546  20429774.4224                   20429773.7504
        46.2504         38.5004
  -5926689.56245  -4588180.13344  24945362.1644                   24945368.9224
        34.5004         26.0004
 -25423600.10246 -19748091.74645  23261219.1804                   23261222.0204
        40.0004         33.2504
 -11126416.60247  -8612789.21946  23080832.3054                   23080832.3714
        44.5004         38.7504
 25  8  8  1 34 30.0000000  0  9G16G27G31G09G03G04G06G26G07
 -26150974.16447 -19225276.47346  20885233.9534                   20885231.8874
        47.7504         36.0004
   7670505.62546   6050000.51244  24616732.9694                   24616738.0664
        37.0004         28.2504
 -17142417.50046 -13296447.71544  25180884.8834                   25180884.9884
        37.5004         25.7504
 -26343073.69547 -20495607.66047  21269550.4304                   21269551.0594
        46.2504         46.0004
 -42222708.03147 -32867958.09847  21683137.2504                   21683139.5474
        44.2504         43.5004
 -46520116.60247 -36140061.18046  20416694.8054                   20416693.8714
        47.0004         38.7504
  -5953493.33646  -4609066.26644  24940262.7894                   24940267.3714
        36.5004         27.2504
 -25398642.51646 -19728644.32445  23265969.4924                   23265971.7664
        40.2504         33.5004
 -11247362.74647  -8707032.88346  23057816.5864                   23057816.9224
        45.0004         38.7504
 25  8  8  1 35  0.0000000  0  9G16G27G31G09G03G04G06G26G07
 -26200278.04748 -19263695.07445  20875851.5944                   20875849.4454
        48.0004         35.2504
   7525309.45746   5936860.76244  24589103.4144                   24589107.9224
        37.0004         28.0004
 -17111770.64846 -13272567.09044  25186716.4064                   25186716.3484
        37.7504         26.0004
 -26471255.33647 -20595489.39547  21245158.4534                   21245158.9144
        46.5004         46.5004
 -42197480.04747 -32848299.99647  21687938.3914                   21687940.4964
        45.2504         43.0004
 -46588516.08247 -36193359.46946  20403678.4774                   20403678.0124
        47.5004         38.2504
  -5979877.04346  -4629625.06644  24935242.0164                   24935246.9384
        36.0004         28.0004
 -25373320.41446 -19708912.87945  23270788.5634                   23270790.2234
        41.0004         33.7504
 -11368083.10547  -8801100.60946  23034844.5234                   23034844.8794
        44.2504         38.0004
 25  8  8  1 35 30.0000000  0  9G16G27G31G09G03G04G06G26G07
 -26248886.74647 -19301571.97745  20866601.6954                   20866599.5664
        47.2504         35.5004
   7380248.03946   5823826.03144  24561498.3984                   24561503.9304
        36.5004         27.0004
 -17081160.60546 -13248715.18044  25192541.0234                   25192542.1094
        37.0004         25.5004
 -26599223.14847 -20695204.50847  21220806.9064                   21220807.3244
        46.7504         46.5004
 -42171863.24247 -32828338.91447  21692812.7504                   21692814.7974
        45.0004         42.5004
 -46656584.28547 -36246399.62146  20390725.8204                   20390725.2504
        47.5004         37.7504
  -6005849.33245  -4649863.30144  24930299.4694                   24930304.5824
        35.7504         27.2504
 -25347642.81246 -19688904.43045  23275675.3444                   23275676.4884
        40.2504         34.0004
 -11488584.04747  -8894997.35246  23011914.0004                   23011913.7304
        44.5004         38.0004
 25  8  8  1 36  0.0000000  0  9G16G27G31G09G03G04G06G26G07
 -26296798.89147 -19338906.10545  20857484.2584                   20857482.5554
        47.7504         35.5004
   7235326.84446   5710900.57044  24533921.8284                   24533926.1334
        38.7504         29.5004
 -17050586.63746 -13224891.36344  25198359.6174                   25198360.5004
        38.0004         28.2504
 -26726973.53147 -20794750.18047  21196496.5784                   21196497.0664
        47.0004         46.5004
 -42145858.16847 -32808075.28947  21697761.0394                   21697763.4494
        45.0004         43.0004
 -46724318.17648 -36299179.26646  20377836.6024                   20377835.8634
        48.2504         38.5004
  -6031410.51645  -4669781.18044  24925435.0394                   24925440.8754
        35.7504         28.5004
 -25321610.57846 -19668619.62545  23280628.9844                   23280630.5514
        40.0004         33.5004
 -11608863.79747  -8988721.73846  22989025.4534                   22989025.1994
        45.0004         38.5004
 25  8  8  1 36 30.0000000  0  9G16G27G31G09G03G04G06G26G07
 -26344016.43048 -19375698.99245  20848498.8444                   20848497.0514
        48.0004         35.5004
   7090548.03146   5598086.02745  24506370.5084                   24506375.7384
        39.0004         30.7504
 -17020050.87146 -13201097.30544  25204170.2664                   25204170.8094
        37.7504         26.0004
 -26854506.02747 -20894126.07847  21172228.2114                   21172228.1724
        46.5004         46.5004
 -42119468.60247 -32787512.05547  21702782.8914                   21702785.3284
        45.0004         42.5004
 -46791717.77047 -36351698.42246  20365010.3914                   20365009.6414
        45.7504         38.5004
  -6056564.11745  -4689381.46944  24920648.3834                   24920654.9454
        35.7504         27.7504
 -25295227.55546 -19648061.46945  23285648.5164                   23285650.8524
        38.5004         33.2504
 -11728924.14147  -9082275.16046  22966178.5004                   22966178.4844
        45.0004         38.5004
 25  8  8  1 37  0.0000000  0  9G16G27G31G09G03G04G06G26G07
 -26390537.58647 -19411949.24246  20839646.4614                   20839644.4304
        47.7504         36.0004
   6945917.12146   5485386.77044  24478847.7974                   24478853.2114
        37.0004         29.7504
 -16989551.68746 -13177331.77344  25209973.8204                   25209974.8594
        36.5004         24.5004
 -26981816.69547 -20993329.13347  21148001.7664                   21148002.1844
        46.5004         46.5004
 -42092694.95347 -32766649.53547  21707878.2344                   21707880.3324
        44.5004         42.7504
 -46858779.70747 -36403954.47346  20352249.2504                   20352248.5164
        46.5004         38.2504
  -6081310.19546  -4708664.19944  24915938.9384                   24915945.4494
        36.5004         28.2504
 -25268494.21946 -19627230.30145  23290734.9534                   23290738.5004
        39.0004         34.2504
 -11848762.82047  -9175655.85246  22943374.2584                   22943374.3954
        44.5004         39.0004
 25  8  8  1 37 30.0000000  0  9G16G27G31G09G03G04G06G26G07
 -26436363.89148 -19447658.04346  20830925.9224                   20830923.8444
        48.0004         36.0004
   6801437.10246   5372805.10544  24451354.3914                   24451359.2624
        36.7504         28.5004
 -16959090.07845 -13153595.50444  25215770.9694                   25215771.6914
        34.7504         25.2504
 -27108904.25847 -21092358.33247  21123817.9224                   21123817.9924
        47.0004         46.5004
 -42065540.14147 -32745490.01247  21713045.8284                   21713047.8244
        44.5004         42.5004
 -46925503.17647 -36455946.78146  20339552.4064                   20339551.1994
        46.5004         38.0004
  -6105651.45346  -4727631.50045  24911308.4304                   24911313.5824
        37.5004         30.5004
 -25241413.70746 -19606128.64145  23295889.0554                   23295891.9304
        40.0004         33.5004
 -11968380.34847  -9268864.21146  22920611.9844                   22920611.4144
        44.2504         38.0004
 25  8  8  1 38  0.0000000  0  9G16G27G31G09G03G04G06G26G07
 -26481496.67647 -19482826.43745  20822337.5164                   20822335.3244
        47.7504         35.5004
   6657110.80145   5260343.19544  24423889.2584                   24423895.0234
        34.7504         26.5004
 -16928667.42246 -13129889.55144  25221559.4614                   25221560.7464
        36.2504         26.7504
 -27235767.60947 -21191212.82047  21099676.3834                   21099676.9654
        47.0004         46.7504
 -42038007.34847 -32724035.95747  21718285.0314                   21718287.0594
        45.0004         42.7504
 -46991887.66447 -36507674.94546  20326919.4224                   20326918.7854
        47.2504         37.5004
  -6129590.75846  -4746285.57844  24906752.5004                   24906758.1054
        36.5004         28.7504
 -25213989.17646 -19584758.96545  23301107.8364                   23301110.1914
        40.5004         33.5004
 -12087777.50047  -9361900.85246  22897891.1094                   22897889.9414
        44.5004         37.7504
 25  8  8  1 38 30.0000000  0  9G16G27G31G09G03G04G06G26G07
 -26525942.78948 -19517459.77045  20813879.6254                   20813877.4844
        48.0004         35.0004
   6512935.15645   5147998.68044  24396453.3284                   24396458.9224
        35.7504         26.7504
 -16898290.74245 -13106219.44144  25227340.8134                   25227341.6254
        35.0004         26.7504
 -27362411.38747 -21289896.21547  21075576.6954                   21075577.2664
        47.0004         46.5004
 -42010105.53547 -32702294.35247  21723595.0234                   21723596.8714
        45.2504         42.2504
 -47057938.33247 -36559142.99646  20314350.6804                   20314349.7544
        47.7504         38.0004
  -6153136.87146  -4764633.28144  24902271.5554                   24902277.4694
        37.0004         28.5004
 -25186229.86346 -19563128.36645  23306389.9304                   23306393.2034
        39.5004         34.0004
 -12206961.07447  -9454771.08246  22875210.3984                   22875210.4384
        44.5004         38.2504
 25  8  8  1 39  0.0000000  0  9G16G27G31G09G03G04G06G26G07
 -26569708.39848 -19551562.83645  20805550.8594                   20805548.9534
        48.0004         35.0004
   6368908.51246   5035770.27344  24369046.5234                   24369051.6054
        36.5004         27.5004
 -16867965.53145 -13082589.42244  25233110.2974                   25233112.1994
        34.0004         24.5004
 -27488838.99647 -21388411.17647  21051518.5084                   21051519.0594
        47.0004         46.7504
 -41981842.39547 -32680271.19947  21728972.9534                   21728975.3284
        45.7504         42.2504
 -47123659.14547 -36610354.02346  20301844.3364                   20301843.2894
        47.5004         38.5004
  -6176297.14145  -4782680.31244  24897865.1484                   24897870.7034
        35.7504         28.5004
 -25158143.46946 -19541242.94145  23311735.9304                   23311737.4654
        39.0004         33.5004
 -12325936.70347  -9547479.27046  22852570.4844                   22852570.2114
        45.0004         38.2504
 25  8  8  1 39 30.0000000  0  9G16G27G31G09G03G04G06G26G07
 -26612795.44548 -19585137.14845  20797352.1644                   20797349.9774
        48.0004         35.2504
   6225032.99646   4923659.60544  24341668.1724                   24341672.9454
        36.5004         29.2504
 -16837694.46545 -13059001.57443  25238871.2034                   25238872.9884
        34.7504         23.5004
 -27615049.92247 -21486757.29747  21027501.3444                   21027501.7154
        47.2504         47.0004
 -41953221.73447 -32657969.44547  21734419.5084                   21734421.1644
        45.2504         42.2504
 -47189050.17647 -36661308.07046  20289400.8054                   20289399.6374
        47.5004         38.2504
  -6199075.13346  -4800429.49244  24893530.5784                   24893535.7344
        37.0004         29.7504
 -25129733.99546 -19519105.72645  23317140.8594                   23317144.2154
        39.0004         34.0004
 -12444705.46147  -9640026.26646  22829969.3984                   22829969.3284
        44.7504         38.2504
 25  8  8  1 40  0.0000000  0  9G16G27G31G09G03G04G06G26G07
 -26655206.56648 -19618184.77045  20789281.5394                   20789279.3984
        48.0004         35.7504
   6081310.53145   4811668.23444  24314317.2274                   24314323.2234
        35.0004         26.5004
 -16807479.39845 -13035457.36744  25244621.5004                   25244622.2034
        35.5004         26.0004
 -27741043.98048 -21584934.44547  21003525.4144                   21003525.7624
        48.0004         47.0004
 -41924247.72747 -32635392.37147  21739932.7974                   21739935.2624
        46.0004         42.2504
 -47254111.76647 -36712005.40646  20277019.7584                   20277019.0664
        47.7504         37.2504
  -6221474.86346  -4817883.89544  24889267.3364                   24889273.3094
        36.0004         28.7504
 -25101005.52046 -19496719.97345  23322608.2664                   23322610.8094
        39.2504         32.5004
 -12563269.24647  -9732413.55546  22807407.8054                   22807407.1684
        45.0004         38.2504
 25  8  8  1 40 30.0000000  0  9G16G27G31G09G03G04G06G26G07
 -26696938.18447 -19650702.91845  20781340.5864                   20781338.3954
        47.5004         35.5004
   5937748.86746   4699802.16444  24286999.4534                   24287004.0824
        36.0004         26.7504
 -16777316.08245 -13011953.50444  25250361.7894                   25250361.8014
        35.2504         26.2504
 -27866814.98847 -21682937.78547  20979591.8914                   20979592.3284
        47.5004         47.2504
 -41894918.57447 -32612538.56247  21745513.9694                   21745516.3594
        46.0004         42.5004
 -47318838.39848 -36762441.74246  20264702.8984                   20264702.1524
        48.0004         38.0004
  -6243494.31645  -4835041.97344  24885077.3674                   24885083.4964
        34.7504         29.2504
 -25071956.47746 -19474084.36745  23328134.9694                   23328139.1884
        39.0004         33.0004
 -12681623.55547  -9824637.62546  22784885.6954                   22784884.8594
        45.5004         38.5004
 25  8  8  1 41  0.0000000  0  8G16G27G09G03G04G06G26G07
 -26737996.10247 -19682696.08245  20773527.0944                   20773525.0164
        47.5004         35.2504
   5794346.40246   4588060.11744  24259710.9454                   24259715.0164
        38.0004         26.7504
 -27992366.25847 -21780769.91047  20955700.1564                   20955700.3954
        47.2504         47.2504
 -41865241.94147 -32589413.99647  21751161.8284                   21751164.2154
        45.7504         42.5004
 -47383233.94147 -36812620.09446  20252448.8754                   20252447.9064
        46.0004         37.5004
  -6265140.74645  -4851909.41444  24880957.9384                   24880964.4964
        34.0004         28.2504
 -25042594.52046 -19451205.02045  23333724.2814                   23333726.5044
        40.5004         33.7504
 -12799773.88747  -9916702.74246  22762402.2664                   22762401.6804
        45.0004         38.7504
 25  8  8  1 41 30.0000000  0  8G16G27G09G03G04G06G26G07
 -26778374.61347 -19714159.85245  20765843.5864                   20765841.5474
        47.7504         35.5004
   5651113.31646   4476449.98044  24232454.7504                   24232458.5744
        38.0004         27.7504
 -28117689.23447 -21878424.15647  20931851.8134                   20931852.2114
        47.2504         47.5004
 -41835213.64147 -32566015.39546  21756875.6174                   21756877.8554
        45.5004         41.7504
 -47447290.44547 -36862534.25446  20240259.1094                   20240258.5984
        45.5004         38.0004
  -6286409.91045  -4868482.87544  24876910.4614                   24876917.0594
        35.0004         29.5004
 -25012915.57446 -19428078.63745  23339371.4454                   23339373.8554
        40.0004         32.7504
 -12917713.80947 -10008603.91046  22739958.8984                   22739958.6884
        45.0004         39.0004
 25  8  8  1 42  0.0000000  0  8G16G27G09G03G04G06G26G07
 -26818070.01647 -19745091.32845  20758289.4614                   20758287.6914
        47.2504         35.2504
   5508057.59846   4364978.13344  24205231.2584                   24205236.1994
        37.7504         28.7504
 -28242777.55548 -21975895.54747  20908048.6484                   20908049.0514
        48.2504         47.5004
 -41804831.72347 -32542341.25446  21762657.1724                   21762659.5314
        45.0004         41.5004
 -47511002.13748 -36912179.73046  20228135.2424                   20228134.4414
        48.0004         38.0004
  -6307299.52346  -4884760.58244  24872936.2894                   24872942.1214
        36.2504         28.5004
 -24982917.70746 -19404703.69545  23345078.9454                   23345082.0394
        38.2504         32.5004
 -13035438.72747 -10100337.53546  22717556.7734                   22717556.5004
        45.0004         38.7504
 25  8  8  1 42 30.0000000  0  9G16G27G30G09G03G04G06G26G07
 -26857077.28547 -19775486.59445  20750866.6884                   20750864.2114
        46.7504         35.2504
   5365188.67246   4253651.84444  24178043.5864                   24178048.4964
        38.7504         28.7504
  12420717.44555   9714728.74253  25281479.4304                   25281488.9344
        33.7504         22.5004
 -28367623.39547 -22073177.99647  20884291.1024                   20884291.4264
        47.0004         47.5004
 -41774092.80947 -32518388.94546  21768506.6644                   21768509.2154
        44.7504         41.5004
 -47574361.92647 -36961550.99646  20216078.2974                   20216077.2544
        46.2504         38.2504
  -6327805.97746  -4900739.70344  24869033.8834                   24869039.6804
        36.0004         29.5004
 -24952597.64546 -19381077.75845  23350849.5704                   23350852.2424
        39.7504         32.5004
 -13152942.90647 -10191899.15646  22695196.0314                   22695195.9064
        45.5004         39.2504
 25  8  8  1 43  0.0000000  0  9G16G27G30G09G03G04G06G26G07
 -26895403.31647 -19805351.02745  20743573.2974                   20743571.4414
        47.0004         35.5004
   5222504.52046   4142469.49644  24150892.1564                   24150896.5554
        38.5004         28.5004
  12275810.04355   9601814.39854  25253905.5234                   25253914.6214
        34.5004         24.0004
 -28492230.61347 -22170274.51247  20860578.9064                   20860579.6454
        46.7504         47.7504
 -41743005.09047 -32494164.82447  21774422.8204                   21774425.1564
        45.2504         42.0004
 -47637374.13747 -37010651.42246  20204087.8444                   20204087.3244
        46.7504         38.5004
  -6347937.28946  -4916426.52344  24865203.3134                   24865209.1334
        37.0004         27.5004
 -24921963.50446 -19357207.03945  23356679.0084                   23356681.2774
        40.0004         32.7504
 -13270232.62547 -10283293.68046  22672876.4774                   22672875.8954
        44.7504         39.0004
 25  8  8  1 43 30.0000000  0  9G16G27G30G09G03G04G06G26G07
 -26933051.57447 -19834687.32045  20736409.3364                   20736407.2774
        46.0004         35.2504
   5080006.09046   4031431.82444  24123776.0164                   24123779.7624
        37.7504         26.5004
  12131024.93445   9488995.38343  25226352.5394                   25226361.8404
        34.7504         22.7504
 -28616599.75047 -22267185.51247  20836912.2114                   20836912.5784
        46.2504         47.5004
 -41711573.59847 -32469672.83647  21780403.6334                   21780406.7384
        45.0004         42.2504
 -47700040.00847 -37059481.97346  20192162.9064                   20192162.0474
        47.2504         38.2504
  -6367698.28646  -4931824.81244  24861444.2344                   24861448.5274
        38.0004         28.5004
 -24891020.49646 -19333095.66045  23362566.7974                   23362569.9844
        39.5004         32.7504
 -13387310.06247 -10374522.78946  22650597.1884                   22650597.1884
        45.5004         39.5004
 25  8  8  1 44  0.0000000  0  9G16G27G30G09G03G04G06G26G07
 -26970025.12947 -19863497.87546  20729373.7114                   20729371.7234
        46.7504         36.0004
   4937694.57846   3920539.82444  24096694.5084                   24096698.8754
        37.5004         26.7504
  11986359.08255   9376268.97353  25198822.5704                   25198833.2464
        31.7504         23.5004
 -28740731.21147 -22363911.30947  20813291.3674                   20813291.5554
        46.2504         47.7504
 -41679803.19147 -32444916.76646  21786449.9064                   21786452.3284
        45.0004         41.7504
 -47762360.66047 -37108043.52346  20180303.0704                   20180302.6484
        45.5004         37.5004
  -6387093.65246  -4946938.14544  24857751.8204                   24857757.7074
        37.0004         27.2504
 -24859773.46146 -19308747.37945  23368513.5784                   23368516.4534
        40.7504         32.5004
 -13504177.52347 -10465588.27746  22628358.4924                   22628358.0634
        45.2504         39.5004
 25  8  8  1 44 30.0000000  0  9G16G27G30G09G03G04G06G26G07
 -27006327.55147 -19891785.47745  20722465.2814                   20722463.3164
        45.5004         35.2504
   4795571.18446   3809794.44944  24069649.5084                   24069654.2774
        39.0004         28.2504
  11841812.70346   9263635.89544  25171318.6094                   25171326.2274
        36.7504         26.5004
 -28864625.45747 -22460452.26248  20789714.5554                   20789715.4844
        46.2504         48.0004
 -41647698.79347 -32419900.44546  21792559.2504                   21792561.3914
        45.2504         41.2504
 -47824337.18747 -37156336.91446  20168509.4844                   20168508.6214
        45.5004         37.5004
  -6406127.98045  -4961770.18044  24854129.5164                   24854136.1334
        35.7504         28.2504
 -24828227.23846 -19284165.96145  23374516.7114                   23374519.2664
        41.2504         32.5004
 -13620837.69547 -10556492.24246  22606158.5634                   22606158.0164
        45.2504         39.5004
 25  8  8  1 45  0.0000000  0  9G16G27G30G09G03G04G06G26G07
 -27041959.26647 -19919550.43745  20715685.3444                   20715683.0234
        46.2504         35.5004
   4653639.98846   3699198.82044  24042640.8674                   24042645.2384
        39.2504         29.5004
  11697385.47745   9151095.63344  25143833.1094                   25143842.2274
        32.2504         25.2504
 -28988280.14147 -22556806.53948  20766184.1024                   20766184.3204
        46.5004         48.0004
 -41615262.46147 -32394625.47746  21798731.6094                   21798734.0004
        45.0004         41.0004
 -47885967.87947 -37204360.82846  20156781.4454                   20156781.1994
        46.5004         37.7504
  -6424803.19546  -4976322.40244  24850576.0944                   24850581.9654
        36.7504         27.7504
 -24796384.02046 -19259353.11745  23380576.0004                   23380578.7814
        40.0004         32.7504
 -13737290.63747 -10647234.73846  22583998.7274                   22583997.8834
        46.2504         39.7504
 25  8  8  1 45 30.0000000  0  9G16G27G30G09G03G04G06G26G07
 -25501495.28547 -18719188.89545  21008825.4064                   21008822.9884
        45.7504         34.7504
   6087334.12946   4816363.18444  24315462.8524                   24315468.2734
        36.7504         26.0004
  13128507.74645  10266256.25844  25416165.1644                   25416175.9104
        32.7504         27.0004
 -27536264.21947 -21425365.54348  21042493.5784                   21042493.7814
        46.5004         48.0004
 -40007072.90247 -31141490.84046  22104760.1724                   22104762.6644
        45.2504         40.7504
 -46371824.48047 -36024508.82846  20444913.3834                   20444912.8014
        46.0004         38.0004
  -4867696.19546  -3762992.35944  25146883.2974                   25146889.9344
        36.5004         29.0004
 -23188822.47346 -18006707.82045  23686485.1564                   23686488.0594
        40.5004         34.0004
 -12278107.41847  -9510208.79346  22861671.5004                   22861671.0784
        46.0004         39.5004
 25  8  8  1 46  0.0000000  0  9G16G27G30G09G03G04G06G26G07
 -25535778.71947 -18745903.26245  21002301.1954                   21002299.2664
        46.0004         34.5004
   5945807.98046   4706083.13344  24288532.2584                   24288536.1174
        39.0004         25.5004
  12984330.79355  10183860.00454  25388730.7274                   25388737.7584
        35.2504         27.5004
 -27659423.74247 -21521333.98448  21019056.7894                   21019057.0944
        46.5004         48.0004
 -39973970.20747 -31115696.62146  22111059.1724                   22111061.6094
        45.5004         41.0004
 -46432749.50847 -36071982.86746  20433319.6334                   20433318.9384
        47.0004         37.7504
  -4885650.19945  -3776982.60244  25143466.5864                   25143473.2814
        35.7504         29.5004
 -23156382.72746 -17981430.13745  23692658.3364                   23692661.0434
        40.0004         33.7504
 -12394135.56247  -9600620.30946  22839592.1564                   22839591.8524
        46.5004         40.0004
 25  8  8  1 46 30.0000000  0  9G16G27G30G09G03G04G06G26G07
 -25569390.14547 -18772093.99245  20995905.2814                   20995903.6644
        45.7504         35.0004
   5804489.37146   4595964.82044  24261640.3284                   24261643.7894
        41.0004         29.2504
  12840278.96955  10071612.27754  25361317.4924                   25361326.6604
        35.0004         26.2504
 -27782333.17247 -21617107.53948  20995667.7034                   20995668.3204
        47.2504         48.0004
 -39940538.60247 -31089646.10946  22117420.6414                   22117423.8134
        45.7504         40.5004
 -46493320.31247 -36119180.91046  20421793.6414                   20421793.0594
        45.7504         37.5004
  -4903247.55946  -3790694.93444  25140119.0784                   25140124.7584
        36.0004         29.0004
 -23123648.92646 -17955923.30545  23698886.7974                   23698890.0944
        38.7504         33.0004
 -12509952.01647  -9690866.82446  22817553.1564                   22817552.4304
        46.2504         39.7504
 25  8  8  1 47  0.0000000  0  9G16G27G30G09G03G04G06G26G07
 -25602328.69547 -18797760.39545  20989637.1564                   20989635.4694
        46.2504         35.7504
   5663383.70746   4486012.46944  24234788.1644                   24234792.5004
        38.0004         29.0004
  12696354.80145   9959463.90244  25333928.0084                   25333938.6174
        31.5004         26.5004
 -27904988.67247 -21712683.23848  20972327.1954                   20972327.5124
        47.5004         48.2504
 -39906778.68447 -31063339.76246  22123845.3984                   22123848.0514
        46.0004         40.2504
 -46553533.65247 -36166100.39846  20410335.6804                   20410334.5984
        45.7504         38.0004
  -4920488.70745  -3804129.69144  25136836.6254                   25136844.0004
        35.0004         28.5004
 -23090621.75446 -17930187.91845  23705171.5314                   23705175.1954
        39.7504         33.0004
 -12625554.89847  -9780946.92246  22795554.0314                   22795553.6954
        46.2504         39.5004
 25  8  8  1 47 30.0000000  0  9G16G27G30G09G03G04G06G26G07
 -25634594.32047 -18822902.44945  20983497.7194                   20983495.6294
        46.5004         35.5004
   5522495.78546   4376229.79744  24207977.6414                   24207982.2814
        38.5004         28.2504
  12552560.01656   9847416.48054  25306567.1484                   25306574.9304
        38.0004         25.7504
 -28027386.97347 -21808058.51248  20949035.6254                   20949035.9414
        47.5004         48.0004
 -39872691.83247 -31036778.66046  22130332.3204                   22130334.4454
        45.5004         39.7504
 -46613387.07047 -36212739.43046  20398945.8054                   20398945.0434
        46.2504         37.7504
  -4937374.69945  -3817287.69544  25133623.7424                   25133630.8054
        35.5004         29.0004
 -23057302.44946 -17904224.90645  23711513.2344                   23711514.9344
        40.5004         32.2504
 -12740943.25047  -9870859.85546  22773596.6024                   22773595.7234
        46.5004         39.5004
 25  8  8  1 48  0.0000000  0  9G16G27G30G09G03G04G06G26G07
 -25666190.78147 -18847523.06645  20977485.1804                   20977482.8364
        46.5004         35.2504
   5381826.86346   4266617.71544  24181210.2344                   24181213.9774
        39.7504         29.7504
  12408892.42245   9735468.01644  25279224.9224                   25279234.7194
        34.2504         26.5004
 -28149528.57448 -21903233.76248  20925792.9144                   20925793.4884
        48.0004         48.0004
 -39838282.93447 -31009966.61346  22136880.1724                   22136882.9264
        45.5004         39.7504
 -46672881.71147 -36259098.88346  20387624.7114                   20387623.7384
        46.2504         38.2504
  -4953910.41846  -3830172.79844  25130478.3204                   25130484.3014
        38.0004         28.7504
 -23023695.97746 -17878038.06245  23717907.1804                   23717910.5904
        40.0004         32.5004
 -12856119.44147  -9960607.46946  22751679.5394                   22751678.4344
        46.0004         39.2504
 25  8  8  1 48 30.0000000  0  9G16G27G30G09G03G04G06G26G07
 -25697114.35247 -18871619.36345  20971600.3834                   20971598.5864
        45.7504         35.0004
   5241385.10946   4157182.68044  24154484.6644                   24154488.6644
        37.5004         28.5004
  12265357.38745   9623622.88744  25251912.0634                   25251920.8014
        33.0004         26.5004
 -28271406.77347 -21998203.75448  20902600.4224                   20902600.5084
        47.0004         48.0004
 -39803549.93447 -30982902.02046  22143489.9454                   22143492.7114
        45.0004         40.5004
 -46732011.60947 -36305174.12946  20376372.5314                   20376371.5864
        45.7504         38.2504
  -4970093.66046  -3842783.18744  25127399.1174                   25127404.9924
        36.2504         28.5004
 -22989800.18446 -17851625.81645  23724358.3674                   23724360.9694
        41.5004         33.5004
 -12971078.80547 -10050186.12146  22729803.2974                   22729802.4264
        46.2504         39.5004
 25  8  8  1 49  0.0000000  0  9G16G27G30G09G03G04G06G26G07
 -25727366.87547 -18895192.77045  20965843.9924                   20965841.7304
        46.2504         34.7504
   5101173.55146   4047927.12544  24127803.2734                   24127807.2774
        38.2504         29.5004
  12121954.63355   9511880.83254  25224624.0084                   25224632.3634
        34.2504         25.7504
 -28393020.09047 -22092967.34448  20879458.2194                   20879457.8324
        46.7504         48.0004
 -39768495.91447 -30955587.29346  22150159.9064                   22150163.1564
        44.5004         40.0004
 -46790776.10247 -36350964.64146  20365189.7344                   20365188.8984
        46.5004         38.5004
  -4985927.24246  -3855121.16844  25124386.4224                   25124392.0204
        37.2504         29.5004
 -22955618.07846 -17824990.46145  23730862.1644                   23730865.5274
        38.5004         32.7504
 -13085822.31247 -10139596.55946  22707968.5864                   22707967.3524
        45.7504         39.2504
 25  8  8  1 49 30.0000000  0  9G16G27G30G09G03G04G06G26G07
 -25756951.43747 -18918245.68046  20960214.2734                   20960211.5664
        46.0004         36.0004
   4961194.13346   3938852.30544  24101166.1094                   24101169.0704
        40.0004         28.2504
  11978682.87546   9400240.86744  25197360.2504                   25197368.3284
        37.0004         27.0004
 -28514368.38347 -22187524.41848  20856366.0944                   20856366.2304
        47.0004         48.2504
 -39733125.16447 -30928025.77346  22156890.5634                   22156893.8834
        44.2504         39.7504
 -46849175.68047 -36396470.80546  20354076.7974                   20354076.3524
        47.2504         38.2504
  -5001415.33646  -3867189.91444  25121439.2424                   25121445.1254
        38.0004         28.0004
 -22921154.01246 -17798135.36345  23737419.9614                   23737424.0744
        39.0004         31.7504
 -13200351.95747 -10228840.34446  22686174.0164                   22686172.8204
        46.2504         39.5004
 25  8  8  1 50  0.0000000  0  9G16G27G30G09G03G04G06G26G07
 -25785867.87147 -18940777.98045  20954711.3134                   20954709.2584
        46.0004         35.2504
   4821451.67646   3829962.13744  24074572.7504                   24074577.7304
        36.7504         28.0004
  11835543.83646   9288704.30944  25170122.2344                   25170129.4144
        37.2504         25.7504
 -28635448.30547 -22281872.36748  20833325.4774                   20833325.5824
        47.0004         48.2504
 -39697438.97347 -30900218.45746  22163681.7034                   22163684.6914
        43.5004         39.5004
 -46907207.79747 -36441690.64146  20343033.6414                   20343033.0004
        46.0004         38.2504
  -5016559.09446  -3878990.31644  25118556.5164                   25118563.4774
        36.7504         29.5004
 -22886409.06246 -17771061.45345  23744032.4454                   23744035.6294
        37.7504         31.7504
 -13314666.09847 -10317916.21546  22664420.4614                   22664419.7544
        45.7504         39.7504
 25  8  8  1 50 30.0000000  0  9G16G27G30G09G03G04G06G26G07
 -25814115.40647 -18962789.05145  20949335.9384                   20949333.6844
        47.0004         35.0004
   4681951.74646   3721261.11344  24048027.7504                   24048031.9384
        37.0004         29.5004
  11692539.99245   9177273.05144  25142907.6804                   25142915.5744
        35.5004         27.0004
 -28756255.71148 -22376007.96948  20810336.2734                   20810336.6804
        48.0004         48.0004
 -39661437.80147 -30872165.69946  22170531.8754                   22170535.5044
        44.5004         40.0004
 -46964869.08647 -36486621.52346  20332061.1414                   20332059.9804
        46.0004         37.7504
  -5031358.91446  -3890522.75844  25115741.0554                   25115747.1134
        36.5004         28.0004
 -22851383.77346 -17743769.08245  23750697.8054                   23750700.9924
        39.5004         32.2504
 -13428763.35947 -10406823.08646  22642708.5314                   22642707.6644
        45.7504         40.0004
 25  8  8  1 51  0.0000000  0 10G16G27G30G09G08G03G04G06G26G07
 -25841700.56647 -18984283.99245  20944086.7734                   20944084.5234
        46.2504         34.7504
   4542693.19946   3612748.05544  24021527.0944                   24021531.2704
        38.5004         29.0004
  11549666.84446   9065943.66044  25115719.8674                   25115727.1994
        36.0004         26.5004
 -28876793.57847 -22469933.54348  20787399.0634                   20787399.4144
        47.5004         48.0004
  13998609.12555  10955973.92653  24462995.9614                   24463003.2194
        33.2504         19.7504
 -39625129.22747 -30843873.41846  22177442.2114                   22177444.6134
        44.5004         39.7504
 -47022163.29347 -36531266.36746  20321158.0634                   20321157.5704
        46.0004         37.5004
  -5045821.96946  -3901792.74644  25112988.0864                   25112994.9654
        36.2504         28.2504
 -22816085.49246 -17716263.97345  23757413.4774                   23757417.6094
        37.7504         32.0004
 -13542648.75047 -10495564.86346  22621036.9924                   22621036.3404
        46.0004         40.0004
 25  8  8  1 51 30.0000000  0 10G16G27G30G09G08G03G04G06G26G07
 -25868620.04347 -19005260.20745  20938963.9224                   20938961.7424
        46.0004         35.0004
   4403683.91046   3504429.20344  23995074.1094                   23995077.7584
        37.2504         26.5004
  11406929.20746   8954719.84444  25088557.7584                   25088564.9224
        38.0004         27.2504
 -28997055.46948 -22563644.06648  20764514.0394                   20764513.8834
        48.0004         48.5004
  13845026.99645  10836299.75043  24433771.7974                   24433777.5554
        34.0004         21.2504
 -39588511.34447 -30815340.10246  22184410.3834                   22184412.8364
        44.5004         40.0004
 -47079084.73447 -36575620.73446  20310326.5784                   20310325.8754
        46.7504         37.5004
  -5059946.44146  -3912798.93744  25110301.6024                   25110307.2114
        36.5004         28.0004
 -22780512.39546 -17688544.75045  23764184.5704                   23764187.4614
        38.7504         31.5004
 -13656317.73847 -10584138.01246  22599406.2814                   22599406.0904
        46.5004         40.0004
 25  8  8  1 52  0.0000000  0 10G16G27G30G09G08G03G04G06G26G07
 -25894878.10547 -19025721.03545  20933967.2504                   20933964.6374
        46.0004         34.7504
   4264924.52746   3396305.14545  23968669.4534                   23968673.3524
        40.0004         32.7504
  11264324.65245   8843599.70744  25061419.4064                   25061428.4454
        35.5004         26.7504
 -29117042.29748 -22657140.26248  20741680.9144                   20741681.3094
        48.2504         48.2504
  13691431.01245  10716614.74643  24404542.2114                   24404549.5314
        34.2504         22.7504
 -39551589.70747 -30786570.10246  22191436.2894                   22191439.4304
        44.0004         40.5004
 -47135635.16847 -36619686.02046  20299565.4454                   20299564.2894
        45.5004         37.5004
  -5073737.71945  -3923545.49644  25107676.5864                   25107682.6804
        35.7504         27.5004
 -22744669.79346 -17660615.53145  23771004.8204                   23771007.8364
        38.2504         31.0004
 -13769773.46547 -10672544.98846  22577816.1094                   22577815.5744
        45.0004         39.7504
 25  8  8  1 52 30.0000000  0 10G16G27G30G09G08G03G04G06G26G07
 -25920476.84447 -19045668.11745  20929095.9774                   20929093.9694
        46.2504         35.2504
   4126418.19546   3288378.23445  23942312.9614                   23942316.8554
        39.2504         32.2504
  11121852.94546   8732583.14544  25034309.0784                   25034315.9414
        37.2504         26.2504
 -29236752.50448 -22750420.91448  20718900.6724                   20718900.6604
        48.0004         48.2504
  13537823.92245  10596921.13343  24375311.9534                   24375319.1914
        34.7504         22.2504
 -39514367.40247 -30757565.81246  22198519.4454                   22198522.6914
        43.2504         40.0004
 -47191813.82047 -36663461.59846  20288875.0394                   20288874.1804
        45.2504         37.5004
  -5087198.74245  -3934034.69544  25105115.5394                   25105121.9614
        35.7504         28.2504
 -22708560.77346 -17632478.72345  23777877.4304                   23777879.5354
        40.0004         31.5004
 -13883017.01647 -10760786.63746  22556266.5394                   22556265.6054
        45.5004         39.5004
 25  8  8  1 53  0.0000000  0 10G16G27G30G09G08G03G04G06G26G07
 -25945418.07047 -19065102.84445  20924349.8674                   20924347.8834
        46.2504         34.7504
   3988168.03146   3180650.96945  23916003.3054                   23916008.3444
        38.0004         30.0004
  10979514.18046   8621670.10944  25007222.0084                   25007230.0234
        36.7504         27.5004
 -29356184.53148 -22843484.80548  20696173.3984                   20696173.5744
        48.5004         48.2504
  13384208.44145  10477220.94543  24346079.6884                   24346086.6804
        35.5004         22.7504
 -39476847.45747 -30728329.60546  22205659.6884                   22205662.6174
        44.0004         40.0004
 -47247619.94947 -36706946.89146  20278255.2974                   20278254.5314
        45.7504         38.0004
  -5100332.28945  -3944268.70744  25102614.6884                   25102622.1374
        35.0004         27.7504
 -22672188.22746 -17604136.53545  23784797.6954                   23784800.5744
        38.7504         30.7504
 -13996048.44147 -10848863.01246  22534757.1644                   22534756.4304
        45.5004         39.2504
 25  8  8  1 53 30.0000000  0 10G16G27G30G09G08G03G04G06G26G07
 -25969701.69147 -19084025.15645  20919728.8674                   20919726.8404
        46.7504         35.0004
   3850179.07446   3073127.19145  23889745.7814                   23889749.8094
        40.0004         30.5004
  10837310.00046   8510862.02744  24980160.8834                   24980169.1994
        36.2504         26.5004
 -29475334.89148 -22936329.21148  20673500.4144                   20673500.6524
        48.5004         48.5004
  13230589.37945  10357517.99644  24316846.6804                   24316853.8794
        35.5004         25.5004
 -39439030.99247 -30698862.33646  22212855.6724                   22212858.9454
        43.5004         40.2504
 -47303050.85547 -36750139.80546  20267707.4224                   20267706.7664
        46.7504         38.0004
  -5113139.55946  -3954248.51644  25100178.5314                   25100185.2734
        36.2504         27.7504
 -22635553.27346 -17575589.88345  23791771.0164                   23791771.7584
        39.2504         31.0004
 -14108866.78147 -10936773.31646  22513288.6644                   22513287.6564
        45.5004         39.0004
 25  8  8  1 54  0.0000000  0 10G16G27G30G09G08G03G04G06G26G07
 -25993332.77047 -19102438.98045  20915231.8284                   20915230.1914
        47.0004         34.5004
   3712451.37946   2965806.98845  23863537.2114                   23863541.3054
        38.7504         30.7504
  10695237.54345   8400156.55144  24953125.4694                   24953133.9654
        35.5004         27.5004
 -29594205.06648 -23028955.29748  20650879.6334                   20650880.1334
        49.0004         48.5004
  13076966.30145  10237811.89544  24287613.7194                   24287620.1414
        35.7504         25.2504
 -39400924.18747 -30669168.84046  22220107.7584                   22220110.3874
        43.7504         40.0004
 -47358108.92247 -36793042.20346  20257230.1724                   20257229.4454
        46.0004         38.2504
  -5125626.55546  -3963978.77744  25097803.5084                   25097808.8324
        38.5004         27.5004
 -22598661.71146 -17546843.28545  23798789.1254                   23798792.9144
        36.5004         30.0004
 -14221475.72747 -11024520.47746  22491859.9844                   22491858.4924
        45.0004         39.2504
 25  8  8  1 54 30.0000000  0 10G16G27G30G09G08G03G04G06G26G07
 -26016313.75847 -19120346.25445  20910858.4924                   20910856.7704
        47.0004         34.0004
   3574987.54346   2858692.45745  23837378.7974                   23837382.5664
        38.7504         30.0004
  10553296.07846   8289553.15244  24926115.7504                   24926122.2624
        37.5004         27.0004
 -29712793.89548 -23121362.15648  20628313.0784                   20628313.2384
        49.0004         48.7504
  12923341.56346  10118104.50844  24258378.7344                   24258386.3954
        36.5004         25.7504
 -39362530.48447 -30639251.78546  22227413.7424                   22227416.8954
        44.0004         40.5004
 -47412793.74647 -36835653.76646  20246823.8134                   20246823.6884
        46.5004         38.0004
  -5137796.53145  -3973461.95344  25095487.2194                   25095493.5784
        35.5004         27.7504
 -22561517.12946 -17517899.54745  23805858.9924                   23805860.9654
        39.2504         30.5004
 -14333876.25447 -11112105.24246  22470470.6334                   22470469.3714
        45.5004         39.5004
 25  8  8  1 55  0.0000000  0 10G16G27G30G09G08G03G04G06G26G07
 -26038645.68047 -19137747.74645  20906609.2274                   20906606.9574
        47.2504         34.2504
   3437791.73846   2751786.71145  23811270.8204                   23811274.6684
        39.2504         30.2504
  10411486.42646   8179052.45344  24899129.7344                   24899137.1054
        38.5004         27.5004
 -29831098.93048 -23213547.88348  20605800.4924                   20605800.5164
        48.5004         49.0004
  12769718.77046   9998398.63744  24229145.3594                   24229152.2464
        37.7504         26.5004
 -39323852.05147 -30609112.85946  22234774.3054                   22234777.0944
        43.5004         40.0004
 -47467103.80547 -36877973.30146  20236489.1024                   20236488.2194
        46.2504         38.2504
  -5149651.58245  -3982699.79744  25093230.9614                   25093237.7344
        35.5004         28.0004
 -22524121.52746 -17488760.16044  23812974.4924                   23812976.9534
        38.5004         29.2504
 -14446067.87947 -11199527.22346  22449121.3444                   22449120.5474
        45.7504         39.5004
 25  8  8  1 55 30.0000000  0 10G16G27G30G09G08G03G04G06G26G07
 -26060327.55547 -19154642.71945  20902483.3674                   20902481.1054
        47.2504         34.2504
   3300869.87546   2645094.46944  23785215.1954                   23785219.5274
        39.0004         29.5004
  10269811.51246   8068656.73444  24872169.3754                   24872176.5354
        37.0004         27.2504
 -29949115.67648 -23305508.96948  20583342.4844                   20583342.6414
        48.7504         49.0004
  12616103.66846   9878698.73844  24199912.3054                   24199920.0784
        37.2504         27.2504
 -39284889.12147 -30578752.26246  22242188.7734                   22242191.5434
        44.5004         40.5004
 -47521035.36747 -36919997.89146  20226226.1724                   20226225.4264
        45.7504         38.2504
  -5161191.91445  -3991692.32844  25091034.3754                   25091041.5234
        34.5004         26.7504
 -22486474.78545 -17459425.12544  23820137.9224                   23820140.8914
        35.7504         29.0004
 -14558048.34047 -11286784.66046  22427811.9454                   22427811.1524
        44.7504         40.0004
 25  8  8  1 56  0.0000000  0 10G16G27G30G09G08G03G04G06G26G07
 -26081361.01647 -19171032.42245  20898480.8284                   20898478.5164
        46.5004         34.7504
   3164225.78146   2538618.72345  23759212.5704                   23759217.0004
        40.5004         30.5004
  10128271.77746   7958366.35244  24845235.3834                   24845242.3094
        38.7504         28.2504
 -30066841.83648 -23397243.62148  20560939.8364                   20560939.9144
        48.2504         48.5004
  12462499.65646   9759007.50044  24170682.7814                   24170689.6024
        38.0004         28.5004
 -39245644.05947 -30548171.80146  22249656.5704                   22249659.5984
        44.2504         40.0004
 -47574587.11747 -36961726.53546  20216035.6174                   20216034.6454
        46.7504         37.7504
  -5172419.64146  -4000441.39144  25088899.3594                   25088904.9024
        37.5004         27.0004
 -22448579.37546 -17429896.27744  23827350.5474                   23827352.4574
        40.0004         29.7504
 -14669818.02747 -11373877.86746  22406542.6484                   22406541.5234
        45.5004         40.0004
 25  8  8  1 56 30.0000000  0 10G16G27G30G09G08G03G04G06G26G07
 -26101748.53947 -19186918.80545  20894601.0234                   20894598.9064
        46.0004         34.5004
   3027861.96946   2432361.27344  23733263.6644                   23733266.3404
        38.7504         28.2504
   9986866.56646   7848180.77344  24818326.5394                   24818332.9454
        38.2504         27.7504
 -30184276.48448 -23488751.12548  20538592.9144                   20538593.0554
        49.0004         48.7504
  12308908.94546   9639326.62144  24141455.7974                   24141462.5514
        38.7504         29.5004
 -39206120.55947 -30517374.37946  22257178.2584                   22257181.1094
        43.7504         40.2504
 -47627758.93747 -37003159.11746  20205917.2424                   20205916.4844
        46.7504         37.5004
  -5183338.52346  -4008949.72344  25086821.4774                   25086827.6994
        37.0004         27.0004
 -22410438.73846 -17400176.32844  23834606.6644                   23834610.9024
        37.7504         29.2504
 -14781378.16847 -11460807.79346  22385314.1254                   22385312.7774
        46.0004         40.2504
 25  8  8  1 57  0.0000000  0 10G16G27G30G09G08G03G04G06G26G07
 -26121490.46547 -19202302.12145  20890844.3364                   20890842.2544
        46.2504         34.0004
   2891783.34846   2326326.14145  23707368.2734                   23707373.1254
        39.0004         32.5004
   9845597.76246   7738101.47744  24791443.1564                   24791449.4804
        36.7504         26.7504
 -30301416.05948 -23580028.70748  20516302.0314                   20516302.4804
        49.5004         49.0004
  12155336.21946   9519659.74245  24112231.6414                   24112238.4694
        39.0004         30.5004
 -39166319.78547 -30486360.90646  22264751.7974                   22264754.8594
        43.0004         40.2504
 -47680548.19547 -37044293.60946  20195871.5084                   20195871.0124
        46.5004         37.2504
  -5193949.55146  -4017218.17244  25084801.8754                   25084808.5474
        36.0004         26.5004
 -22372053.77046 -17370266.07044  23841911.9144                   23841914.8714
        36.5004         29.5004
 -14892727.43447 -11547573.40246  22364125.0004                   22364123.8404
        45.5004         40.5004
 25  8  8  1 57 30.0000000  0 10G16G27G30G09G08G03G04G06G26G07
 -24565171.01247 -17989585.66445  21187002.2114                   21187000.1644
        46.0004         33.7504
   4331414.99246   3448117.14545  23981321.6334                   23981325.0984
        38.7504         32.0004
  11279887.13346   8855729.84044  25064379.6094                   25064385.6374
        37.2504         26.7504
 -28842837.84848 -22443474.23848  20793859.8984                   20793860.3404
        49.2504         49.0004
  13577206.66646  10627610.93645  24382804.4384                   24382811.0904
        39.5004         31.2504
 -37550828.91047 -29227536.96146  22572169.6564                   22572172.7074
        43.2504         39.7504
 -46157535.17647 -35857530.21946  20485691.6484                   20485691.0234
        47.2504         37.5004
  -3628838.13746  -2797650.94944  25382632.5634                   25382638.6294
        36.5004         27.5004
 -20758011.65646 -16112570.96144  24149054.2034                   24149056.7074
        38.7504         28.5004
 -13428445.45747 -10406574.40246  22642768.2664                   22642767.3834
        46.2504         41.0004
 25  8  8  1 58  0.0000000  0 10G16G27G30G09G08G03G04G06G26G07
 -24583630.36347 -18003969.57045  21183489.4534                   21183487.2734
        46.5004         34.2504
   4195913.71546   3342531.85245  23955535.7114                   23955539.0274
        38.5004         30.0004
  11138888.18445   8745860.78544  25037546.8054                   25037553.9734
        35.7504         26.0004
 -28959385.03148 -22534290.21948  20771681.9614                   20771681.8634
        48.5004         49.0004
  13423676.03946  10507976.89145  24353588.4774                   24353594.2544
        39.5004         30.2504
 -37510485.34447 -29196100.53946  22579847.0314                   22579849.8984
        42.5004         39.5004
 -46209559.73447 -35898068.83646  20475791.7814                   20475790.7274
        46.2504         38.0004
  -3638845.00446  -2805448.64144  25380728.5084                   25380735.2114
        36.5004         28.2504
 -20719149.51646 -16082288.82844  24156447.9534                   24156452.3364
        37.0004         29.0004
 -13539377.42247 -10493014.84846  22621658.7344                   22621657.3874
        45.5004         40.7504
 25  8  8  1 58 30.0000000  0 10G16G27G30G09G08G03G04G06G26G07
 -24601449.50447 -18017854.61345  21180098.7274                   21180096.6844
        46.5004         35.5004
   4060708.07846   3237176.92245  23929808.3444                   23929810.9924
        40.5004         33.7504
  10998026.21146   8636098.45744  25010741.7504                   25010748.9104
        36.7504         26.0004
 -29075631.36348 -22624871.76648  20749561.1484                   20749561.1724
        48.7504         49.0004
  13270172.76246  10388364.14545  24324377.0314                   24324384.3244
        39.0004         31.5004
 -37469872.77747 -29164454.49646  22587575.2424                   22587578.4924
        43.0004         38.7504
 -46261198.59847 -35938306.91046  20465965.3834                   20465964.1914
        47.0004         38.0004
  -3648552.09846  -2813012.74644  25378881.0474                   25378887.9184
        37.0004         27.5004
 -20680050.87946 -16051822.48444  24163890.6884                   24163892.4104
        39.5004         28.0004
 -13650099.21547 -10579291.51246  22600588.7114                   22600587.9574
        46.5004         40.7504
 25  8  8  1 59  0.0000000  0 10G16G27G30G09G08G03G04G06G26G07
 -24618631.50447 -18031243.16845  21176828.8594                   21176826.6024
        47.5004         34.2504
   3925799.89146   3132053.80145  23904134.8754                   23904138.4144
        37.2504         30.5004
  10857299.99246   8526441.93444  24983964.7504                   24983969.0044
        39.7504         24.7504
 -29191576.38748 -22715218.52048  20727497.5784                   20727497.4494
        49.0004         49.2504
  13116698.58246  10268774.07845  24295173.0004                   24295178.3754
        39.0004         31.5004
 -37428995.46147 -29132602.16046  22595353.9924                   22595356.9694
        42.0004         39.0004
 -46312452.30947 -35978244.86746  20456212.0314                   20456211.1214
        47.5004         38.0004
  -3657963.49246  -2820346.44944  25377090.9694                   25377097.0664
        37.0004         28.5004
 -20640719.85946 -16021174.94545  24171374.1414                   24171377.5864
        38.5004         30.2504
 -13760612.59847 -10665405.78946  22579559.1094                   22579557.9104
        46.5004         40.7504
 25  8  8  1 59 30.0000000  0 10G16G27G30G09G08G03G04G06G26G07
 -24635177.38747 -18044136.07045  21173680.3754                   21173678.3754
        46.5004         34.0004
   3791193.64146   3027165.94945  23878519.7734                   23878523.1054
        39.5004         30.5004
  10716710.71545   8416892.05944  24957208.8834                   24957215.9064
        35.7504         25.0004
 -29307217.11348 -22805328.16048  20705491.7194                   20705492.0164
        49.2504         49.0004
  12963257.81346  10149210.03545  24265973.3524                   24265979.4804
        39.7504         31.5004
 -37387855.11347 -29100544.86746  22603182.8984                   22603186.1954
        42.5004         38.5004
 -46363318.84047 -36017881.12146  20446532.2274                   20446531.8054
        47.0004         38.0004
  -3667080.91846  -2827451.05144  25375355.4224                   25375362.5354
        36.5004         26.7504
 -20601157.96546 -15990347.52745  24178901.6414                   24178906.0084
        38.2504         30.0004
 -13870917.16847 -10751357.35946  22558568.5004                   22558567.5394
        46.5004         40.5004
 25  8  8  2  0  0.0000000  0 10G16G27G30G09G08G03G04G06G26G07
 -24651088.45347 -18056534.30945  21170652.8204                   21170650.5984
        47.0004         34.5004
   3656893.23446   2922516.36345  23852963.5474                   23852966.9774
        38.7504         31.0004
  10576259.12146   8307449.47344  24930481.3984                   24930488.2584
        36.0004         24.5004
 -29422551.21548 -22895198.87148  20683544.1254                   20683544.5204
        49.7504         49.0004
  12809853.92246  10029674.73045  24236781.2344                   24236787.5664
        40.0004         32.7504
 -37346454.11347 -29068284.46546  22611061.5474                   22611064.6214
        42.5004         37.7504
 -46413796.72347 -36057214.53946  20436926.4454                   20436925.5864
        47.2504         37.2504
  -3675906.62146  -2834328.40244  25373677.4924                   25373683.4184
        37.7504         29.2504
 -20561367.36746 -15959341.91844  24186474.6024                   24186477.5944
        39.0004         29.2504
 -13981013.00847 -10837146.27746  22537617.7274                   22537616.9414
        46.5004         40.5004
 25  8  8  2  0 30.0000000  0 10G16G27G30G09G08G03G04G06G26G07
 -24666366.72347 -18068439.45345  21167745.8134                   21167743.1804
        47.5004         34.5004
   3522902.13346   2818107.93045  23827465.8284                   23827469.2624
        39.7504         31.0004
  10435945.57046   8198114.49644  24903780.6414                   24903787.5274
        36.0004         24.2504
 -29537576.55148 -22984828.97748  20661655.6884                   20661655.5514
        49.5004         49.2504
  12656490.27746   9910170.77045  24207597.5004                   24207603.2544
        40.5004         33.5004
 -37304795.03947 -29035822.97346  22618988.8984                   22618992.3364
        42.5004         37.2504
 -46463884.77348 -36096244.18746  20427395.5234                   20427394.9614
        48.0004         37.7504
  -3684443.17246  -2840980.38744  25372052.2504                   25372059.2464
        37.0004         28.2504
 -20521350.36746 -15928159.94144  24194089.2034                   24194092.6414
        39.0004         29.7504
 -14090900.14547 -10922772.57046  22516706.7584                   22516706.2274
        46.2504         40.0004
 25  8  8  2  1  0.0000000  0 10G16G27G30G09G08G03G04G06G26G07
 -24681013.28947 -18079852.37145  21164957.9304                   21164955.9654
        47.2504         33.5004
   3389224.76246   2713943.79745  23802028.2344                   23802030.4344
        41.2504         30.2504
  10295770.99245   8088887.77344  24877106.0704                   24877113.2274
        35.5004         24.5004
 -29652290.27748 -23074216.26648  20639826.2734                   20639826.4494
        49.2504         49.2504
  12503170.94546   9790701.35245  24178421.3914                   24178427.5084
        40.5004         33.5004
 -37262879.77347 -29003161.84846  22626965.4614                   22626968.2464
        42.2504         38.0004
 -46513581.20347 -36134968.67646  20417938.2344                   20417937.4494
        47.5004         37.2504
  -3692692.40646  -2847408.52744  25370483.5784                   25370489.6024
        37.0004         27.5004
 -20481108.69946 -15896802.86345  24201748.1884                   24201750.6684
        39.5004         30.5004
 -14200577.77347 -11008235.61346  22495835.9614                   22495834.7814
        47.0004         40.5004
 25  8  8  2  1 30.0000000  0 10G16G27G30G09G08G03G04G06G26G07
 -24695029.66047 -18090774.21545  21162290.7194                   21162289.0234
        47.0004         33.2504
   3255864.81646   2610027.09445  23776649.6254                   23776653.5864
        39.7504         31.2504
  10155736.06346   7979769.88344  24850460.5864                   24850465.0354
        38.0004         26.2504
 -29766690.12148 -23163358.97348  20618056.7344                   20618056.6524
        49.5004         49.0004
  12349899.57446   9671269.30545  24149254.1414                   24149260.8094
        40.0004         33.2504
 -37220710.75447 -28970303.00046  22634989.3984                   22634992.9654
        42.5004         38.0004
 -46562884.59047 -36173386.90646  20408556.0944                   20408555.5124
        47.7504         38.0004
  -3700656.61746  -2853614.59044  25368968.6884                   25368973.4184
        38.2504         27.0004
 -20440644.56646 -15865272.37545  24209447.8594                   24209450.8554
        40.2504         31.0004
 -14310046.09047 -11093535.55146  22475004.8204                   22475003.3874
        46.5004         40.7504
 25  8  8  2  2  0.0000000  0 10G16G27G30G09G08G03G04G06G26G07
 -24708416.38347 -18101205.43445  21159743.6174                   21159741.2274
        47.5004         34.0004
   3122826.93846   2506361.35245  23751334.3204                   23751337.5354
        41.5004         34.0004
  10015842.14146   7870761.85944  24823840.1254                   24823843.0704
        38.5004         24.7504
 -29880772.85248 -23252254.57448  20596347.4384                   20596347.7234
        49.5004         49.0004
  12196680.54346   9551878.03145  24120097.8674                   24120103.6294
        40.7504         33.0004
 -37178289.46947 -28937247.57446  22643062.0164                   22643065.2424
        42.5004         38.0004
 -46611792.81247 -36211497.20746  20399249.2114                   20399248.7464
        47.7504         38.0004
  -3708337.33646  -2859599.68744  25367505.8524                   25367512.3444
        37.2504         29.0004
 -20399959.25446 -15833569.57444  24217190.2734                   24217192.1214
        40.0004         28.5004
 -14419304.22747 -11178671.71946  22454213.1414                   22454212.4344
        47.2504         40.7504
 25  8  8  2  2 30.0000000  0 10G16G27G30G09G08G03G04G06G26G07
 -24721175.99247 -18111147.99245  21157315.6484                   21157313.4964
        47.0004         33.7504
   2990113.93046   2402948.69145  23726078.4844                   23726082.1524
        39.2504         30.5004
   9876088.91446   7761863.45744  24797243.9694                   24797249.4104
        36.5004         26.0004
 -29994537.17248 -23340902.06648  20574698.6954                   20574698.9104
        49.2504         49.0004
  12043516.48446   9432529.60245  24090951.5234                   24090957.5944
        40.0004         32.7504
 -37135619.34847 -28903998.26246  22651182.5084                   22651186.0784
        42.5004         38.0004
 -46660305.45347 -36249299.27346  20390017.3754                   20390016.9614
        47.7504         37.5004
  -3715737.92245  -2865366.50444  25366096.3834                   25366104.8164
        34.7504         28.7504
 -20359055.94146 -15801696.92644  24224973.7114                   24224976.2154
        39.7504         29.0004
 -14528353.22347 -11263644.91446  22433461.9844                   22433461.1414
        46.7504         41.0004
 25  8  8  2  3  0.0000000  0 10G16G27G30G09G08G03G04G06G26G07
 -24733312.12547 -18120604.72745  21155006.3284                   21155003.9574
        47.5004         34.0004
   2857727.80547   2299790.82045  23700887.3914                   23700890.5944
        43.0004         35.5004
   9736475.09045   7653073.65644  24770674.0554                   24770681.5044
        34.0004         26.2504
 -30107982.40648 -23429300.92248  20553110.5394                   20553111.0434
        49.7504         49.0004
  11890409.26646   9313225.48045  24061815.9224                   24061822.1994
        39.2504         33.2504
 -37092704.48447 -28870558.24246  22659348.4844                   22659352.2624
        42.5004         38.0004
 -46708422.91847 -36286793.39546  20380861.4924                   20380860.3754
        47.5004         37.5004
  -3722862.45346  -2870918.26644  25364742.4304                   25364748.4344
        36.5004         28.5004
 -20317938.41446 -15769657.34044  24232797.1484                   24232800.5394
        37.2504         28.0004
 -14637194.50847 -11348456.26646  22412750.5314                   22412749.5434
        46.2504         41.0004
 25  8  8  2  3 30.0000000  0 10G16G27G30G09G08G03G04G06G26G07
 -24744829.59047 -18129579.37945  21152814.5784                   21152812.3874
        47.5004         34.0004
   2725669.11346   2196888.09445  23675756.3204                   23675760.7734
        39.5004         31.7504
   9596998.05945   7544390.45744  24744133.0864                   24744139.4924
        35.0004         26.7504
 -30221109.54348 -23517451.90248  20531583.6414                   20531583.6134
        49.7504         49.2504
  11737359.24246   9193965.93045  24032690.8754                   24032697.3834
        39.5004         33.0004
 -37049550.57847 -28836931.95746  22667560.6174                   22667564.1454
        42.7504         37.7504
 -46756147.15248 -36323981.11746  20371779.3984                   20371778.9024
        48.0004         37.5004
  -3729716.42645  -2876259.21944  25363438.6804                   25363444.9774
        35.5004         27.0004
 -20276612.23046 -15737455.17244  24240662.9064                   24240664.7734
        38.2504         28.2504
 -14745831.28947 -11433108.25846  22392077.5784                   22392076.4774
        46.2504         41.0004
 25  8  8  2  4  0.0000000  0 10G16G27G30G09G08G03G04G06G26G07
 -24755728.43047 -18138071.99245  21150740.2344                   21150738.2074
        46.5004         33.5004
   2593943.28146   2094244.64145  23650690.4224                   23650692.8714
        41.5004         33.7504
   9457660.05146   7435815.62944  24717620.1174                   24717624.4184
        37.5004         27.5004
 -30333914.52048 -23605351.85948  20510117.3054                   20510117.5164
        49.7504         49.5004
  11584371.66846   9074755.05145  24003578.7274                   24003584.9924
        40.0004         32.2504
 -37006158.29347 -28803119.92646  22675817.6484                   22675821.7344
        42.7504         37.5004
 -46803475.11747 -36360860.05546  20362773.1724                   20362772.8634
        47.2504         37.5004
  -3736300.78546  -2881390.00844  25362184.3054                   25362191.6134
        36.0004         26.2504
 -20235077.68746 -15705090.64844  24248564.5554                   24248568.3524
        38.2504         26.7504
 -14854262.27047 -11517599.88346  22371443.9144                   22371442.8634
        46.0004         41.2504
 25  8  8  2  4 30.0000000  0 10G16G27G30G09G08G03G04G06G26G07
 -24766009.06247 -18146082.88745  21148783.8914                   21148781.6484
        47.0004         33.0004
   2462555.36746   1991864.58245  23625688.1094                   23625691.7384
        41.2504         34.5004
   9318462.85945   7327350.50044  24691129.0234                   24691136.7934
        33.5004         27.2504
 -30446393.73848 -23692997.97348  20488713.3984                   20488713.5234
        49.7504         49.5004
  11431451.46946   8955596.65645  23974478.5864                   23974485.0084
        38.7504         32.2504
 -36962528.79347 -28769123.05546  22684120.5314                   22684124.3014
        42.5004         37.5004
 -46850404.23447 -36397428.21146  20353843.0474                   20353842.1024
        47.5004         37.5004
  -3742616.37545  -2886311.39544  25360982.9224                   25360990.6094
        35.0004         27.7504
 -20193335.80946 -15672564.55144  24256510.1024                   24256511.1254
        39.2504         28.2504
 -14962485.68047 -11601929.76246  22350849.5004                   22350848.7734
        46.5004         41.5004
 25  8  8  2  5  0.0000000  0 10G16G27G30G09G08G03G04G06G26G07
 -24775672.98447 -18153613.23045  21146945.0164                   21146942.8094
        47.2504         33.2504
   2331509.27346   1889750.87145  23600750.6254                   23600753.8204
        41.0004         33.5004
   9179407.28546   7218995.71944  24664669.0314                   24664674.8244
        36.7504         27.5004
 -30558544.64848 -23780388.27048  20467371.8524                   20467371.9804
        50.5004         49.5004
  11278602.49246   8836493.77045  23945392.2974                   23945398.0824
        39.5004         32.5004
 -36918664.23047 -28734943.02046  22692467.7194                   22692471.5944
        42.7504         37.7504
 -46896932.94147 -36433684.34846  20344988.8284                   20344988.4104
        47.5004         38.0004
  -3748665.51645  -2891025.18744  25359832.2344                   25359839.7624
        35.0004         26.7504
 -20151388.39546 -15639878.34444  24264491.0164                   24264493.8134
        37.2504         26.0004
 -15070501.23447 -11686097.68046  22330294.8134                   22330293.9574
        47.0004         41.7504
 25  8  8  2  5 30.0000000  0 10G16G27G30G09G08G03G04G06G26G07
 -24784724.45747 -18160666.33245  21145222.2974                   21145219.8404
        47.0004         33.5004
   2200806.29746   1787904.46945  23575878.0944                   23575881.8134
        41.0004         34.5004
   9040491.31645   7110749.70344  24638233.5474                   24638239.6094
        35.5004         28.5004
 -30670367.39548 -23867522.84848  20446092.3914                   20446092.8834
        49.7504         49.5004
  11125825.77746   8717447.18845  23916320.0864                   23916325.8874
        38.0004         31.0004
 -36874569.57047 -28700583.69946  22700859.0474                   22700862.0784
        42.5004         37.2504
 -46943062.53147 -36469629.49646  20336210.7194                   20336210.0204
        47.5004         37.5004
  -3754453.03545  -2895535.03544  25358729.3444                   25358737.8164
        34.0004         24.5004
 -20109240.09845 -15607035.55544  24272511.0234                   24272515.2274
        35.5004         27.2504
 -15178311.96147 -11770105.99246  22309779.1564                   22309778.0514
        46.0004         41.7504
 25  8  8  2  6  0.0000000  0 10G16G27G30G09G08G03G04G06G26G07
 -24793162.17247 -18167241.18045  21143616.8134                   21143614.5634
        46.0004         33.5004
   2070453.22746   1686330.82045  23551073.1094                   23551076.4064
        41.0004         34.0004
   8901718.60946   7002615.33644  24611826.0004                   24611831.8874
        37.0004         28.5004
 -30781856.59448 -23954397.52748  20424876.8524                   20424877.2034
        48.7504         49.7504
  10973128.17546   8598462.24445  23887262.2814                   23887268.3714
        38.0004         30.7504
 -36830244.12547 -28666044.52346  22709293.9924                   22709297.1724
        43.0004         37.2504
 -46988788.56647 -36505260.17246  20327509.0944                   20327508.5044
        47.2504         37.5004
  -3759978.17645  -2899840.54744  25357679.0784                   25357686.6094
        33.0004         24.0004
 -20066890.07446 -15574035.54744  24280569.5554                   24280573.9694
        36.0004         28.0004
 -15285914.50047 -11853952.07846  22289302.7734                   22289302.1414
        45.0004         41.5004
 25  8  8  2  6 30.0000000  0 10G16G27G30G09G08G03G04G06G26G07
 -24800991.43747 -18173341.91045  21142127.0314                   21142124.7504
        47.0004         33.2504
   1940450.38346   1585029.96945  23526334.2974                   23526337.3134
        40.7504         33.5004
   8763086.14846   6894590.22344  24585444.8524                   24585450.5944
        36.2504         27.7504
 -30893013.33248 -24041013.14148  20403723.9844                   20403724.5124
        50.0004         49.7504
  10820509.68446   8479538.94145  23858219.8594                   23858226.2304
        38.2504         31.7504
 -36785693.76247 -28631330.10246  22717771.5634                   22717775.0044
        42.7504         36.0004
 -47034113.27047 -36540578.14846  20318884.3674                   20318883.5744
        47.5004         37.2504
  -3765247.02045  -2903946.29744  25356677.0004                   25356684.1484
        35.7504         27.0004
 -20024343.78546 -15540882.66044  24288666.8444                   24288669.9694
        36.5004         26.5004
 -15393312.28547 -11937638.61346  22268865.7424                   22268865.0514
        46.2504         41.5004
 25  8  8  2  7  0.0000000  0 10G16G27G30G09G08G03G04G06G26G07
 -24808213.57847 -18178969.55945  21140752.6564                   21140750.2854
        45.7504         33.2504
   1810801.80146   1484005.22745  23501662.5704                   23501666.0744
        40.2504         34.2504
   8624594.93446   6786675.20744  24559091.8134                   24559096.1914
        36.2504         28.0004
 -31003834.84448 -24127367.55548  20382635.8284                   20382636.2814
        50.0004         50.0004
  10667974.53146   8360680.60545  23829193.5554                   23829198.9144
        37.0004         30.5004
 -36740920.44147 -28596441.93046  22726292.0394                   22726295.2504
        42.5004         36.2504
 -47079034.94547 -36575582.06646  20310336.0864                   20310335.1414
        47.7504         37.2504
  -3770261.33245  -2907853.69144  25355722.5944                   25355730.0944
        35.0004         25.0004
 -19981602.93745 -15507578.19544  24296799.8914                   24296803.6604
        34.7504         27.5004
 -15500504.85947 -12021165.24646  22248468.1174                   22248466.7664
        46.5004         41.5004
 25  8  8  2  7 30.0000000  0 10G16G27G30G09G08G03G04G06G26G07
 -24814832.57047 -18184127.23445  21139493.1484                   21139490.6484
        46.5004         32.7504
   1681509.16046   1383257.84045  23477059.3674                   23477062.5944
        40.0004         34.0004
   8486243.41845   6678869.01244  24532762.3594                   24532769.6954
        33.2504         28.2504
 -31114320.93448 -24213460.59848  20361611.1724                   20361610.7114
        49.7504         50.0004
  10515524.21546   8241888.35945  23800182.6414                   23800188.2424
        37.2504         30.0004
 -36695928.75047 -28561383.60946  22734853.7664                   22734857.3914
        42.5004         36.0004
 -47123554.47347 -36610272.61746  20301864.3524                   20301863.5984
        47.2504         37.5004
  -3775025.60245  -2911566.27344  25354816.2894                   25354823.5864
        35.0004         26.5004
 -19938671.78545 -15474125.40644  24304968.2584                   24304973.6254
        34.5004         26.7504
 -15607494.21147 -12104533.52046  22228108.2584                   22228107.1994
        47.0004         41.2504
 25  8  8  2  8  0.0000000  0  9G16G27G30G09G08G03G04G26G07
 -24820851.30147 -18188817.16045  21138347.4304                   21138345.8834
        45.5004         33.5004
   1552575.07446   1282789.80145  23452523.7814                   23452526.4844
        40.5004         33.7504
   8348030.91846   6571171.18444  24506461.8134                   24506467.7274
        36.5004         29.0004
 -31224470.28548 -24299291.24648  20340650.0944                   20340650.0784
        48.0004         50.0004
  10363161.35546   8123164.28544  23771188.6564                   23771194.8244
        37.0004         29.7504
 -36650722.10947 -28526157.80145  22743455.9224                   22743459.9844
        42.0004         35.5004
 -47167671.59447 -36644649.61346  20293469.1174                   20293468.3364
        47.7504         37.5004
 -19895553.51246 -15440526.78544  24313175.1334                   24313179.3554
        36.7504         29.0004
 -15714281.55147 -12187744.39546  22207787.5314                   22207785.6604
        45.0004         41.2504
 25  8  8  2  8 30.0000000  0  9G16G27G30G09G08G03G04G26G07
 -24826269.04347 -18193038.78545  21137316.9844                   21137314.9304
        46.0004         33.0004
   1424005.70746   1182606.00445  23428058.0084                   23428061.6524
        40.5004         35.5004
   8209960.60546   6463584.11344  24480187.7424                   24480194.0864
        36.2504         28.7504
 -31334278.16448 -24384855.82048  20319754.6254                   20319754.5234
        49.7504         50.0004
  10210891.94946   8004513.02044  23742212.9694                   23742218.6174
        37.0004         29.0004
 -36605300.60946 -28490764.57845  22752099.3834                   22752103.1604
        41.2504         35.5004
 -47211382.66447 -36678710.20346  20285151.1644                   20285150.4304
        47.0004         37.2504
 -19852247.75845 -15406782.05944  24321415.1414                   24321418.9924
        34.5004         28.0004
 -15820864.48847 -12270795.98046  22187505.0784                   22187503.6804
        46.5004         41.5004
 25  8  8  2  9  0.0000000  0  9G16G27G30G09G08G03G04G26G07
 -24831081.67647 -18196788.89545  21136400.7504                   21136398.9614
        45.5004         32.5004
   1295810.89546   1082714.05145  23403662.7034                   23403666.1374
        40.5004         34.5004
   8072038.95345   6356112.88344  24453942.2034                   24453947.6914
        35.5004         28.7504
 -31443736.02348 -24470147.65648  20298925.8134                   20298925.3484
        50.0004         50.0004
  10058725.89146   7885942.29744  23713256.1484                   23713261.8014
        36.5004         29.2504
 -36559660.34446 -28455200.89145  22760785.0944                   22760788.7274
        41.2504         35.7504
 -47254680.31247 -36712448.65246  20276911.9144                   20276911.4614
        47.7504         37.0004
 -19808750.41445 -15372888.02044  24329691.9844                   24329696.3914
        33.5004         24.7504
 -15927236.70347 -12353683.37146  22167262.9694                   22167261.9024
        46.7504         41.2504
 25  8  8  2  9 30.0000000  0  9G16G27G30G09G08G03G04G26G07
 -24835289.94547 -18200068.08245  21135600.2734                   21135598.4964
        46.0004         33.0004
   1167995.42646    983117.69945  23379340.6414                   23379343.7704
        41.2504         34.7504
   7934267.62546   6248758.79744  24427724.7664                   24427730.5704
        36.2504         29.0004
 -31552840.41848 -24555164.05948  20278163.3914                   20278163.7464
        50.5004         50.0004
   9906667.93046   7767455.80945  23684320.2814                   23684326.2664
        36.5004         30.0004
 -36513802.70746 -28419467.83245  22769511.3204                   22769515.3594
        41.5004         35.7504
 -47297562.16447 -36745863.09446  20268751.9844                   20268751.0124
        47.5004         37.2504
 -19765062.50845 -15338845.64844  24338006.1254                   24338010.7704
        34.5004         26.7504
 -16033397.19147 -12436405.77346  22147061.4694                   22147060.4224
        46.2504         41.2504
 25  8  8  2 10  0.0000000  0  9G16G27G30G09G08G03G04G26G07
 -23263472.83247 -16975275.53545  21434707.1254                   21434705.1054
        45.7504         33.2504
   2615990.06346   2111425.32445  23654884.6254                   23654887.4494
        39.7504         34.2504
   9372074.54346   7369128.01644  24701330.5164                   24701336.2074
        36.7504         29.0004
 -30086162.62148 -23412298.24248  20557262.8054                   20557262.8914
        50.0004         50.0004
  11330149.61346   8876662.52045  23955199.4924                   23955205.2584
        37.5004         30.0004
 -34892308.88746 -27155966.31646  23078071.6254                   23078075.5004
        41.2504         36.5004
 -45764602.78948 -35551349.31646  20560464.5394                   20560463.5984
        48.0004         37.7504
 -18145764.75045 -14077055.19944  24646147.7734                   24646152.9964
        34.7504         28.2504
 -14563919.66047 -11291358.28546  22426693.1564                   22426692.5594
        46.5004         41.5004
 25  8  8  2 10 30.0000000  0  9G16G27G30G09G08G03G04G26G07
 -23266472.99247 -16977613.32845  21434136.3914                   21434134.5664
        46.0004         33.2504
   2488949.33646   2012432.64145  23630709.8284                   23630712.4654
        39.7504         34.2504
   9234610.39145   7262013.27744  24675171.0004                   24675177.6024
        35.2504         29.5004
 -30194548.09048 -23496754.44548  20536637.9614                   20536638.0904
        50.2504         50.0004
  11178323.94146   8758357.00845  23926307.5944                   23926313.8164
        38.0004         30.7504
 -34846018.78147 -27119896.26246  23086880.1024                   23086884.4224
        42.2504         36.7504
 -45806644.44147 -35584109.05146  20552463.9454                   20552462.9694
        47.5004         37.5004
 -18101696.93046 -14042716.65644  24654535.3984                   24654537.7344
        36.5004         28.2504
 -14669651.57047 -11373746.76246  22406573.4694                   22406572.1254
        46.5004         41.2504
 25  8  8  2 11  0.0000000  0  9G16G27G30G09G08G03G04G26G07
 -23268876.71947 -16979486.38345  21433678.6174                   21433676.5704
        45.7504         33.5004
   2362296.95746   1913742.58645  23606607.8594                   23606611.2854
        40.0004         34.5004
   9097296.07045   7155015.28144  24649041.2114                   24649047.4964
        35.7504         29.7504
 -30302575.14148 -23580931.35948  20516080.9064                   20516081.1684
        50.2504         50.0004
  11026615.33246   8640142.71545  23897438.3834                   23897444.2664
        38.2504         31.2504
 -34799520.57846 -27083664.05946  23095729.2584                   23095733.0354
        41.5004         37.0004
 -45848268.74647 -35616543.59046  20544543.0394                   20544542.5434
        47.2504         37.2504
 -18057446.77045 -14008236.03144  24662955.0394                   24662958.7774
        34.7504         28.0004
 -14775173.81647 -11455971.84846  22386493.0784                   22386491.8134
        47.0004         41.5004
 25  8  8  2 11 30.0000000  0  9G16G27G30G09G08G03G04G26G07
 -23270685.46947 -16980895.80945  21433335.3054                   21433332.9804
        46.2504         32.5004
   2236037.00046   1815358.30945  23582581.3284                   23582584.7464
        40.2504         34.7504
   8960132.49646   7048134.75845  24622939.5944                   24622945.0474
        36.5004         30.0004
 -30410240.94148 -23664826.78148  20495592.6254                   20495593.0474
        50.0004         50.2504
  10875028.07446   8522022.96945  23868592.5704                   23868598.0044
        39.0004         30.5004
 -34752816.24646 -27047271.23046  23104617.1644                   23104620.6994
        41.5004         36.5004
 -45889473.95347 -35648651.55146  20536702.2974                   20536701.2664
        47.7504         37.2504
 -18013015.89846 -13973614.68444  24671411.6484                   24671414.4694
        37.7504         27.7504
 -14880485.84447 -11538033.12546  22366452.8054                   22366451.7894
        47.2504         41.5004
 25  8  8  2 12  0.0000000  0  9G16G27G30G09G08G03G04G26G07
 -23271900.11347 -16981842.30545  21433103.5554                   21433101.5354
        46.2504         32.7504
   2110174.25046   1717283.55545  23558630.7344                   23558633.7344
        40.2504         35.0004
   8823121.28545   6941372.95744  24596866.5784                   24596872.5394
        35.5004         29.7504
 -30517541.97748 -23748437.96548  20475174.0314                   20475174.1294
        50.2504         50.2504
  10723566.86746   8404001.44545  23839770.1024                   23839775.3634
        39.5004         32.2504
 -34705907.02346 -27010718.75445  23113542.9064                   23113547.0744
        40.7504         35.7504
 -45930257.86748 -35680431.23046  20528941.2974                   20528940.5904
        48.0004         37.7504
 -17968405.28145 -13938853.03944  24679898.8204                   24679902.2384
        34.2504         25.2504
 -14985586.38747 -11619929.61746  22346452.9774                   22346451.8364
        47.2504         41.2504
 25  8  8  2 12 30.0000000  0 10G16G27G30G09G08G03G21G04G26G07
 -23272526.03947 -16982330.06245  21432984.2344                   21432982.4614
        45.7504         33.0004
   1984709.15246   1619518.65245  23534755.6174                   23534758.3134
        40.0004         34.7504
   8686259.66846   6834727.71545  24570822.8754                   24570829.0664
        36.5004         30.5004
 -30624479.16448 -23831765.63348  20454824.5004                   20454824.6254
        50.5004         50.2504
  10572232.26646   8286078.57445  23810971.9534                   23810977.6644
        39.0004         32.0004
 -34658798.60546 -26974011.06245  23122508.2974                   23122511.9844
        40.5004         35.2504
  17118148.91855  13408963.72752  25247426.8204                   25247429.2074
        33.5004         17.2504
 -45970622.47747 -35711884.18446  20521259.8204                   20521259.3404
        47.5004         37.0004
 -17923620.05545 -13903955.53144  24688417.8674                   24688425.7194
        31.0004         24.0004
 -15090479.21147 -11701664.24646  22326492.4144                   22326491.1524
        47.5004         41.2504
 25  8  8  2 13  0.0000000  0 10G16G27G30G09G08G03G21G04G26G07
 -23272567.96947 -16982362.74645  21432976.4224                   21432974.3794
        45.5004         33.0004
   1859642.10946   1522063.90245  23510956.1564                   23510958.1914
        40.0004         33.7504
   8549544.98046   6728196.94545  24544807.0234                   24544812.9064
        37.7504         31.0004
 -30731053.36347 -23914810.44548  20434544.3134                   20434544.4614
        47.7504         50.2504
  10421024.78546   8168254.75445  23782198.3834                   23782203.4494
        39.0004         31.5004
 -34611496.60946 -26937152.53945  23131508.8444                   23131513.2464
        39.5004         34.0004
  16959727.95745  13285518.85542  25217279.9694                   25217282.8524
        34.2504         16.2504
 -46010569.85247 -35743012.02046  20513658.5004                   20513657.6414
        47.2504         37.5004
 -17878665.61745 -13868926.10244  24696974.8984                   24696979.9104
        33.5004         27.2504
 -15195167.00447 -11783239.08646  22306571.2034                   22306569.3524
        44.5004         41.5004
 25  8  8  2 13 30.0000000  0 10G16G27G30G09G08G03G21G04G26G07
 -23272035.57047 -16981947.90645  21433078.1884                   21433075.9384
        46.2504         32.7504
   1734969.35246   1424916.41045  23487231.3834                   23487233.8014
        38.5004         34.0004
   8412970.28546   6621775.26245  24518816.5554                   24518823.0594
        38.2504         30.7504
 -30837269.62148 -23997576.33648  20414331.7664                   20414331.7584
        50.2504         50.2504
  10269940.73746   8050527.13245  23753448.2194                   23753452.8674
        38.5004         31.0004
 -34564010.78546 -26900150.77745  23140545.4454                   23140550.0354
        40.0004         33.7504
  16801585.75845  13162291.15242  25187187.2584                   25187189.1724
        34.5004         17.2504
 -46050106.21948 -35773819.58246  20506134.7894                   20506134.3634
        48.0004         37.0004
 -17833551.35546 -13833772.27744  24705560.3134                   24705566.0354
        37.2504         26.2504
 -15299657.13347 -11864659.92646  22286687.1724                   22286685.8364
        47.2504         41.5004
 25  8  8  2 14  0.0000000  0 10G16G27G30G09G08G03G21G04G26G07
 -23270935.32447 -16981090.59845  21433287.3984                   21433284.7584
        47.0004         32.0004
   1610690.22346   1328075.62945  23463581.9304                   23463584.3134
        40.5004         33.7504
   8276531.84846   6515459.74645  24492854.8444                   24492860.5204
        37.2504         31.0004
 -30943129.88747 -24080064.84448  20394187.2424                   20394186.9064
        47.5004         50.2504
  10118979.43846   7932895.14545  23724720.6484                   23724725.4494
        38.2504         31.0004
 -34516347.88946 -26863011.03445  23149615.2974                   23149619.9104
        40.0004         34.2504
  16643721.13345  13039279.81342  25157145.3914                   25157148.1024
        35.2504         15.5004
 -46089234.71547 -35804309.32046  20498689.1024                   20498688.3524
        47.2504         37.5004
 -17788283.50046 -13798498.56644  24714177.4534                   24714178.5084
        38.5004         28.2504
 -15403954.25047 -11945930.37546  22266840.2194                   22266839.0394
        45.0004         41.7504
 25  8  8  2 14 30.0000000  0 10G16G27G30G09G08G03G21G04G26G07
 -23269269.80947 -16979792.82045  21433603.9534                   21433601.8054
        46.2504         32.0004
   1486807.91446   1231544.05945  23440007.0234                   23440010.3404
        39.2504         34.0004
   8140229.64146   6409250.38345  24466916.5084                   24466922.8714
        38.0004         31.5004
 -31048632.23047 -24162274.43448  20374110.7424                   20374110.7274
        47.7504         50.2504
   9968144.39846   7815361.55145  23696017.1254                   23696022.4384
        38.0004         30.2504
 -34468510.69946 -26825735.48045  23158719.1414                   23158723.1844
        40.5004         34.2504
  16486136.82845  12916486.89542  25127158.4924                   25127160.7774
        35.0004         16.2504
 -46127954.57847 -35834480.63746  20491320.7274                   20491320.0394
        47.5004         37.5004
 -17742864.49656 -13763107.25454  24722820.1724                   24722823.6604
        38.7504         27.2504
 -15508058.59847 -12027050.60246  22247029.7114                   22247028.4304
        45.0004         41.5004
 25  8  8  2 15  0.0000000  0 10G16G27G30G09G08G03G21G04G26G07
 -23267036.80147 -16978052.83245  21434029.2894                   21434027.1524
        46.5004         31.5004
   1363329.94546   1135327.55945  23416510.3364                   23416513.3164
        39.7504         34.5004
   8004068.02346   6303150.57045  24441005.9224                   24441011.0864
        37.5004         31.2504
 -31153770.37148 -24244200.23448  20354103.7664                   20354103.9884
        49.0004         50.5004
   9817443.14846   7697932.19945  23667339.5864                   23667344.2384
        38.0004         30.5004
 -34420497.73846 -26788322.95745  23167855.6024                   23167859.9804
        40.7504         35.0004
  16328839.77745  12793917.82442  25097226.0784                   25097228.7344
        35.5004         16.2504
 -46166260.80947 -35864329.64846  20484031.3444                   20484030.3244
        47.2504         37.2504
 -17697292.46945 -13727596.47344  24731490.7734                   24731493.6254
        35.7504         24.5004
 -15611966.13747 -12108017.48446  22227256.7424                   22227255.2584
        47.5004         41.5004
 25  8  8  2 15 30.0000000  0 10G16G27G30G09G08G03G21G04G26G07
 -23264239.94547 -16975873.49245  21434561.0784                   21434559.0704
        46.2504         32.2504
   1240258.16446   1039427.57445  23393090.4614                   23393093.3134
        41.0004         34.5004
   7868045.84046   6197159.40645  24415121.5784                   24415126.9734
        38.5004         31.5004
 -31258543.70348 -24325841.76248  20334165.9614                   20334165.7854
        50.0004         50.5004
   9666877.72746   7580608.69945  23638687.7814                   23638692.6954
        37.5004         31.2504
 -34372313.12546 -26750776.68046  23177025.2584                   23177029.2854
        40.0004         36.0004
  16171831.29346  12671573.58242  25067348.5704                   25067350.2464
        36.5004         17.2504
 -46204153.96947 -35893856.78146  20476820.6484                   20476819.5274
        47.5004         37.0004
 -17651571.02346 -13691969.44544  24740191.2584                   24740194.6134
        37.0004         24.7504
 -15715678.71947 -12188832.44946  22207520.7584                   22207519.3674
        47.2504         41.2504
