     2.11           OBSERVATION DATA    G (GPS)             RINEX VERSION / TYPE
teqc  2019Feb25                         20250728 19:30:25UTCPGM / RUN BY / DATE
Linux 2.6.32-573.12.1.x86_64|x86_64|gcc -static|Linux 64|=+ COMMENT
BIT 2 OF LLI FLAGS DATA COLLECTED UNDER A/S CONDITION       COMMENT
04223330                                                    MARKER NAME
0422                                                        MARKER NUMBER
-Unknown-           -Unknown-                               OBSERVER / AGENCY
0220340422          TRIMBLE 5700        2.32                REC # / TYPE / VERS
-Unknown-           TRM41249.00     NONE                    ANT # / TYPE
 -2417431.9083 -4622711.4476  3658938.9123                  APPROX POSITION XYZ
        0.0000        0.0000        0.0000                  ANTENNA: DELTA H/E/N
     1     1                                                WAVELENGTH FACT L1/2
     7    L1    L2    C1    P1    P2    S1    S2            # / TYPES OF OBSERV
    18                                                      LEAP SECONDS
 SNR is mapped to RINEX snr flag value [0-9]                COMMENT
  L1 & L2: min(max(int(snr_dBHz/6), 0), 9)                  COMMENT
  2025     7    15     0     0   30.0000000     GPS         TIME OF FIRST OBS
                                                            END OF HEADER
 25  7 15  0  0 30.0000000  0 10G02G10G25G01G04G28G31G32G03G26
  -6143109.21157  -4758149.80155  21808124.7114                   21808122.2664
        47.0004         35.5004
  12024981.64156   9363580.35255  24082611.5004                   24082616.5664
        39.7504         33.5004
  -3646040.01655  -2725832.85254  24377299.2974                   24377303.0044
        35.7504         27.0004
 -21227127.65657 -16515327.57455  21020718.1564                   21020717.4654
        46.0004         35.2504
 -10702310.09456  -8280008.33653  23274908.9924                   23274911.5514
        40.0004         22.5004
  -8961860.16857  -6946077.69155  21245680.6644                   21245679.6884
        46.7504         35.5004
 -24329377.77058 -18920872.22358  20081640.1884                   20081638.2194
        49.0004         48.2504
  12584974.02757   9798772.00856  23416133.0394                   23416134.7774
        43.0004         37.2504
 -18491585.52057 -14389601.73056  21670060.6644                   21670062.5474
        45.2504         41.5004
  -9509569.41056  -7259480.13355  23549163.9924                   23549169.2194
        39.0004         30.0004
 25  7 15  0  1  0.0000000  0 10G02G10G25G01G04G28G31G32G03G26
  -6102995.56247  -4726892.45745  21815758.1884                   21815755.5044
        47.2504         35.2504
  12097655.66046   9420209.32045  24096442.0084                   24096445.9494
        40.5004         32.5004
  -3632944.86345  -2715628.89544  24379790.9614                   24379795.9264
        35.0004         27.2504
 -21244960.87147 -16529223.59445  21017324.8834                   21017324.3524
        46.5004         35.7504
 -10784156.50446  -8343784.61343  23259334.1954                   23259337.1524
        38.5004         22.5004
  -8922773.58247  -6915620.63346  21253118.1564                   21253117.4384
        45.2504         36.0004
 -24354600.99248 -18940526.67248  20076840.2194                   20076838.2384
        49.2504         48.2504
  12641724.32047   9842992.94146  23426932.0234                   23426934.6914
        43.5004         36.7504
 -18582276.46147 -14460269.95746  21652802.6884                   21652804.5944
        46.0004         41.5004
  -9610556.50046  -7338171.25845  23529946.9614                   23529952.2974
        39.0004         30.2504
 25  7 15  0  1 30.0000000  0 10G02G10G25G01G04G28G31G32G03G26
  -6062481.24247  -4695322.89545  21823467.8984                   21823465.4574
        47.0004         35.0004
  12170537.79746   9477000.44945  24110311.0554                   24110315.3754
        41.5004         34.0004
  -3619318.60546  -2705011.08644  24382384.5704                   24382388.6994
        36.2504         28.2504
 -21262213.55147 -16542667.25446  21014041.7034                   21014041.1564
        46.0004         36.0004
 -10865875.62146  -8407461.76243  23243782.4614                   23243785.6294
        36.7504         22.5004
  -8883229.19147  -6884806.83645  21260643.2114                   21260642.5744
        47.0004         35.5004
 -24379209.27348 -18959701.94548  20072157.2274                   20072155.3634
        49.0004         48.2504
  12698485.96947   9887222.76246  23437733.6644                   23437735.3914
        43.7504         37.5004
 -18672814.82447 -14530819.28547  21635573.5864                   21635575.8444
        46.7504         42.0004
  -9711441.68746  -7416782.98045  23510750.5864                   23510753.6134
        40.0004         30.7504
 25  7 15  0  2  0.0000000  0 10G02G10G25G01G04G28G31G32G03G26
  -6021572.49247  -4663445.99245  21831252.8524                   21831249.8914
        46.5004         35.0004
  12243623.44146   9533950.17245  24124219.0864                   24124222.9224
        41.0004         33.7504
  -3605165.38745  -2693982.63744  24385076.4844                   24385081.8204
        35.5004         26.5004
 -21278889.34847 -16555661.38745  21010868.7734                   21010867.7544
        46.5004         35.2504
 -10947471.24246  -8471042.63743  23228256.6024                   23228258.5704
        38.0004         22.7504
  -8843232.93447  -6853640.93745  21268254.2274                   21268253.2034
        47.0004         35.2504
 -24403206.72748 -18978401.25448  20067590.6954                   20067588.8284
        49.2504         48.2504
  12755255.00047   9931458.29746  23448536.8914                   23448538.6524
        44.5004         38.5004
 -18763202.48447 -14601251.20747  21618373.4774                   21618375.3714
        45.7504         42.0004
  -9812225.68046  -7495315.84845  23491570.6024                   23491575.1524
        39.5004         31.5004
 25  7 15  0  2 30.0000000  0 10G02G10G25G01G04G28G31G32G03G26
  -5980271.16847  -4631263.19145  21839111.9774                   21839109.3594
        47.2504         34.7504
  12316911.43046   9591057.57045  24138164.3754                   24138169.8054
        39.5004         33.7504
  -3590486.02345  -2682544.20344  24387870.9304                   24387874.4534
        35.0004         26.5004
 -21294988.55547 -16568206.22745  21007804.6254                   21007804.2734
        46.0004         34.7504
 -11028943.91846  -8534527.70343  23212752.7584                   23212754.8244
        37.7504         22.5004
  -8802787.39147  -6822124.93045  21275950.3984                   21275950.0664
        47.0004         35.5004
 -24426593.26248 -18996624.51648  20063140.7664                   20063138.7234
        49.0004         48.5004
  12812030.57847   9975698.96146  23459340.3134                   23459343.1844
        43.5004         38.5004
 -18853437.81647 -14671564.41846  21601202.1414                   21601203.7274
        44.7504         41.5004
  -9912905.57846  -7573767.62145  23472411.8984                   23472416.4024
        40.0004         32.0004
 25  7 15  0  3  0.0000000  0 10G02G10G25G01G04G28G31G32G03G26
  -5938578.49247  -4598775.43745  21847046.1884                   21847043.5004
        45.7504         34.2504
  12390402.17246   9648322.92245  24152149.8444                   24152154.6564
        38.7504         31.7504
  -3575279.90646  -2670695.29744  24390764.2194                   24390768.2704
        36.5004         28.0004
 -21310509.92647 -16580300.80945  21004851.2114                   21004850.2234
        46.2504         35.2504
 -11110292.46546  -8597916.05944  23197271.9774                   23197274.6524
        38.5004         25.0004
  -8761893.59447  -6790259.65245  21283732.6484                   21283731.8484
        46.5004         35.0004
 -24449368.28548 -19014371.28148  20058806.4144                   20058804.5704
        49.5004         48.5004
  12868813.39547  10019945.26246  23470145.7584                   23470148.7624
        44.5004         37.5004
 -18943517.78947 -14741756.57047  21584060.4384                   21584062.2034
        45.5004         42.0004
 -10013477.12946  -7652134.96145  23453274.0164                   23453278.4804
        40.5004         31.7504
 25  7 15  0  3 30.0000000  0 10G02G10G25G01G04G28G31G32G03G26
  -5896495.41847  -4565983.46945  21855054.2664                   21855051.7584
        45.5004         35.2504
  12464095.60946   9705746.21145  24166173.7734                   24166178.1254
        39.0004         32.2504
  -3559546.66046  -2658435.68744  24393758.8364                   24393762.6604
        37.0004         26.5004
 -21325452.63347 -16591944.48045  21002007.9454                   21002007.1764
        47.5004         35.5004
 -11191516.25046  -8661207.18444  23181815.8524                   23181818.4024
        39.2504         24.0004
  -8720552.94547  -6758046.16845  21291599.5314                   21291598.1454
        46.0004         35.2504
 -24471530.92248 -19031640.85948  20054589.0944                   20054587.2384
        49.0004         48.2504
  12925604.02047  10064197.64146  23480952.8054                   23480954.9534
        44.5004         38.0004
 -19033439.60247 -14811825.46947  21566949.0164                   21566950.9494
        46.0004         42.0004
 -10113936.30946  -7730414.71545  23434157.1254                   23434161.8444
        40.5004         33.0004
 25  7 15  0  4  0.0000000  0 10G02G10G25G01G04G28G31G32G03G26
  -5854020.50847  -4532886.18445  21863136.8054                   21863134.4064
        45.5004         35.0004
  12537994.32846   9763329.46145  24180235.8834                   24180241.0084
        38.5004         32.5004
  -3543283.31646  -2645762.96944  24396853.3134                   24396857.0864
        37.5004         27.0004
 -21339813.23847 -16603134.57845  20999274.9694                   20999274.5434
        46.7504         35.2504
 -11272612.04746  -8724398.61344  23166383.5704                   23166386.1054
        40.5004         25.2504
  -8678764.29347  -6725483.60545  21299551.9844                   21299550.5394
        46.0004         35.0004
 -24493078.04748 -19048430.81248  20050488.9614                   20050486.8014
        48.2504         48.5004
  12982405.33247  10108458.34046  23491762.3284                   23491764.2854
        43.5004         37.5004
 -19123197.89547 -14881766.98047  21549868.5084                   21549870.2894
        45.7504         42.2504
 -10214276.58646  -7808601.84445  23415062.5314                   23415067.3444
        41.0004         33.5004
 25  7 15  0  4 30.0000000  0 10G02G10G25G01G04G28G31G32G03G26
  -5811160.15647  -4499488.56245  21871292.9144                   21871290.6564
        45.7504         34.7504
  12612093.43846   9821068.84844  24194335.9144                   24194341.1294
        37.0004         29.5004
  -3526493.48456  -2632679.75854  24400048.6174                   24400052.3094
        38.2504         27.0004
 -21353595.74647 -16613874.19945  20996652.3054                   20996651.7704
        46.7504         35.2504
 -11353583.89146  -8787493.43744  23150974.8984                   23150977.4184
        41.5004         25.5004
  -8636533.86347  -6692576.79345  21307588.0784                   21307586.5124
        46.0004         34.7504
 -24514013.57848 -19064744.20348  20046505.1414                   20046502.9774
        49.0004         48.5004
  13039213.06647  10152724.07046  23502571.9844                   23502573.9414
        43.7504         37.5004
 -19212794.64847 -14951582.59847  21532818.4454                   21532820.4494
        46.7504         42.5004
 -10314498.61746  -7886696.82845  23395991.0314                   23395995.4264
        40.5004         33.0004
 25  7 15  0  5  0.0000000  0 10G02G10G25G01G04G28G31G32G03G26
  -5767912.22347  -4465788.92245  21879522.7584                   21879520.4024
        45.7504         34.5004
  12686396.49246   9878967.16845  24208475.8594                   24208480.7114
        36.7504         30.2504
  -3509175.62556  -2619185.37154  24403344.1804                   24403348.2384
        38.7504         28.2504
 -21366795.98447 -16624160.10245  20994140.5634                   20994139.4924
        47.0004         35.5004
 -11434427.65646  -8850488.45743  23135591.2344                   23135593.3674
        40.5004         23.7504
  -8593859.64547  -6659324.15245  21315708.4064                   21315708.1914
        46.7504         35.2504
 -24534333.76648 -19080578.11348  20042638.1254                   20042636.3834
        48.0004         48.5004
  13096031.11347  10196997.77346  23513384.6564                   23513387.0864
        43.7504         37.0004
 -19302223.69547 -15021267.52747  21515801.1724                   21515802.4144
        46.7504         43.0004
 -10414595.11346  -7964693.97745  23376942.7894                   23376947.3914
        39.0004         32.7504
 25  7 15  0  5 30.0000000  0 10G02G10G25G01G04G28G31G32G03G26
  -5724281.85547  -4431791.27345  21887825.3444                   21887823.3444
        46.2504         35.0004
  12760899.48846   9937021.25045  24222653.6644                   24222659.0124
        36.5004         30.2504
  -3491332.19546  -2605281.39844  24406739.8754                   24406742.2234
        38.0004         25.2504
 -21379416.99647 -16633994.67645  20991738.6254                   20991738.4654
        47.0004         35.5004
 -11515146.46546  -8913386.12144  23120230.5784                   23120232.7344
        41.0004         25.2504
  -8550746.89847  -6625729.82445  21323912.7584                   21323911.6024
        47.2504         35.0004
 -24554041.79348 -19095935.00048  20038887.8284                   20038886.1804
        48.5004         48.2504
  13152856.06347  10241276.89546  23524198.0394                   23524201.0474
        42.7504         36.5004
 -19391486.08247 -15090822.60547  21498814.8444                   21498816.4104
        47.0004         42.7504
 -10514565.82846  -8042593.11345  23357919.1254                   23357923.4694
        39.5004         33.0004
 25  7 15  0  6  0.0000000  0 10G02G10G25G01G04G28G31G32G03G26
  -5680268.39147  -4397495.12545  21896201.1724                   21896198.7114
        46.2504         34.5004
  12835603.97346   9995232.35944  24236869.8204                   24236874.4534
        36.7504         29.5004
  -3472961.52046  -2590966.58644  24410234.9064                   24410239.5904
        37.5004         26.2504
 -21391456.59847 -16643376.18445  20989447.7344                   20989447.2034
        47.0004         35.5004
 -11595738.19946  -8976184.75044  23104894.8054                   23104897.0784
        40.2504         25.7504
  -8507195.60547  -6591793.75845  21332200.3364                   21332199.4414
        46.5004         35.2504
 -24573135.59048 -19110813.28547  20035254.3834                   20035252.4884
        48.0004         47.7504
  13209689.94947  10285562.98445  23535012.4844                   23535014.9774
        42.7504         35.2504
 -19480577.48047 -15160244.45747  21481861.3524                   21481863.2504
        46.7504         42.5004
 -10614405.26646  -8120389.96145  23338919.7584                   23338924.4804
        39.2504         32.5004
 25  7 15  0  6 30.0000000  0 10G02G10G25G01G04G28G31G32G03G26
  -5635874.29347  -4362902.37545  21904648.7274                   21904646.7304
        45.5004         34.5004
  12910508.99646  10053599.72344  24251123.3364                   24251128.1454
        36.5004         29.7504
  -3454064.29746  -2576241.53544  24413830.9304                   24413833.9384
        38.2504         26.7504
 -21402914.93448 -16652304.76645  20987266.9064                   20987266.6294
        48.0004         35.2504
 -11676202.91446  -9038884.45744  23089582.6804                   23089584.2234
        40.2504         25.0004
  -8463208.05947  -6557517.78145  21340570.5084                   21340570.2034
        45.5004         35.2504
 -24591615.52747 -19125213.22748  20031738.1024                   20031735.5744
        47.7504         48.5004
  13266532.31647  10329855.66845  23545829.6254                   23545832.0044
        43.0004         35.5004
 -19569495.96147 -15229531.55547  21464940.9144                   21464942.6804
        46.5004         43.5004
 -10714110.23446  -8198082.02745  23319946.8834                   23319951.3244
        39.5004         33.2504
 25  7 15  0  7  0.0000000  0 10G02G10G25G01G04G28G31G32G03G26
  -5591105.79747  -4328017.88745  21913167.9224                   21913165.8054
        46.5004         34.0004
  12985609.82046  10112119.67245  24265414.8984                   24265419.7774
        37.0004         30.5004
  -3434644.98846  -2561109.63344  24417526.1564                   24417529.9064
        36.5004         26.7504
 -21413795.91848 -16660783.46945  20985196.4454                   20985196.2894
        48.2504         35.5004
 -11756544.53546  -9101488.19543  23074293.5784                   23074296.0044
        41.2504         23.7504
  -8418790.32847  -6522906.57845  21349023.2664                   21349022.4694
        46.0004         34.5004
 -24609485.82047 -19139138.12548  20028337.2584                   20028335.3444
        47.5004         48.2504
  13323379.11747  10374151.81345  23556647.6254                   23556649.4694
        43.5004         35.5004
 -19658243.30147 -15298685.30147  21448052.5314                   21448053.9734
        45.5004         42.5004
 -10813681.30546  -8275669.77345  23300998.7344                   23301002.9924
        39.5004         32.5004
 25  7 15  0  7 30.0000000  0 10G02G10G25G01G04G28G31G32G03G26
  -5545964.78147  -4292843.11745  21921758.4694                   21921755.9614
        46.0004         34.2504
  13060905.48846  10170791.42244  24279743.4304                   24279748.0864
        37.7504         29.7504
  -3414704.34846  -2545571.53944  24421321.5314                   24421324.4574
        37.5004         26.2504
 -21424099.94148 -16668812.57845  20983235.6724                   20983235.3444
        48.0004         35.5004
 -11836763.43746  -9163996.31644  23059029.0004                   23059030.9414
        40.0004         24.2504
  -8373944.93747  -6487962.11345  21357556.7504                   21357556.1994
        46.5004         35.0004
 -24626746.78147 -19152588.22748  20025052.7504                   20025050.9614
        47.0004         48.2504
  13380229.75447  10418450.95745  23567466.3674                   23567468.6524
        43.5004         35.7504
 -19746817.69147 -15367704.27747  21431197.5394                   21431199.1174
        46.0004         42.5004
 -10913115.57046  -8353150.87945  23282076.8594                   23282081.6644
        40.0004         32.7504
 25  7 15  0  8  0.0000000  0 10G02G10G25G01G04G28G31G32G03G26
  -5500447.10947  -4257374.85245  21930419.7734                   21930417.6604
        46.0004         34.2504
  13136401.61346  10229619.41044  24294109.6564                   24294114.7034
        38.0004         29.7504
  -3394236.69556  -2529622.74254  24425216.2034                   24425220.0314
        37.0004         26.7504
 -21433820.57047 -16676387.11745  20981386.1334                   20981385.6724
        47.0004         35.5004
 -11916853.17646  -9226403.78143  23043787.8594                   23043789.8094
        41.0004         23.7504
  -8328667.60247  -6452681.10245  21366173.0084                   21366171.7034
        46.0004         34.7504
 -24643392.33648 -19165558.77348  20021885.2814                   20021883.5704
        48.7504         48.7504
  13437090.57847  10462758.02045  23578286.0234                   23578287.8834
        43.0004         34.5004
 -19835210.49247 -15436581.75847  21414376.7974                   21414378.3874
        46.7504         43.0004
 -11012403.21146  -8430517.75445  23263183.9304                   23263187.8874
        40.5004         34.5004
 25  7 15  0  8 30.0000000  0 10G02G10G25G01G04G28G31G32G03G26
  -5454558.44547  -4221617.49645  21939152.3444                   21939150.2274
        46.2504         33.5004
  13212093.80946  10288600.16045  24308513.8674                   24308518.6764
        38.0004         30.0004
  -3373246.13346  -2513266.48844  24429211.1024                   24429214.2344
        39.0004         26.0004
 -21442961.54347 -16683509.95345  20979646.7814                   20979645.9494
        47.2504         35.7504
 -11996817.29347  -9288713.39844  23028571.1174                   23028573.0164
        42.5004         26.2504
  -8282964.11747  -6417068.00845  21374870.3984                   21374868.8794
        46.2504         34.7504
 -24659426.37148 -19178052.81648  20018833.4924                   20018831.8834
        48.7504         48.5004
  13493957.70747  10507070.03145  23589107.6094                   23589109.1994
        43.2504         34.0004
 -19923423.18747 -15505318.88747  21397590.2274                   21397592.1294
        46.7504         43.0004
 -11111544.44946  -8507770.55945  23244317.4454                   23244321.7774
        40.5004         33.2504
 25  7 15  0  9  0.0000000  0 10G02G10G25G01G04G28G31G32G03G26
  -5408299.39847  -4185571.53545  21947954.8134                   21947953.0314
        46.2504         35.0004
  13287982.77046  10347734.21145  24322955.9224                   24322959.9534
        39.0004         31.0004
  -3351731.95746  -2496502.21544  24433304.2504                   24433309.5044
        36.7504         26.0004
 -21451521.57447 -16690180.12146  20978017.7974                   20978017.1414
        47.5004         36.5004
 -12076654.40247  -9350924.02044  23013378.9614                   23013380.4734
        42.0004         25.5004
  -8236835.27747  -6381123.47345  21383647.9774                   21383647.2584
        46.2504         35.0004
 -24674847.72748 -19190069.46148  20015899.2664                   20015897.4694
        49.5004         48.5004
  13550832.45347  10551387.96545  23599929.8754                   23599932.2854
        42.7504         33.5004
 -20011452.25847 -15573912.94547  21380838.9774                   21380840.5634
        47.0004         43.2504
 -11210534.57046  -8584905.61345  23225480.0554                   23225484.4384
        39.2504         33.0004
 25  7 15  0  9 30.0000000  0 10G02G10G25G01G04G28G31G32G03G26
  -5361669.18747  -4149236.36345  21956828.5474                   21956826.3554
        45.5004         34.0004
  13364070.48046  10407023.13745  24337434.9774                   24337439.3404
        38.7504         31.0004
  -3329691.97746  -2479328.24244  24437499.4454                   24437504.2664
        37.0004         24.7504
 -21459497.96948 -16696395.50045  20976500.0944                   20976499.2544
        48.5004         35.2504
 -12156361.70747  -9413033.49244  22998211.0704                   22998212.4694
        43.2504         26.0004
  -8190280.45347  -6344847.00045  21392507.4534                   21392506.7274
        46.2504         35.0004
 -24689654.03548 -19201606.84048  20013081.8594                   20013080.3874
        48.5004         48.5004
  13607717.41847  10595713.87945  23610755.3364                   23610756.9774
        43.5004         34.0004
 -20099292.66047 -15642359.98047  21364123.3524                   21364125.5394
        46.5004         43.0004
 -11309367.34046  -8661918.04745  23206672.9774                   23206677.1564
        40.0004         33.2504
 25  7 15  0 10  0.0000000  0 10G02G10G25G01G04G28G31G32G03G26
  -5314671.57847  -4112614.89145  21965771.9384                   21965769.5554
        46.7504         34.5004
  13440354.32446  10466464.91444  24351950.7274                   24351955.5124
        37.7504         29.0004
     12698.36456  -2466558.42654  24441792.0234                   24441795.3594
        38.2504         24.5004
 -21466892.70747 -16702157.64545  20975092.7664                   20975092.0474
        46.7504         34.7504
 -12235941.00047  -9475043.22344  22983067.5394                   22983069.1604
        43.0004         26.7504
  -8143303.64147  -6308241.70745  21401446.4454                   21401445.3874
        45.0004         34.0004
 -24703847.50448 -19212666.65648  20010380.8134                   20010378.6454
        49.0004         48.5004
  13664610.70747  10640046.28145  23621581.5634                   23621585.3054
        42.2504         33.2504
 -20186944.05547 -15710659.74647  21347444.0634                   21347445.5434
        47.0004         42.7504
 -11408041.30546  -8738806.72745  23187895.8594                   23187900.0434
        39.5004         34.0004
 25  7 15  0 10 30.0000000  0 10G02G10G25G01G04G28G31G32G03G26
  -5267309.17647  -4075709.17645  21974784.6094                   21974782.7664
        46.2504         34.2504
  13516833.07446  10526058.55944  24366503.3054                   24366509.4184
        37.0004         29.0004
     35783.98046  -2448569.62944  24446186.4694                   24446188.3634
        39.0004         24.0004
 -21473706.28947 -16707466.94545  20973796.3674                   20973795.5784
        46.5004         35.5004
 -12315392.59847  -9536953.45744  22967948.6564                   22967950.2544
        42.5004         24.7504
  -8095907.44947  -6271309.63745  21410465.9064                   21410464.6914
        45.5004         34.0004
 -24717428.75848 -19223249.44948  20007796.7424                   20007794.5044
        49.5004         48.7504
  13721511.77047  10684384.73045  23632410.5394                   23632411.7734
        42.0004         33.2504
 -20274404.57447 -15778810.77047  21330800.9844                   21330802.9144
        47.0004         43.5004
 -11506553.40246  -8815569.29345  23169149.0004                   23169153.4144
        38.5004         33.0004
 25  7 15  0 11  0.0000000  0 10G02G10G25G01G04G28G31G32G03G26
  -5219580.56247  -4038518.09845  21983867.2584                   21983865.0824
        47.0004         34.0004
  13593509.64846  10585806.33644  24381095.6254                   24381101.0634
        37.0004         28.5004
     59393.87956  -2430172.59453  24450677.8444                   24450681.2194
        38.0004         23.2504
 -21479935.37547 -16712320.78945  20972610.5234                   20972610.4024
        47.5004         35.2504
 -12394712.98047  -9598761.43744  22952853.6564                   22952855.8554
        42.0004         25.0004
  -8048090.45747  -6234049.66045  21419565.2194                   21419564.2894
        45.7504         34.7504
 -24730394.57048 -19233352.68448  20005328.9454                   20005327.2814
        49.5004         48.5004
  13778424.10546  10728731.92245  23643239.4144                   23643242.4694
        39.7504         33.2504
 -20361668.44947 -15846808.56247  21314194.8914                   21314196.4924
        47.7504         43.0004
 -11604896.73046  -8892200.34045  23150434.7584                   23150438.9414
        39.5004         32.0004
 25  7 15  0 11 30.0000000  0 10G02G10G25G01G04G28G31G32G03G26
  -5171489.02747  -4001044.22345  21993018.8444                   21993016.6524
        46.5004         34.5004
  13670382.05946  10645706.69144  24395724.2274                   24395729.5314
        36.7504         29.2504
     83528.09446  -2411366.72744  24455270.7974                   24455274.3244
        37.2504         24.7504
 -21485581.28148 -16716720.20745  20971536.2424                   20971535.6214
        48.2504         35.5004
 -12473903.18046  -9660467.98844  22937784.3594                   22937786.2304
        41.5004         25.5004
  -7999856.02747  -6196464.40645  21428744.1334                   21428743.3874
        46.0004         34.5004
 -24742746.51648 -19242977.57448  20002978.4924                   20002976.7114
        49.0004         48.0004
  13835346.35546  10773086.89545  23654071.5944                   23654075.1564
        41.0004         33.0004
 -20448734.53947 -15914652.25047  21297627.2034                   21297629.0124
        47.5004         43.5004
 -11703068.98846  -8968698.10245  23131752.9224                   23131757.6684
        38.5004         32.7504
 25  7 15  0 12  0.0000000  0 10G02G10G25G01G04G28G31G32G03G26
  -5123035.80147  -3963288.50845  22002239.2034                   22002236.8054
        46.7504         34.0004
  13747450.34446  10705759.67644  24410390.2814                   24410394.9534
        36.0004         28.5004
    108185.72746  -2392153.05944  24459962.9534                   24459967.2344
        37.2504         24.0004
 -21490643.48848 -16720664.79745  20970573.3364                   20970572.9224
        48.0004         35.2504
 -12552962.40646  -9722072.50444  22922739.6024                   22922741.1484
        41.2504         25.7504
  -7951205.60547  -6158555.00845  21438001.5864                   21438001.1954
        46.5004         35.2504
 -24754484.32448 -19252123.91048  20000745.1484                   20000743.0084
        49.7504         48.5004
  13892279.37546  10817450.18445  23664905.4454                   23664908.9454
        39.2504         32.2504
 -20535599.91447 -15982339.52747  21281097.0164                   21281098.6094
        47.2504         43.5004
 -11801066.01246  -9045059.31645  23113105.9304                   23113109.3634
        39.5004         33.2504
 25  7 15  0 12 30.0000000  0 10G02G10G25G01G04G28G31G32G03G26
  -5074224.80947  -3925254.02745  22011527.5164                   22011525.4304
        46.2504         33.0004
  13824711.80946  10765963.19544  24425091.8594                   24425098.1804
        36.0004         28.0004
    133364.10955  -2376306.57454  24464754.3524                   24464759.0354
        35.5004         24.7504
 -21495124.10248 -16724156.19145  20969720.5554                   20969720.2384
        48.0004         35.5004
 -12631892.51646  -9783576.37944  22907719.6644                   22907721.5314
        41.7504         26.0004
  -7902143.23047  -6120324.59445  21447338.1954                   21447337.5204
        45.5004         34.7504
 -24765610.19948 -19260793.41048  19998627.5634                   19998625.4574
        49.0004         48.5004
  13949221.10246  10861820.30145  23675741.8444                   23675744.3834
        40.2504         34.0004
 -20622264.09847 -16049870.03547  21264605.0634                   21264606.7504
        47.5004         43.7504
 -11898886.28146  -9121282.79345  23094489.9924                   23094493.7624
        38.5004         33.0004
 25  7 15  0 13  0.0000000  0 10G02G10G25G01G04G28G31G32G03G26
  -5025055.91847  -3886940.64845  22020883.9924                   22020881.9494
        45.5004         33.5004
  13902167.62545  10826318.15644  24439830.9844                   24439837.2384
        35.0004         26.2504
                                  24469645.5634                   24469648.9694
        38.0004         21.7504
 -21499021.43748 -16727193.09045  20968978.9144                   20968978.3914
        48.0004         35.5004
 -12710691.46546  -9844978.05544  22892724.7584                   22892726.7194
        41.0004         26.5004
  -7852669.14147  -6081773.38745  21456752.7814                   21456751.8754
        45.7504         35.0004
 -24776122.63348 -19268984.91048  19996627.1954                   19996625.5474
        49.5004         48.5004
  14006173.48046  10906198.70745  23686578.3444                   23686582.5124
        40.2504         34.0004
 -20708722.94547 -16117240.52747  21248152.5944                   21248154.6724
        47.7504         44.2504
 -11996524.40646  -9197364.35245  23075909.7664                   23075914.4344
        39.0004         32.5004
 25  7 15  0 13 30.0000000  0 10G02G10G25G01G04G28G31G32G03G26
  -4975534.39147  -3848352.49245  22030307.7114                   22030305.2934
        46.5004         33.5004
  13979814.24246  10886821.77744  24454607.9224                   24454613.4104
        36.0004         25.5004
    185283.39846  -2335850.08643  24474634.1884                   24474638.3444
        37.0004         22.2504
 -21502338.46148 -16729777.80145  20968347.8594                   20968347.0944
        48.0004         35.0004
 -12789361.90646  -9906279.58644  22877754.1334                   22877755.9844
        41.2504         25.5004
  -7802788.25847  -6042905.18045  21466244.4614                   21466243.6484
        46.0004         34.0004
 -24786025.02748 -19276701.05148  19994743.0084                   19994741.1644
        48.2504         48.5004
  14063133.72746  10950583.26245  23697418.6024                   23697420.6254
        41.2504         34.0004
 -20794976.83247 -16184451.32047  21231739.1804                   21231740.7384
        47.7504         43.5004
 -12093979.67246  -9273303.41445  23057365.3914                   23057369.2194
        39.7504         34.2504
 25  7 15  0 14  0.0000000  0 10G02G10G25G01G04G28G31G32G03G26
  -4925660.04347  -3809489.41445  22039798.5394                   22039796.4694
        45.0004         33.2504
  14057653.16046  10947475.28144  24469420.2814                   24469424.8244
        36.7504         27.2504
                                  24479724.0394                   24479726.8674
        35.5004         21.7504
 -21505073.23848 -16731908.80945  20967827.1484                   20967826.5984
        48.2504         35.5004
 -12867901.57446  -9967479.23444  22862808.6254                   22862810.2274
        40.2504         26.2504
  -7752500.53947  -6003719.96945  21475813.6804                   21475813.1254
        46.0004         34.0004
 -24795315.37148 -19283940.28148  19992974.8284                   19992973.2424
        48.7504         48.7504
  14120104.10546  10994975.66045  23708259.4924                   23708262.7584
        40.2504         35.5004
 -20881021.18747 -16251498.85247  21215365.9144                   21215366.9264
        47.2504         43.5004
 -12191246.39846  -9349095.57445  23038855.9774                   23038860.1524
        39.5004         32.5004
 25  7 15  0 14 30.0000000  0 10G02G10G25G01G04G28G31G32G03G26
  -4875437.34447  -3770354.88745  22049355.9534                   22049353.4804
        45.5004         33.7504
  14135681.00046  11008275.94544  24484268.8284                   24484272.7504
        37.7504         26.2504
    239277.75846  -2293776.60543  24484908.8594                   24484913.2114
        36.5004         21.0004
 -21507228.66848 -16733588.38346  20967417.1484                   20967416.6884
        48.5004         36.0004
 -12946312.96946 -10028578.90243  22847887.1254                   22847889.0474
        40.0004         23.7504
  -7701810.74647  -5964221.44945  21485460.5314                   21485460.0514
        46.2504         35.0004
 -24803996.71948 -19290704.96148  19991322.7664                   19991321.1454
        49.5004         48.2504
  14177081.94547  11039373.93446  23719102.4304                   23719105.0704
        42.0004         36.0004
 -20966856.30947 -16318383.33647  21199031.7734                   21199032.7274
        47.5004         43.0004
 -12288323.71946  -9424740.15645  23020382.2974                   23020386.4494
        40.2504         34.0004
 25  7 15  0 15  0.0000000  0 10G02G10G25G01G04G28G31G32G03G26
  -4824870.75847  -3730952.40245  22058978.3984                   22058976.0514
        45.5004         33.7504
  14213895.16846  11069221.78144  24499152.4534                   24499156.9924
        37.2504         27.0004
                                  24490192.7664                   24490199.4384
        33.2504         20.5004
 -21508806.87148 -16734818.16045  20967117.1174                   20967116.0394
        48.5004         35.5004
 -13024597.74646 -10089579.94944  22832989.6024                   22832991.8284
        39.7504         25.0004
  -7650722.85247  -5924412.71145  21495181.7344                   21495181.2504
        45.5004         34.0004
 -24812071.57048 -19296997.04348  19989786.3914                   19989784.5704
        48.7504         48.2504
  14234065.52747  11083776.66046  23729946.1094                   23729948.3324
        42.0004         36.7504
 -21052481.68048 -16385104.38347  21182737.5554                   21182738.9774
        48.0004         43.7504
 -12385209.97746  -9500235.85545  23001945.6954                   23001950.0864
        40.0004         35.2504
 25  7 15  0 15 30.0000000  0 10G02G10G25G01G04G28G31G32G03G26
  -4773959.52747  -3691281.36345  22068667.0394                   22068664.1994
        45.2504         32.5004
  14292296.89546  11130313.84844  24514072.0864                   24514077.3014
        38.5004         27.5004
    295333.11756  -2250096.90253  24495577.1724                   24495580.1524
        36.2504         20.0004
 -21509806.16848 -16735596.85245  20966926.6564                   20966925.9104
        48.0004         35.7504
 -13102753.82846 -10150480.69143  22818117.1954                   22818119.1454
        39.2504         22.7504
  -7599237.02347  -5884293.91045  21504979.2974                   21504978.4184
        45.2504         34.2504
 -24819538.33248 -19302815.29348  19988365.4774                   19988363.7504
        48.0004         48.0004
  14291056.90246  11128185.45746  23740791.5944                   23740793.6804
        41.5004         36.0004
 -21137892.88348 -16451658.54347  21166484.4454                   21166485.4384
        48.0004         43.5004
 -12481899.64146  -9575578.35945  22983546.6954                   22983550.8364
        40.7504         35.0004
 25  7 15  0 16  0.0000000  0 10G02G10G25G01G04G28G31G32G03G26
  -4722701.60947  -3651340.17645  22078420.6724                   22078418.3364
        44.2504         32.5004
  14370889.75846  11191554.84044  24529027.3364                   24529033.3634
        38.0004         27.0004
    324136.55945  -2227652.71143  24501056.4534                   24501061.2074
        35.2504         19.7504
 -21510222.64547 -16735921.39145  20966847.4144                   20966846.7424
        47.7504         35.7504
 -13180776.88346 -10211277.77344  22803269.8914                   22803271.6724
        39.2504         24.2504
  -7547351.19547  -5843863.42245  21514852.4304                   21514852.3714
        45.5004         34.0004
 -24826393.50048 -19308156.97348  19987060.9924                   19987059.2854
        49.0004         48.5004
  14348060.35547  11172603.68846  23751638.8594                   23751641.3484
        42.5004         37.0004
 -21223083.29748 -16518040.66047  21150272.9844                   21150274.4614
        48.0004         43.7504
 -12578385.03146  -9650761.67645  22965185.9144                   22965189.8164
        40.7504         33.7504
 25  7 15  0 16 30.0000000  0 10G02G10G25G01G04G28G31G32G03G26
  -3095683.18047  -2383533.65645  22388031.9384                   22388029.5664
        44.7504         32.5004
  16025088.34846  12480540.47344  24843811.6174                   24843817.7704
        38.7504         27.7504
   1928873.85556   -981310.31653  24806429.2274                   24806432.8834
        36.7504         21.2504
 -19934638.65648 -15508193.61345  21266671.3204                   21266670.4924
        48.2504         35.7504
 -11683246.09446  -9044370.56643  23088240.1334                   23088242.0944
        41.0004         23.7504
  -5919651.23847  -4575525.81645  21824593.8284                   21824593.1884
        46.0004         33.7504
 -23257219.26248 -18085423.79748  20285664.8914                   20285663.1254
        48.7504         48.5004
  15980492.04747  12444628.32046  24062280.0004                   24062282.7854
        42.7504         37.0004
 -19732629.63748 -15356648.15647  21433896.9774                   21433898.6994
        48.0004         44.7504
 -11099241.34846  -8498182.10545  23246657.4694                   23246661.2424
        40.5004         34.0004
 25  7 15  0 17  0.0000000  0 10G02G10G25G01G04G28G31G32G03G26
  -3043743.27747  -2343061.05545  22397915.4614                   22397913.6604
        45.0004         32.2504
  16104056.94546  12542074.22744  24858839.1724                   24858845.7034
        39.7504         28.7504
   1958709.01615                  24812105.555
        34.500
 -19933894.74648 -15507613.96945  21266812.8834                   21266812.3404
        48.7504         35.5004
 -11761006.73046  -9104963.19144  23073442.9774                   23073445.0234
        41.0004         26.0004
  -5866976.02747  -4534480.20745  21834617.5864                   21834616.6094
        45.7504         34.0004
 -23262856.79347 -18089816.67648  20284591.9534                   20284590.1994
        47.7504         48.0004
  16037515.76647  12489062.30946  24073131.5474                   24073134.1214
        42.0004         37.0004
 -19817375.38347 -15422683.77347  21417770.4304                   21417771.9184
        47.5004         44.7504
 -11195311.69146  -8573042.03545  23228376.1954                   23228379.7704
        41.5004         35.0004
 25  7 15  0 17 30.0000000  0 10G02G10G25G01G04G28G31G32G03G26
  -2991463.51647  -2302323.62545  22407864.0084                   22407862.1844
        44.0004         32.5004
  16183213.91446  12603754.76644  24873902.0784                   24873908.7034
        39.2504         27.2504
   1989058.91845   -938316.69553  24817881.6484                   24817885.5044
        35.0004         19.5004
 -19932569.56648 -15506581.37545  21267064.7424                   21267063.8484
        48.2504         35.0004
 -11838634.40246  -9165452.16844  23058670.9304                   23058672.6024
        41.5004         25.2504
  -5813907.73047  -4493128.32045  21844716.1334                   21844715.8164
        46.0004         34.5004
 -23267884.71948 -18093734.52748  20283635.4454                   20283633.2304
        48.0004         48.2504
  16094551.35247  12533505.58246  24083985.3054                   24083987.5664
        43.5004         37.2504
 -19901893.52347 -15488542.04347  21401687.2274                   21401688.4384
        47.0004         44.5004
 -11291167.64846  -8647734.89145  23210134.5314                   23210138.8054
        40.5004         33.7504
 25  7 15  0 18  0.0000000  0 10G02G10G25G01G04G28G31G32G03G26
  -2938846.74647  -2261323.60945  22417877.0164                   22417875.1054
        45.0004         32.2504
  16262557.73046  12665580.86344  24889001.0164                   24889007.9734
        38.5004         28.0004
   2019919.86315                  24823755.141
        35.000
 -19930664.27747 -15505096.74245  21267427.3594                   21267427.0004
        47.0004         35.0004
 -11916129.59447  -9225837.94944  23043924.3524                   23043925.7194
        42.0004         25.7504
  -5760449.21147  -4451472.35945  21854888.8204                   21854888.0784
        45.5004         34.0004
 -23272304.25048 -18097178.30948  20282794.3204                   20282792.5704
        48.7504         48.5004
  16151598.22347  12577957.63346  24094840.8674                   24094843.6134
        43.0004         37.2504
 -19986182.35247 -15554221.61347  21385647.3984                   21385648.9694
        46.5004         44.2504
 -11386806.35546  -8722258.48045  23191935.3134                   23191939.4804
        40.2504         34.0004
 25  7 15  0 18 30.0000000  0 10G02G10G25G01G04G28G31G32G03G26
  -2885895.70347  -2220063.11345  22427953.4144                   22427950.8674
        45.0004         33.0004
  16342086.95746  12727551.41444  24904134.8054                   24904141.3244
        37.7504         28.5004
   2051296.55145   -896608.54753  24829725.1484                   24829729.5784
        31.7504         18.2504
 -19928180.03147 -15503160.98445  21267900.2114                   21267899.4734
        47.7504         35.0004
 -11993492.91847  -9286120.96544  23029202.4384                   23029204.4694
        43.5004         26.0004
  -5706603.34447  -4409514.56245  21865136.0164                   21865134.7464
        46.0004         34.0004
 -23276116.76248 -18100149.10248  20282068.7114                   20282067.0514
        48.7504         48.0004
  16208655.80947  12622418.03145  24105699.2424                   24105700.9494
        43.7504         35.7504
 -20070240.11747 -15619721.14847  21369651.9694                   21369653.0984
        47.0004         44.7504
 -11482225.01646  -8796610.59845  23173777.8754                   23173781.4734
        40.0004         35.0004
 25  7 15  0 19  0.0000000  0 10G02G10G25G01G04G28G31G32G03G26
  -2832617.53947  -2178547.70345  22438091.4774                   22438089.6764
        45.0004         31.0004
  16421796.23446  12789662.27344  24919304.5004                   24919309.6054
        38.2504         28.7504
   2083180.15245   -871764.16842  24835792.8834                   24835797.7664
        34.0004         17.7504
 -19925121.81247 -15500777.97345  21268482.1884                   21268481.3834
        46.5004         35.5004
 -12070728.75447  -9346304.62544  23014505.0554                   23014506.4804
        43.0004         26.2504
  -5652376.86347  -4367260.18045  21875454.5314                   21875453.8554
        46.5004         34.2504
 -23279327.75847 -18102651.16448  20281457.7584                   20281456.0664
        47.5004         48.5004
  16265719.64147  12666883.30146  24116557.3754                   24116560.5004
        42.5004         36.2504
 -20154068.98847 -15685042.30147  21353699.8524                   21353701.1684
        46.7504         45.5004
 -11577424.64546  -8870792.03945  23155661.6254                   23155665.5234
        40.7504         35.0004
 25  7 15  0 19 30.0000000  0 10G02G10G25G01G04G28G31G32G03G26
  -2779016.47747  -2136780.68045  22448291.8204                   22448289.7544
        44.5004         31.5004
  16501682.46946  12851911.02044  24934506.3754                   24934512.2664
        38.7504         28.7504
   2115565.64555   -851053.23853  24841955.7344                   24841959.1254
        32.5004         19.7504
 -19921492.44947 -15497949.90245  21269173.0864                   21269172.1954
        47.7504         35.5004
 -12147839.32047  -9406390.69144  22999831.1254                   22999832.8134
        43.0004         27.0004
  -5597774.21947  -4324712.68045  21885845.4844                   21885844.2074
        45.2504         34.7504
 -23281939.91848 -18104686.61348  20280960.7974                   20280959.0594
        48.5004         48.5004
  16322787.53947  12711351.72346  24127417.9384                   24127420.1684
        42.2504         36.0004
 -20237668.74647 -15750184.93447  21337791.1024                   21337792.5824
        47.7504         45.5004
 -11672404.01246  -8944801.87545  23137587.6024                   23137591.6294
        40.7504         35.5004
 25  7 15  0 20  0.0000000  0 11G02G16G10G25G01G04G28G31G32G03G26
  -2725095.16847  -2094764.13345  22458552.6334                   22458550.7074
        45.5004         32.2504
   1424651.16855   1135956.05552  25318908.7584                   25318915.9454
        35.0004         14.7504
  16581744.39546  12914296.66444  24949741.0164                   24949747.8524
        36.5004         28.5004
   2148455.44145   -825424.75443  24848214.3594                   24848220.5314
        33.2504         21.5004
 -19917292.96147 -15494677.59445  21269972.2114                   21269971.6884
        47.0004         35.5004
 -12224824.96147  -9466379.41844  22985181.0704                   22985182.7584
        42.0004         26.7504
  -5542798.14847  -4281874.21545  21896306.7664                   21896306.3284
        45.5004         34.0004
 -23283954.68748 -18106256.56248  20280577.3444                   20280575.4494
        48.5004         48.2504
  16379859.10247  12755823.02045  24138277.5234                   24138280.7504
        42.2504         35.2504
 -20321037.50447 -15815147.57047  21321926.7894                   21321928.3954
        47.2504         45.7504
 -11767160.15246  -9018637.75445  23119556.4224                   23119559.4804
        41.0004         34.2504
 25  7 15  0 20 30.0000000  0 11G02G16G10G25G01G04G28G31G32G03G26
  -2670870.51247  -2052511.21145  22468871.0634                   22468869.3284
        44.5004         31.7504
   1313793.96545   1049574.23042  25297812.8134                   25297821.2704
        33.5004         15.5004
  16661966.34046  12976806.96544  24965008.1024                   24965013.5984
        37.0004         28.2504
   2181831.95345   -799417.17643  24854565.2664                   24854571.2194
        31.5004         19.0004
 -19912538.77047 -15490973.04345  21270876.4304                   21270876.0984
        47.5004         35.0004
 -12301700.40246  -9526282.24644  22970551.7504                   22970553.5474
        41.2504         25.2504
  -5487465.69947  -4238758.03945  21906836.2664                   21906835.4574
        45.5004         34.2504
 -23285387.50848 -18107373.04748  20280304.6804                   20280302.6644
        49.0004         48.0004
  16436919.67646  12800285.75445  24149135.5474                   24149138.5204
        39.7504         33.5004
 -20404187.60247 -15879939.82847  21306103.7424                   21306105.6024
        47.5004         45.5004
 -11861704.32446  -9092308.43746  23101564.4224                   23101569.0784
        41.0004         36.0004
 25  7 15  0 21  0.0000000  0 11G02G16G10G25G01G04G28G31G32G03G26
  -2616351.60547  -2010028.99245  22479246.0394                   22479244.0044
        46.7504         32.7504
   1202732.871 5                  25276677.352
        31.750
  16742340.67645  13039435.99244  24980300.9614                   24980308.7704
        32.2504         26.5004
   2215687.03145   -773036.63743  24861008.3524                   24861014.3014
        31.5004         18.5004
 -19907237.26247 -15486842.00045  21271885.2734                   21271884.6914
        47.2504         35.0004
 -12378472.30147  -9586104.43044  22955942.7344                   22955944.2344
        43.5004         25.2504
  -5431785.84447  -4195371.16045  21917431.8984                   21917430.6414
        46.5004         34.5004
 -23286246.01248 -18108042.00047  20280141.1414                   20280139.5124
        48.5004         47.7504
  16493962.62546  12844734.73445  24159990.5704                   24159993.4534
        40.5004         33.5004
 -20487123.48047 -15944565.14847  21290321.3914                   21290323.0824
        46.7504         45.2504
 -11956039.91846  -9165816.61345  23083613.2734                   23083616.9104
        41.5004         35.0004
 25  7 15  0 21 30.0000000  0 11G02G16G10G25G01G04G28G31G32G03G26
  -2561537.96947  -1967317.11745  22489677.0164                   22489674.9104
        46.2504         33.0004
   1091473.48445    926589.27752  25255505.9384                   25255514.1454
        32.0004         17.2504
  16822869.03555  13102185.06354  24995628.1414                   24995633.1684
        35.0004         27.0004
   2250022.48445   -746281.78543  24867541.5784                   24867547.2074
        32.2504         19.2504
 -19901386.43447 -15482282.92245  21272998.6954                   21272998.6684
        47.0004         35.0004
 -12455138.00847  -9645843.84444  22941353.8054                   22941355.3714
        42.0004         26.7504
  -5375758.24247  -4151713.30145  21928093.7114                   21928092.5164
        47.0004         34.5004
 -23286528.50048 -18108262.11748  20280087.6254                   20280085.8404
        49.2504         48.0004
  16550990.52746  12889171.98045  24170842.0944                   24170845.1844
        41.0004         31.5004
 -20569840.07047 -16009019.60947  21274581.1484                   21274582.3364
        47.5004         45.5004
 -12050160.78146  -9239157.47345  23065702.6954                   23065705.9344
        41.2504         34.7504
 25  7 15  0 22  0.0000000  0 11G02G16G10G25G01G04G28G31G32G03G26
  -2506424.53147  -1924371.65645  22500164.8204                   22500162.4104
        45.5004         32.5004
    980025.77045    839747.31342  25234297.5394                   25234306.3754
        33.5004         15.5004
  16903558.26255  13165059.44554  25010981.1644                   25010988.2734
        33.5004         27.0004
   2284844.54745   -719147.67243  24874168.5234                   24874173.6684
        32.5004         21.2504
 -19894979.49648 -15477290.51645  21274217.9774                   21274217.3674
        48.0004         35.2504
 -12531689.91047  -9705494.55944  22926786.7274                   22926787.5044
        42.2504         26.0004
  -5319377.64847  -4107780.41045  21938822.3134                   21938821.8094
        45.5004         34.5004
 -23286228.23848 -18108028.14148  20280144.9534                   20280142.6684
        49.0004         48.0004
  16608011.07046  12933603.50445  24181693.6334                   24181696.1334
        40.2504         32.0004
 -20652327.44147 -16073295.45347  21258883.5084                   21258885.3204
        47.2504         45.2504
 -12144056.01246  -9312322.48445  23047834.5164                   23047838.1334
        41.5004         35.0004
 25  7 15  0 22 30.0000000  0 11G02G16G10G25G01G04G28G31G32G03G26
  -2451013.37147  -1881194.17245  22510709.0474                   22510706.8484
        45.7504         33.0004
                                  25213054.289
        29.500
  16984407.20345  13228058.30944  25026366.7194                   25026373.0274
        30.2504         24.0004
   2320152.17644   -691635.22343  24880886.2664                   24880892.0084
        29.5004         20.0004
 -19888017.14548 -15471865.33246  21275542.9534                   21275542.6954
        48.0004         36.0004
 -12608128.02346  -9765056.62144  22912240.2814                   22912242.0634
        41.7504         25.7504
  -5262646.28947  -4063574.16445  21949618.0784                   21949617.2544
        46.2504         33.5004
 -23285346.07048 -18107340.74247  20280312.4454                   20280310.6684
        49.0004         47.7504
  16665024.30946  12978029.37945  24192541.7664                   24192544.6484
        39.7504         31.5004
 -20734583.19548 -16137390.81247  21243231.3204                   21243232.7774
        48.5004         45.7504
 -12237722.11346  -9385308.96545  23030011.1414                   23030014.3284
        41.7504         34.7504
 25  7 15  0 23  0.0000000  0 11G02G16G10G25G01G04G28G31G32G03G26
  -2395298.78547  -1837780.26645  22521311.2034                   22521308.9224
        45.5004         33.5004
    756585.66415                  25191777.625
        33.250
  17065423.07445  13291187.19944  25041784.5554                   25041790.5554
        33.0004         26.5004
   2355952.27755   -663739.06653  24887700.2114                   24887703.7704
        31.7504         19.7504
 -19880492.02048 -15466001.60245  21276975.5944                   21276974.5394
        48.0004         35.2504
 -12684444.03946  -9824523.55944  22897717.8754                   22897719.4694
        41.7504         26.5004
  -5205558.40647  -4019090.12545  21960481.7734                   21960480.7344
        45.2504         33.2504
 -23283875.04748 -18106194.48848  20280592.3834                   20280590.4924
        48.7504         48.0004
  16722038.48446  13022455.93445  24203393.2034                   24203394.9144
        41.2504         31.7504
 -20816596.82448 -16201297.50847  21227624.7814                   21227625.9144
        48.2504         45.5004
 -12331147.50446  -9458107.87145  23012232.5784                   23012236.5274
        41.5004         34.0004
 25  7 15  0 23 30.0000000  0 10G02G16G10G01G04G28G31G32G03G26
  -2339283.25847  -1794131.85945  22531970.6484                   22531968.6884
        46.0004         32.5004
                                  25170469.273
        32.000
  17146604.68845  13354445.33644  25057231.5084                   25057238.7274
        35.2504         28.0004
 -19872405.27048 -15459700.24645  21278514.0474                   21278513.5164
        48.5004         35.0004
 -12760638.36346  -9883895.67644  22883218.5944                   22883219.9694
        41.0004         25.5004
  -5148116.63347  -3974330.34045  21971412.6024                   21971411.8284
        46.5004         34.0004
 -23281816.28948 -18104590.25448  20280984.0554                   20280982.3164
        50.2504         48.0004
  16779053.28546  13066882.97745  24214240.9384                   24214244.9734
        40.7504         33.0004
 -20898366.27748 -16265013.93447  21212064.5084                   21212065.7344
        48.2504         45.7504
 -12424329.20746  -9530716.91846  22994500.3754                   22994504.6374
        41.5004         36.2504
 25  7 15  0 24  0.0000000  0 10G02G16G10G01G04G28G31G32G03G26
  -2282965.64847  -1750248.06645  22542687.4224                   22542685.7854
        46.5004         32.2504
    532461.41845    699690.37152  25149127.9924                   25149135.7424
        32.0004         14.7504
  17227954.57446  13417834.56345  25072712.5554                   25072719.7464
        36.2504         30.0004
 -19863754.14847 -15452959.13745  21280159.9534                   21280159.6294
        47.5004         35.5004
 -12836707.37147  -9943170.16444  22868743.2424                   22868744.3634
        42.2504         26.7504
  -5090319.69547  -3929293.80545  21982410.4144                   21982410.1134
        46.7504         33.5004
 -23279167.37148 -18102526.15248  20281487.9924                   20281486.0944
        49.5004         48.0004
  16836072.43446  13111313.40645  24225092.2814                   24225094.7704
        41.2504         33.2504
 -20979885.54747 -16328535.43447  21196551.4694                   21196553.3834
        47.2504         45.7504
 -12517260.16847  -9603130.58245  22976816.7734                   22976819.9144
        42.0004         35.7504
 25  7 15  0 24 30.0000000  0 10G02G16G10G01G04G28G31G32G03G26
  -2226332.13347  -1706118.11345  22553465.1334                   22553462.7074
        47.0004         33.2504
    420169.95345    612190.95742  25127759.5314                   25127767.8094
        32.5004         16.2504
  17309487.83246  13481366.65244  25088228.0554                   25088235.2544
        36.7504         27.5004
 -19854523.44548 -15445766.39845  21281916.7974                   21281916.4344
        48.2504         35.0004
 -12912635.01647 -10002334.47344  22854294.3524                   22854295.7034
        42.5004         26.2504
  -5032153.89847  -3883969.82845  21993479.1094                   21993478.9224
        46.2504         33.5004
 -23275913.06648 -18099990.33648  20282107.6024                   20282106.0704
        49.5004         48.0004
  16893111.94546  13155759.71545  24235946.7584                   24235948.8984
        40.5004         33.7504
 -21061136.30148 -16391847.67247  21181089.8834                   21181091.5984
        48.0004         46.0004
 -12609920.99646  -9675333.72745  22959183.3524                   22959187.0314
        41.5004         35.5004
 25  7 15  0 25  0.0000000  0 10G02G16G10G01G04G28G31G32G03G26
  -2169374.67247  -1661735.73445  22564303.5394                   22564301.3134
        46.5004         32.7504
    307744.87545    524587.32042  25106364.8204                   25106373.6804
        32.5004         15.5004
  17391212.95716                  25103780.359
        38.000
 -19844703.62148 -15438114.60945  21283785.3444                   21283784.8054
        48.0004         35.5004
 -12988410.82447 -10061380.46944  22839874.5394                   22839876.4264
        42.7504         25.0004
  -4973611.16447  -3838352.13745  22004619.7274                   22004619.0634
        46.0004         34.0004
 -23272043.94148 -18096975.42247  20282843.5704                   20282842.2274
        49.5004         47.7504
  16950182.38346  13200230.09845  24246806.5944                   24246810.0594
        40.0004         33.7504
 -21142105.66448 -16454940.65247  21165682.1954                   21165683.9694
        48.0004         46.5004
 -12702297.86747  -9747315.61745  22941605.0164                   22941608.3634
        42.2504         35.5004
 25  7 15  0 25 30.0000000  0 10G02G16G10G01G04G28G31G32G03G26
  -2112096.08247  -1617103.11745  22575203.1804                   22575201.5704
        46.5004         32.7504
    195188.64145    436881.57842  25084945.9064                   25084954.8674
        33.0004         14.7504
  17473130.45346  13608029.57454  25119368.8284                   25119375.2274
        37.2504         29.2504
 -19834296.12547 -15430004.89145  21285765.8754                   21285765.2774
        46.7504         35.2504
 -13064035.30947 -10120308.54744  22825483.6334                   22825485.2624
        42.5004         26.5004
  -4914694.31647  -3792442.93445  22015831.0394                   22015830.6374
        45.0004         33.5004
 -23267561.94148 -18093482.96548  20283696.6254                   20283694.5744
        49.2504         48.0004
  17007283.26247  13244724.23845  24257672.7034                   24257675.8594
        42.2504         34.5004
 -21222791.79748 -16517812.93747  21150327.8054                   21150329.3594
        48.5004         46.5004
 -12794387.92646  -9819074.02345  22924080.5004                   22924083.7974
        40.7504         35.0004
 25  7 15  0 26  0.0000000  0 10G02G16G10G01G04G28G31G32G03G26
  -2054505.76647  -1572227.61345  22586161.9064                   22586160.2034
        46.7504         33.0004
     82497.31645    349070.48442  25063500.9924                   25063509.9494
        33.2504         15.5004
  17555231.28546  13672003.94945  25134992.7194                   25134999.7734
        40.7504         30.5004
 -19823308.68447 -15421443.26645  21287856.4144                   21287856.3594
        47.0004         35.2504
 -13139515.25046 -10179124.01644  22811120.9614                   22811121.7584
        41.7504         25.5004
  -4855412.54747  -3746249.35945  22027112.2424                   22027111.4694
        45.5004         33.5004
 -23262474.78548 -18089518.94948  20284664.8914                   20284663.0704
        48.0004         48.0004
  17064407.87946  13289236.85945  24268543.4224                   24268546.2894
        40.0004         34.0004
 -21303199.15648 -16580468.00447  21135027.1414                   21135028.8164
        48.0004         46.7504
 -12886194.52346  -9890611.53945  22906609.9614                   22906613.6524
        41.2504         34.7504
 25  7 15  0 26 30.0000000  0 10G02G16G10G01G04G28G31G32G03G26
  -1996609.42247  -1527113.64845  22597179.5234                   22597177.5044
        46.2504         32.5004
    -30329.727 5                  25042031.578
        32.750
  17637511.09046  13736117.76245  25150650.5084                   25150657.7424
        40.0004         30.7504
 -19811745.71147 -15412433.17645  21290056.9384                   21290056.4304
        46.2504         34.7504
 -13214854.09846 -10237829.53944  22796783.8134                   22796784.8594
        41.5004         24.7504
  -4795771.62547  -3699775.94945  22038461.2664                   22038460.9024
        45.7504         33.5004
 -23256787.31648 -18085087.15248  20285747.4844                   20285745.3364
        49.0004         48.0004
  17121552.97747  13333765.44945  24279416.9924                   24279420.5704
        42.0004         33.5004
 -21383328.73447 -16642906.60547  21119778.9614                   21119780.4384
        47.0004         47.0004
 -12977717.80546  -9961928.29745  22889193.6174                   22889197.2814
        41.0004         35.5004
 25  7 15  0 27  0.0000000  0 10G02G16G10G01G04G28G31G32G03G26
  -1938410.82447  -1481764.15645  22608254.0164                   22608252.3834
        46.2504         31.5004
                                  25020534.453
        30.500
  17719967.51256  13800369.28554  25166340.9844                   25166347.9144
        38.5004         29.5004
 -19799609.63347 -15402976.50045  21292366.6094                   21292365.9924
        46.5004         34.5004
 -13290053.21547 -10296426.19144  22782474.2424                   22782474.5004
        42.2504         24.7504
  -4735775.28547  -3653025.56645  22049878.3054                   22049877.6484
        46.2504         34.2504
 -23250501.84848 -18080189.37147  20286943.1644                   20286941.4924
        48.7504         47.5004
  17178717.03546  13378308.78545  24290295.5084                   24290298.3054
        41.0004         32.7504
 -21463179.58647 -16705128.01647  21104584.0234                   21104585.2734
        46.5004         46.5004
 -13068955.80946 -10033022.74645  22871831.2114                   22871835.1524
        41.0004         35.5004
 25  7 15  0 27 30.0000000  0 10G02G16G10G01G04G28G31G32G03G26
  -1879918.14547  -1436185.51645  22619385.5394                   22619383.4884
        46.0004         32.5004
                                  24999011.211
        29.750
  17802593.71546  13864753.02745  25182064.2274                   25182072.1214
        39.2504         30.0004
 -19786907.18047 -15393078.50845  21294783.5474                   21294783.0234
        46.5004         34.7504
 -13365118.39846 -10354918.46144  22768189.1174                   22768190.1214
        41.2504         26.2504
  -4675431.73047  -3606004.65645  22061361.5394                   22061360.8874
        46.7504         33.5004
 -23243625.36348 -18074831.08248  20288251.7734                   20288249.8524
        48.7504         48.0004
  17235894.49646  13422862.60945  24301176.5084                   24301179.0084
        41.7504         33.5004
 -21542755.10248 -16767134.89547  21089441.1414                   21089442.5084
        48.0004         46.7504
 -13159910.95746 -10103896.80945  22854522.9694                   22854527.3134
        41.7504         35.7504
 25  7 15  0 28  0.0000000  0 10G02G16G10G01G04G28G31G32G03G26
  -1821135.97347  -1390381.28545  22630571.3054                   22630569.3524
        45.5004         32.0004
   -369625.37115                  24977463.570
        31.750
  17885386.53946  13929266.61344  25197819.5474                   25197827.5084
        39.7504         26.5004
 -19773641.55547 -15382741.68045  21297307.7664                   21297307.7274
        46.7504         34.7504
 -13440051.78147 -10413308.02044  22753930.2734                   22753930.8594
        42.5004         26.5004
  -4614745.37547  -3558716.61745  22072909.6724                   22072908.8834
        46.7504         33.2504
 -23236161.34448 -18069014.95747  20289671.9454                   20289670.4024
        48.2504         47.7504
  17293083.36347  13467425.27045  24312059.6484                   24312062.0124
        42.5004         34.2504
 -21622054.97347 -16828926.97347  21074350.4844                   21074351.9614
        47.2504         46.5004
 -13250581.91046 -10174549.43046  22837269.4224                   22837272.7194
        41.5004         36.0004
 25  7 15  0 28 30.0000000  0 10G02G16G10G01G04G28G31G32G03G26
  -1762067.11747  -1344353.68745  22641811.6954                   22641810.1564
        45.7504         31.7504
   -482994.844 5                  24955891.047
        33.500
  17968344.35246  13993908.83243  25213606.8054                   25213612.9574
        40.2504         22.5004
 -19759814.30947 -15371967.21545  21299939.1254                   21299938.6844
        46.2504         35.5004
 -13514853.75446 -10471595.20744  22739695.9534                   22739697.2974
        41.5004         27.0004
  -4553719.13347  -3511163.73845  22084522.6414                   22084521.5664
        46.2504         33.0004
 -23228111.24648 -18062742.15247  20291204.0634                   20291202.2464
        48.7504         47.7504
  17350283.20346  13511996.47345  24322944.6414                   24322946.8554
        41.0004         32.7504
 -21701077.33648 -16890502.82047  21059313.6414                   21059314.4574
        48.0004         47.0004
 -13340965.89847 -10244978.44946  22820070.1024                   22820073.2464
        42.0004         36.2504
 25  7 15  0 29  0.0000000  0  9G02G16G01G04G28G31G32G03G26
  -1702716.14847  -1298106.24245  22653105.3594                   22653103.7934
        44.7504         31.5004
   -596497.828 5                  24934291.063
        33.250
 -19745428.62947 -15360757.61345  21302676.5944                   21302676.0314
        47.5004         35.5004
 -13589526.53946 -10529781.71944  22725485.5474                   22725487.0124
        41.5004         26.5004
  -4492357.47347  -3463349.48445  22096199.1804                   22096198.3284
        46.2504         33.5004
 -23219478.66448 -18056015.45347  20292846.6334                   20292844.7464
        48.2504         47.5004
  17407491.94146  13556574.64145  24333829.7504                   24333833.9024
        39.7504         31.7504
 -21779821.88747 -16951862.19147  21044329.0784                   21044330.0314
        47.0004         47.0004
 -13431061.63746 -10315182.85246  22802925.1484                   22802928.6844
        41.2504         36.0004
 25  7 15  0 29 30.0000000  0  9G02G16G01G04G28G31G32G03G26
  -1643083.55947  -1251639.37145  22664453.5864                   22664451.5164
        45.2504         31.0004
   -710129.32045    285665.12152  24912668.6484                   24912672.2114
        35.2504         17.2504
 -19730483.66847 -15349112.21145  21305521.1414                   21305520.2464
        47.0004         35.5004
 -13664068.11346 -10587865.98844  22711300.7894                   22711302.5124
        41.5004         28.0004
  -4430660.81647  -3415274.20745  22107939.3594                   22107939.5044
        46.0004         33.2504
 -23210263.07847 -18048834.48047  20294600.4064                   20294598.5554
        47.7504         47.5004
  17464711.73847  13601161.42245  24344719.2424                   24344721.4414
        42.0004         32.0004
 -21858284.27047 -17013001.68447  21029397.8594                   21029399.0824
        47.0004         47.0004
 -13520863.84447 -10385158.52345  22785835.9144                   22785839.6914
        42.0004         35.7504
 25  7 15  0 30  0.0000000  0  9G02G16G01G04G28G31G32G03G26
  -1583151.73047  -1204939.32445  22675858.3204                   22675856.8014
        44.7504         31.0004
   -823866.57846    197039.16042  24891024.2734                   24891029.5514
        37.0004         17.2504
 -19714960.76247 -15337016.46945  21308474.6024                   21308474.3754
        46.5004         35.0004
 -13738458.66847 -10645832.59444  22697144.8134                   22697145.8094
        42.0004         27.5004
  -4368611.66447  -3366924.24645  22119747.4924                   22119747.1844
        46.0004         33.5004
 -23200445.60948 -18041184.50047  20296468.5004                   20296466.4884
        48.0004         47.2504
  17521962.52046  13645772.33245  24355613.7114                   24355616.4844
        40.7504         31.5004
 -21936442.29747 -17073904.01647  21014524.7424                   21014526.3914
        46.5004         46.5004
 -13610349.35546 -10454887.44545  22768806.9304                   22768810.8914
        41.5004         35.7504
 25  7 15  0 30 30.0000000  0  9G02G16G01G04G28G31G32G03G26
  -1522917.54347  -1158003.66445  22687320.4064                   22687319.0124
        44.2504         31.2504
   -937700.78145    108337.60242  24869361.4694                   24869368.2814
        34.2504         14.7504
 -19698855.14147 -15324466.64545  21311539.6024                   21311539.0904
        47.5004         34.7504
 -13812692.32847 -10703676.92244  22683018.4384                   22683020.0434
        43.5004         26.7504
  -4306206.53147  -3318296.89145  22131622.5164                   22131621.9964
        46.0004         32.5004
 -23190021.85548 -18033062.10547  20298452.0234                   20298450.2704
        48.7504         47.5004
  17579250.28946  13690412.09845  24366514.7894                   24366517.5124
        38.7504         30.5004
 -22014287.63747 -17134562.68747  20999711.1954                   20999712.5784
        47.0004         46.2504
 -13699508.90647 -10524362.35545  22751840.9844                   22751844.3204
        42.0004         35.7504
 25  7 15  0 31  0.0000000  0  9G02G16G01G04G28G31G32G03G26
  -1462384.49247  -1110835.12145  22698839.4774                   22698837.8284
        43.2504         31.7504
  -1051630.50046     19561.62542  24847681.6804                   24847687.7664
        37.5004         17.2504
 -19682169.23047 -15311464.65645  21314714.7114                   21314714.1994
        46.5004         35.0004
 -13886770.16847 -10761399.85944  22668921.8674                   22668922.8324
        42.5004         27.7504
  -4243448.94547  -3269394.90645  22143565.1954                   22143564.4884
        44.2504         33.2504
 -23178994.34048 -18024469.23847  20300550.5004                   20300548.6564
        48.7504         47.5004
  17636574.02746  13735079.84845  24377423.5704                   24377426.7114
        40.7504         30.5004
 -22091819.05547 -17194976.77047  20984957.7504                   20984958.6954
        47.7504         46.2504
 -13788340.30147 -10593581.56246  22734936.9064                   22734940.4774
        42.7504         36.5004
 25  7 15  0 31 30.0000000  0  9G02G16G01G04G28G31G32G03G26
  -1401556.11747  -1063436.46145  22710414.9774                   22710412.8834
        45.7504         31.2504
  -1165653.46946    -69286.96943  24825983.2194                   24825989.4844
        38.0004         18.5004
 -19664905.28547 -15298012.25445  21317999.7034                   21317999.7384
        47.2504         35.0004
 -13960693.35546 -10819002.27344  22654854.7504                   22654855.8484
        41.5004         27.5004
  -4180342.41847  -3220221.02045  22155573.9844                   22155573.2544
        46.0004         33.0004
 -23167365.48848 -18015407.79347  20302763.6024                   20302761.2384
        48.2504         47.5004
  17693932.73846  13779774.87544  24388338.7034                   24388341.4104
        41.5004         29.7504
 -22169035.23447 -17255145.19547  20970263.5704                   20970264.8554
        47.0004         46.7504
 -13876841.38746 -10662543.36346  22718095.2584                   22718098.9144
        41.5004         36.2504
 25  7 15  0 32  0.0000000  0  9G02G16G01G04G28G31G32G03G26
  -1340440.69547  -1015814.12145  22722045.4224                   22722043.0314
        45.2504         30.5004
  -1279772.79746   -158210.68042  24804266.4924                   24804271.5704
        36.7504         17.2504
 -19647070.45347 -15284115.01245  21321394.0634                   21321393.4884
        47.0004         35.0004
 -14034467.75046 -10876488.75444  22640816.0004                   22640816.7304
        41.7504         26.7504
  -4116895.15647  -3170781.62545  22167647.3284                   22167647.1294
        45.5004         32.5004
 -23155142.62948 -18005883.48047  20305089.4774                   20305087.2034
        48.5004         47.2504
  17751320.68846  13824492.67645  24399258.9614                   24399262.7854
        39.7504         31.5004
 -22245939.69947 -17315070.72747  20955629.4454                   20955630.7584
        47.5004         47.0004
 -13965014.68447 -10731249.75446  22701316.7974                   22701320.0784
        43.0004         36.5004
 25  7 15  0 32 30.0000000  0  9G02G16G01G04G28G31G32G03G26
  -1279048.29747   -967975.94545  22733727.5704                   22733725.6024
        45.7504         30.5004
  -1393993.15245   -247213.13742  24782530.4454                   24782536.5234
        34.5004         16.2504
 -19628673.59047 -15269779.81245  21324894.8134                   21324894.4384
        46.5004         34.5004
 -14108100.93046 -10933865.18444  22626803.9614                   22626805.1644
        41.0004         27.5004
  -4053117.16847  -3121084.53545  22179784.1094                   22179783.6804
        44.7504         33.0004
 -23142334.64148 -17995903.23847  20307526.3674                   20307524.8754
        48.7504         47.2504
  17808730.39846  13869227.44145  24410183.6644                   24410186.7114
        40.0004         30.5004
 -22322537.56647 -17374757.35947  20941053.1804                   20941054.7344
        46.7504         47.5004
 -14052864.51247 -10799704.09446  22684600.3134                   22684602.6024
        43.0004         37.0004
 25  7 15  0 33  0.0000000  0  9G02G16G01G04G28G31G32G03G26
  -1217384.40247   -919926.22745  22745462.1024                   22745460.2664
        45.0004         30.0004
  -1508314.40246   -336294.12942  24760775.4774                   24760781.9454
        36.5004         15.5004
 -19609718.85947 -15255009.91845  21328501.6804                   21328501.1954
        47.2504         34.5004
 -14181595.87547 -10991133.92244  22612818.4064                   22612819.6724
        42.0004         29.0004
  -3989013.81247  -3071133.87945  22191981.8674                   22191982.0634
        45.0004         32.2504
 -23128946.02748 -17985470.55947  20310074.6644                   20310072.6414
        48.2504         47.5004
  17866159.03546  13913976.97745  24421112.1644                   24421115.1214
        40.7504         30.7504
 -22398829.44148 -17434205.54747  20926535.4844                   20926536.6334
        48.5004         47.5004
 -14140390.43047 -10867906.02746  22667944.3674                   22667947.2814
        43.2504         37.0004
 25  7 15  0 33 30.0000000  0  9G02G16G01G04G28G31G32G03G26
  -1155452.23047   -871667.46545  22757247.1094                   22757245.5084
        45.5004         30.5004
  -1622734.59046   -425452.33642  24739001.3754                   24739007.2074
        38.0004         17.7504
 -19590208.30547 -15239806.90645  21332214.3444                   21332213.9844
        46.7504         34.5004
 -14254953.19946 -11048295.39844  22598858.7034                   22598860.1994
        41.2504         28.7504
  -3924588.10247  -3020932.04745  22204242.5314                   22204241.5474
        45.7504         32.0004
 -23114978.76647 -17974586.97747  20312732.2504                   20312730.5704
        47.5004         47.2504
  17923606.14847  13958740.88345  24432044.1484                   24432046.8984
        42.7504         31.7504
 -22474813.53548 -17493413.91047  20912075.7814                   20912077.4064
        48.0004         47.7504
 -14227589.92647 -10935853.61346  22651350.2194                   22651353.3244
        42.7504         36.2504
 25  7 15  0 34  0.0000000  0  9G02G16G01G04G28G31G32G03G26
  -1093257.89547   -823204.41045  22769082.7194                   22769081.0234
        43.7504         30.2504
  -1737254.19546   -514687.94543  24717209.8444                   24717214.6724
        38.0004         18.2504
 -19570147.07847 -15224174.79745  21336032.0004                   21336031.5434
        46.2504         34.0004
 -14328176.71547 -11105352.64544  22584925.1954                   22584926.2894
        42.0004         29.0004
  -3859846.21947  -2970483.87145  22216562.3134                   22216561.9804
        43.2504         32.5004
 -23100438.28148 -17963256.73447  20315499.4144                   20315497.2854
        48.7504         47.2504
  17981068.03147  14003516.32445  24442978.6174                   24442982.4064
        42.0004         32.5004
 -22550491.29748 -17552383.56247  20897674.7894                   20897676.5084
        48.5004         47.5004
 -14314463.39547 -11003547.17246  22634818.3204                   22634822.2074
        42.5004         36.7504
 25  7 15  0 34 30.0000000  0  9G02G16G01G04G28G31G32G03G26
  -1030805.73447   -774540.46545  22780966.9844                   22780964.9304
        46.0004         31.0004
  -1851872.07446   -604000.10942  24695398.4534                   24695402.4774
        37.7504         17.2504
 -19549538.00047 -15208115.78945  21339953.5084                   21339953.1644
        46.7504         34.2504
 -14401267.93047 -11162306.77344  22571015.8834                   22571016.9064
        43.0004         27.5004
  -3794792.07047  -2919792.34045  22228942.2424                   22228941.1254
        45.7504         32.2504
 -23085327.62548 -17951482.19947  20318375.0554                   20318373.0274
        48.7504         47.5004
  18038543.37547  14048302.21945  24453916.6174                   24453919.1524
        42.5004         34.0004
 -22625861.76648 -17611113.77347  20883332.6094                   20883333.6374
        48.5004         47.5004
 -14401009.11347 -11070985.34446  22618349.5314                   22618353.1254
        42.5004         37.5004
 25  7 15  0 35  0.0000000  0  9G02G16G01G04G28G31G32G03G26
   -968094.67647   -725674.78145  22792900.2194                   22792899.1884
        45.0004         30.7504
  -1966581.20746   -693383.52342  24673568.7424                   24673574.7384
        36.2504         16.2504
 -19528379.16047 -15191628.41445  21343980.0234                   21343979.7544
        47.0004         34.0004
 -14474223.57847 -11219155.23844  22557133.0634                   22557134.0314
        43.7504         29.5004
  -3729424.80947  -2868856.85545  22241381.3834                   22241380.1214
        45.5004         31.0004
 -23069644.97748 -17939261.94147  20321359.1724                   20321357.5274
        48.0004         47.2504
  18096035.52747  14093101.22745  24464856.8674                   24464860.0784
        42.5004         33.5004
 -22700919.29347 -17669600.15247  20869049.5234                   20869050.8244
        47.2504         47.0004
 -14487220.52747 -11138162.99646  22601943.5004                   22601947.5664
        43.2504         37.0004
 25  7 15  0 35 30.0000000  0  9G02G16G01G04G28G31G32G03G26
   -905127.42247   -676609.46945  22804883.0554                   22804881.3714
        44.7504         30.5004
  -2081379.66046   -782836.42242  24651723.8674                   24651729.3954
        36.7504         16.7504
 -19506672.33647 -15174714.02745  21348110.8594                   21348110.3834
        47.0004         34.2504
 -14547043.93747 -11275898.32444  22543275.5084                   22543276.6024
        42.5004         27.2504
  -3663747.12147  -2817679.44545  22253878.8284                   22253878.6134
        45.2504         32.0004
 -23053392.07047 -17926597.36347  20324452.2034                   20324450.0434
        47.7504         47.2504
  18153544.44147  14137913.29345  24475799.6414                   24475804.4064
        42.0004         34.0004
 -22775661.79747 -17727841.03147  20854826.2274                   20854827.5084
        47.0004         47.0004
 -14573094.69947 -11205077.89546  22585602.9534                   22585605.8204
        43.5004         36.5004
 25  7 15  0 36  0.0000000  0  9G02G16G01G04G28G31G32G03G26
   -841905.76647   -627345.91045  22816913.5314                   22816911.9064
        44.5004         31.5004
  -2196263.23846   -872355.74242  24629862.1644                   24629867.8954
        37.2504         14.7504
 -19484417.84847 -15157372.87145  21352345.5944                   21352345.1254
        47.5004         34.2504
 -14619727.94946 -11332535.15244  22529444.0474                   22529445.1724
        41.7504         28.5004
  -3597760.26647  -2766261.14845  22266435.8594                   22266435.6844
        44.5004         32.5004
 -23036569.50048 -17913488.86347  20327653.2114                   20327651.3164
        48.0004         47.2504
  18211071.24247  14182739.30945  24486746.8914                   24486749.7344
        42.0004         34.5004
 -22850085.74647 -17785833.68747  20840663.8204                   20840665.1134
        47.5004         47.0004
 -14658627.19947 -11271726.53546  22569326.1954                   22569329.2664
        43.0004         36.0004
 25  7 15  0 36 30.0000000  0  9G02G16G01G04G28G31G32G03G26
   -778434.98047   -577888.24645  22828991.7274                   22828990.1954
        45.5004         31.0004
  -2311231.60945   -961941.07042  24607983.7974                   24607990.1134
        35.5004         17.2504
 -19461619.94547 -15139608.29745  21356683.8204                   21356683.8984
        46.5004         33.7504
 -14692278.41847 -11389067.93744  22515638.3524                   22515639.2504
        42.7504         28.7504
  -3531469.51647  -2714606.04345  22279050.5474                   22279050.3984
        45.7504         32.5004
 -23019181.61348 -17899939.86747  20330962.3204                   20330960.0664
        48.0004         47.5004
  18268613.36747  14227577.25045  24497697.4844                   24497700.2304
        42.5004         34.7504
 -22924191.59047 -17843578.48847  20826562.4384                   20826563.5394
        47.2504         47.2504
 -14743817.66847 -11338108.66446  22553114.9694                   22553118.3754
        43.0004         36.7504
 25  7 15  0 37  0.0000000  0  9G02G16G01G04G28G31G32G03G26
   -714716.06247   -528237.21945  22841117.0314                   22841115.1684
        44.7504         31.2504
  -2426280.43445  -1051589.12942  24586090.5554                   24586096.1414
        35.2504         16.2504
 -19438278.85947 -15121420.46145  21361125.5394                   21361125.2624
        47.5004         34.2504
 -14764694.11347 -11445495.66844  22501858.0864                   22501859.7544
        43.7504         29.7504
  -3464876.00447  -2662715.03545  22291723.2274                   22291722.0554
        45.5004         31.5004
 -23001228.87547 -17885950.71547  20334378.1644                   20334376.4024
        47.2504         47.2504
  18326172.23047  14272428.25845  24508650.4924                   24508653.3714
        42.5004         34.5004
 -22997975.61747 -17901072.51247  20812521.6024                   20812522.8284
        47.2504         47.0004
 -14828661.57447 -11404220.72746  22536969.8834                   22536972.9734
        43.2504         37.0004
 25  7 15  0 37 30.0000000  0  9G02G16G01G04G28G31G32G03G26
   -650752.14847   -478395.28145  22853288.8054                   22853287.1174
        45.7504         30.5004
  -2541407.22745  -1141297.94942  24564182.5314                   24564187.8834
        34.7504         15.5004
 -19414396.67648 -15102810.98445  21365670.2424                   21365670.4344
        48.0004         34.7504
 -14836975.60547 -11501818.87144  22488103.5164                   22488104.2464
        43.7504         29.2504
  -3397982.70747  -2610590.42645  22304452.5864                   22304451.8204
        45.2504         30.7504
 -22982713.37947 -17871523.05947  20337901.6174                   20337899.4924
        47.7504         47.5004
  18383747.34047  14317291.90645  24519606.1024                   24519610.0084
        42.2504         34.5004
 -23071436.08247 -17958314.41047  20798542.5474                   20798544.0434
        47.2504         47.7504
 -14913156.24247 -11470060.68446  22520890.2424                   22520893.8444
        42.0004         36.5004
 25  7 15  0 38  0.0000000  0  9G02G16G01G04G28G31G32G03G26
   -586547.02747   -428365.39145  22865506.7114                   22865505.6374
        45.0004         31.2504
  -2656610.15245  -1231066.06642  24542258.9614                   24542265.1214
        34.7504         14.7504
 -19389976.05147 -15083781.94545  21370317.3984                   21370316.9184
        47.0004         34.7504
 -14909124.00847 -11558038.35544  22474374.0704                   22474374.6954
        43.2504         28.7504
  -3330793.05947  -2558234.87945  22317238.6254                   22317237.9924
        45.5004         32.0004
 -22963637.96547 -17856659.09847  20341531.5234                   20341529.6454
        47.7504         47.0004
  18441337.80946  14362167.52045  24530565.0004                   24530568.7624
        40.5004         33.0004
 -23144571.62948 -18015303.11347  20784625.2734                   20784626.6214
        48.2504         47.7504
 -14997299.57847 -11535626.82046  22504879.1174                   22504881.5234
        42.7504         37.2504
 25  7 15  0 38 30.0000000  0  9G02G16G01G04G28G31G32G03G26
   -522101.16847   -378147.91045  22877770.8674                   22877769.1214
        43.5004         30.2504
  -2771883.78545  -1320889.36742  24520322.6254                   24520328.5864
        33.0004         15.5004
 -19365016.29747 -15064332.80945  21375067.2664                   21375067.0474
        47.5004         34.7504
 -14981137.14147 -11614152.41044  22460669.8984                   22460671.0864
        42.2504         27.5004
  -3263307.36347  -2505648.65645  22330080.3054                   22330080.1454
        44.7504         32.0004
 -22944001.94948 -17841358.30547  20345268.2734                   20345266.6954
        48.2504         47.2504
  18498945.97346  14407056.90645  24541527.9224                   24541530.9694
        41.2504         35.0004
 -23217377.72347 -18072035.11747  20770770.4064                   20770772.0394
        47.5004         47.2504
 -15081086.15647 -11600915.02346  22488934.2664                   22488938.2814
        42.0004         36.7504
 25  7 15  0 39  0.0000000  0  9G02G16G01G04G28G31G32G03G26
   -457422.14147   -327748.75845  22890078.1644                   22890077.2934
        43.2504         30.5004
  -2887230.27345  -1410769.31642  24498373.6174                   24498378.6254
        34.0004         17.2504
 -19339524.04747 -15044468.74645  21379918.1804                   21379917.7424
        47.5004         34.5004
 -15053019.97346 -11670164.95744  22446990.8674                   22446992.2274
        41.5004         27.0004
  -3195532.95347  -2452837.46945  22342977.2814                   22342976.8554
        43.7504         31.5004
 -22923812.32447 -17825626.14547  20349110.1644                   20349108.2774
        47.2504         47.0004
  18556567.04346  14451956.36345  24552493.2344                   24552496.5274
        40.5004         32.7504
 -23289856.91848 -18128512.39147  20756978.5314                   20756979.2074
        48.0004         47.2504
 -15164517.81247 -11665926.64146  22473058.5234                   22473061.4064
        42.7504         36.2504
 25  7 15  0 39 30.0000000  0  9G02G16G01G04G28G31G32G03G26
   -392507.99247   -277166.39145  22902431.5164                   22902430.1844
        42.5004         30.0004
  -3002641.93446  -1500700.14842  24476411.4534                   24476415.8094
        36.5004         17.2504
 -19313496.35947 -15024187.44545  21384871.3834                   21384870.7384
        47.2504         34.7504
 -15124768.05547 -11726072.48844  22433338.0864                   22433338.9184
        42.7504         28.7504
  -3127467.79747  -2399799.71145  22355930.2194                   22355929.2734
        44.7504         31.5004
 -22903066.09048 -17809460.24647  20353058.2734                   20353056.2234
        48.2504         47.2504
  18614205.63346  14496869.49645  24563462.0704                   24563464.5824
        40.5004         32.0004
 -23362002.32848 -18184729.57847  20743249.7504                   20743250.6764
        48.0004         47.7504
 -15247586.81247 -11730655.68446  22457250.9304                   22457253.4454
        42.7504         37.0004
 25  7 15  0 40  0.0000000  0  9G02G16G01G04G28G31G32G03G26
   -327363.14847   -226404.25844  22914828.0944                   22914826.7814
        43.2504         29.5004
  -3118117.77045  -1590680.93043  24454436.1884                   24454440.1094
        35.2504         19.0004
 -19286936.89547 -15003491.77745  21389925.2734                   21389925.1914
        47.5004         34.2504
 -15196383.45347 -11781876.64144  22419710.3914                   22419710.4104
        42.2504         27.5004
  -3059116.29747  -2346538.82845  22368936.4694                   22368936.2624
        44.2504         31.7504
 -22881766.97748 -17792863.54747  20357110.8914                   20357109.1454
        48.5004         47.0004
  18671859.98046  14541794.85945  24574432.6024                   24574435.9344
        39.0004         31.7504
 -23433813.66848 -18240686.44147  20729584.4304                   20729585.6334
        48.0004         47.7504
 -15330292.02347 -11795101.25046  22441511.9224                   22441515.3794
        42.7504         36.5004
 25  7 15  0 40 30.0000000  0  9G02G16G01G04G28G31G32G03G26
   -261986.06247   -175461.14544  22927269.2664                   22927268.1174
        44.0004         29.0004
  -3233650.37145  -1680706.02343  24432450.3834                   24432454.7234
        35.2504         18.2504
 -19259842.95747 -14982379.63745  21395080.7114                   21395080.7464
        47.0004         34.0004
 -15267861.77346 -11837573.97744  22406108.1564                   22406109.0204
        41.7504         29.0004
  -2990476.51247  -2293053.30945  22381998.2584                   22381997.9774
        45.7504         31.5004
 -22859912.39847 -17775834.00047  20361270.2424                   20361268.3634
        47.7504         47.0004
  18729534.54746  14586736.02345  24585408.4774                   24585411.6914
        39.7504         32.2504
 -23505284.10247 -18296377.66847  20715983.3914                   20715984.7704
        47.0004         47.5004
 -15412625.94947 -11859257.50846  22425844.3594                   22425848.0434
        42.2504         37.5004
 25  7 15  0 41  0.0000000  0  9G02G16G01G04G28G31G32G03G26
   -196382.41847   -124341.50045  22939752.9224                   22939751.6454
        44.0004         30.2504
  -3349239.68446  -1770775.28943  24410453.6644                   24410459.2074
        36.5004         18.5004
 -19232219.39147 -14960854.79745  21400338.0004                   21400337.1994
        47.7504         34.0004
 -15339206.21147 -11893166.98844  22392531.7584                   22392532.7504
        42.5004         29.2504
  -2921554.02347  -2239347.50045  22395113.6954                   22395113.3014
        44.5004         31.5004
 -22837507.16048 -17758375.37547  20365533.6724                   20365531.6644
        48.7504         47.0004
  18787226.39846  14631690.62545  24596386.3914                   24596390.4884
        38.5004         31.5004
 -23576414.46147 -18351803.89547  20702447.8444                   20702449.2664
        47.5004         47.7504
 -15494588.50447 -11923124.36346  22410247.5554                   22410251.3954
        42.0004         38.0004
 25  7 15  0 41 30.0000000  0  9G02G16G01G04G28G31G32G03G26
   -130558.26647    -73050.02344  22952278.7034                   22952277.2624
        43.7504         29.5004
  -3464886.18046  -1860889.13343  24388447.8834                   24388451.3094
        37.2504         20.0004
 -19204071.46547 -14938921.37145  21405693.7814                   21405693.5904
        47.2504         34.2504
 -15410420.40247 -11948658.51644  22378980.0864                   22378980.9654
        43.0004         27.2504
  -2852354.83647  -2185426.09845  22408281.5474                   22408281.8594
        45.2504         31.2504
 -22814556.91848 -17740492.09047  20369901.0004                   20369899.1524
        48.0004         47.0004
  18844932.04346  14676655.93045  24607367.5704                   24607371.0204
        39.0004         30.0004
 -23647206.02747 -18406966.14148  20688977.0704                   20688978.3364
        47.7504         48.2504
 -15576180.22347 -11986702.27046  22394721.0164                   22394724.6914
        42.5004         37.7504
 25  7 15  0 42  0.0000000  0  9G02G16G01G04G28G31G32G03G26
    -64511.50447    -21585.11344  22964847.3754                   22964845.9494
        43.0004         29.2504
  -3580582.04346  -1951041.46943  24366430.9304                   24366434.7734
        37.5004         19.5004
 -19175396.23047 -14916577.05545  21411150.8364                   21411150.3014
        47.2504         34.0004
 -15481499.62547 -12004044.85944  22365453.7504                   22365454.9694
        43.0004         28.0004
  -2782876.65647  -2131287.30145  22421503.2894                   22421502.8444
        45.0004         32.5004
 -22791058.83248 -17722181.89847  20374372.0554                   20374369.9264
        48.5004         46.7504
  18902656.42646  14721635.86745  24618352.5784                   24618355.7424
        36.5004         30.5004
 -23717651.62548 -18461858.78548  20675571.3444                   20675572.7194
        48.0004         48.0004
 -15657393.21947 -12049985.06246  22379266.7664                   22379270.0274
        42.5004         38.0004
 25  7 15  0 42 30.0000000  0  9G02G16G01G04G28G31G32G03G26
      1749.98447     30047.13344  22977456.4924                   22977455.2304
        43.2504         29.5004
  -3696329.60946  -2041234.06642  24344404.4614                   24344409.3874
        36.7504         17.7504
 -19146200.56247 -14893827.20745  21416706.4614                   21416706.0704
        47.5004         34.2504
 -15552449.06247 -12059330.09044  22351953.2504                   22351953.4384
        42.5004         27.5004
  -2713127.07047  -2076937.00845  22434776.7424                   22434776.1524
        45.0004         31.0004
 -22767019.79348 -17703450.18047  20378947.1024                   20378945.1844
        49.2504         47.0004
  18960394.46546  14766626.46545  24629338.7114                   24629343.1914
        37.0004         31.0004
 -23787754.08248 -18516484.06248  20662231.4774                   20662232.7664
        49.0004         48.0004
 -15738229.58647 -12112974.39146  22363884.3524                   22363887.5044
        44.0004         38.2504
 25  7 15  0 43  0.0000000  0  9G02G16G01G04G28G31G32G03G26
     68228.84047     81848.74644  22990107.0864                   22990105.5514
        44.2504         29.5004
  -3812120.29746  -2131460.28143  24322370.8364                   24322374.0944
        37.5004         19.0004
 -19116480.92647 -14870669.07445  21422361.7424                   21422361.7424
        47.7504         34.0004
 -15623263.39147 -12114510.03944  22338476.6954                   22338478.3484
        42.0004         27.2504
  -2643103.07447  -2022372.87945  22448101.5864                   22448100.6684
        44.5004         32.2504
 -22742436.01248 -17684293.99247  20383624.8054                   20383622.9104
        48.7504         47.2504
  19018151.83256  14811632.11754  24640330.7114                   24640334.2664
        36.0004         29.5004
 -23857505.68047 -18570835.92247  20648958.1024                   20648959.4534
        47.7504         47.7504
 -15818680.83247 -12175663.65246  22348574.7194                   22348578.3404
        43.5004         38.2504
 25  7 15  0 43 30.0000000  0  9G02G16G01G04G28G31G32G03G26
    134921.52347    133816.98444  23002798.1644                   23002797.0984
        43.5004         28.5004
  -3927952.14846  -2221718.57843  24300327.7114                   24300331.7234
        37.5004         19.7504
 -19086240.17648 -14847104.87945  21428116.7974                   21428116.4144
        48.0004         34.2504
 -15693943.74647 -12169585.58244  22325027.0004                   22325027.6214
        43.0004         27.7504
  -2572808.30147  -1967597.76245  22461478.0084                   22461477.4104
        45.2504         30.7504
 -22717310.80148 -17664715.90247  20388406.2034                   20388404.1334
        49.5004         47.2504
  19075927.46546  14856651.98845  24651324.8754                   24651328.2154
        38.0004         30.5004
 -23926905.15648 -18624913.43447  20635751.6644                   20635753.0354
        48.5004         47.5004
 -15898744.90647 -12238051.18446  22333339.0004                   22333342.4454
        43.5004         38.2504
 25  7 15  0 44  0.0000000  0  9G02G16G01G04G28G31G32G03G26
    201820.14847    185945.70744  23015528.9774                   23015526.9184
        43.7504         29.2504
  -4043826.85946  -2312010.29343  24278278.1884                   24278281.3484
        38.7504         19.7504
 -19055485.21147 -14823140.00845  21433968.9924                   21433968.8444
        47.7504         33.2504
 -15764495.20746 -12224560.69944  22311601.4774                   22311602.4494
        41.5004         27.0004
  -2502250.17247  -1912617.43045  22474904.4064                   22474904.4694
        45.0004         32.2504
 -22691651.17648 -17644721.39847  20393289.0864                   20393287.1134
        49.0004         47.0004
  19133716.57046  14901682.37544  24662320.8284                   24662325.1954
        37.7504         29.5004
 -23995955.25848 -18678718.68048  20622612.2734                   20622613.3984
        48.0004         48.5004
 -15978423.89547 -12300138.67246  22318176.6484                   22318179.9884
        44.5004         38.5004
 25  7 15  0 44 30.0000000  0  9G02G16G01G04G28G31G32G03G26
    268928.36347    238237.72344  23028298.7734                   23028297.5944
        43.5004         27.5004
  -4159735.73846  -2402328.64143  24256221.0704                   24256224.2384
        37.5004         19.5004
 -19024211.98847 -14798771.28545  21439920.6254                   21439920.2114
        47.7504         33.5004
 -15834911.91447 -12279430.81644  22298202.1414                   22298202.6134
        42.2504         27.0004
  -2431425.16447  -1857429.17245  22488382.6724                   22488382.0824
        45.7504         32.0004
 -22665453.04348 -17624307.27047  20398274.1024                   20398272.6604
        49.5004         47.0004
  19191525.19146  14946727.96944  24673322.0004                   24673325.4264
        36.7504         28.5004
 -24064647.71948 -18732245.25848  20609540.5004                   20609541.8164
        49.0004         48.2504
 -16057708.70347 -12361918.98046  22303089.3914                   22303092.8524
        44.2504         39.2504
 25  7 15  0 45  0.0000000  0  9G02G16G01G04G28G31G32G03G26
    336239.65647    290688.00844  23041107.5554                   23041106.7154
        43.5004         28.0004
  -4275678.75446  -2492673.61343  24234157.5004                   24234160.8634
        37.7504         20.0004
 -18992426.05147 -14774003.05545  21445968.8134                   21445968.5514
        46.7504         33.2504
 -15905197.62546 -12334198.85544  22284827.0474                   22284827.2854
        41.7504         27.0004
  -2360339.48847  -1802037.76645  22501910.0784                   22501909.5944
        45.2504         31.5004
 -22638722.18448 -17603478.03547  20403361.0394                   20403359.0394
        49.2504         47.0004
  19249349.77746  14991785.99244  24684327.3204                   24684330.6484
        40.0004         29.7504
 -24132983.91047 -18785494.22748  20596536.2814                   20596537.6454
        47.7504         48.5004
 -16136600.03147 -12423392.71546  22288076.2814                   22288080.2304
        44.0004         39.0004
 25  7 15  0 45 30.0000000  0  9G02G16G01G04G28G31G32G03G26
    403749.21547    343292.78544  23053954.9924                   23053953.2074
        44.0004         28.2504
  -4391655.20746  -2583044.60543  24212087.9224                   24212090.8054
        38.0004         19.5004
 -18960131.28147 -14748838.32845  21452114.4694                   21452114.2154
        47.2504         33.5004
 -15975354.26247 -12388866.34044  22271476.5394                   22271476.5554
        42.5004         27.7504
  -2288997.46547  -1746446.63345  22515485.0864                   22515485.1804
        44.7504         31.2504
 -22611462.22348 -17582236.51247  20408548.1804                   20408546.4924
        49.0004         47.0004
  19307188.59046  15036855.11344  24695333.1484                   24695336.1644
        41.0004         28.5004
 -24200963.44548 -18838465.27348  20583600.1724                   20583601.5164
        48.5004         48.5004
 -16215096.88747 -12484559.03946  22273139.2584                   22273142.6374
        44.2504         39.2504
 25  7 15  0 46  0.0000000  0  9G02G16G01G04G28G31G32G03G26
    471456.15247    396051.33244  23066838.9384                   23066838.3204
        44.0004         28.5004
  -4507659.94146  -2673437.66443  24190012.5234                   24190015.9494
        38.5004         18.2504
 -18927327.70747 -14723277.14145  21458357.1644                   21458356.6684
        46.5004         33.5004
 -16045380.08247 -12443431.88344  22258151.5164                   22258151.7704
        42.5004         27.2504
  -2217399.72347  -1690656.20745  22529110.5164                   22529110.0354
        45.2504         31.7504
 -22583673.22748 -17560582.75847  20413836.7814                   20413834.8594
        50.0004         47.2504
  19365043.56346  15081936.87944  24706341.8134                   24706346.1724
        40.0004         27.0004
 -24268582.17248 -18891155.18748  20570732.9304                   20570734.0744
        49.0004         48.5004
 -16293194.31647 -12545414.12146  22258277.9064                   22258281.1054
        44.2504         39.7504
 25  7 15  0 46 30.0000000  0  9G02G16G01G04G28G31G32G03G26
    539360.71147    448963.90244  23079760.8984                   23079759.5474
        43.5004         28.5004
  -4623687.16846  -2763848.22742  24167932.8914                   24167936.3404
        38.0004         17.2504
 -18894014.43447 -14697318.78145  21464696.0784                   21464696.2034
        46.7504         34.2504
 -16115272.22347 -12497893.23444  22244851.2344                   22244851.1374
        42.2504         28.7504
  -2145545.78147  -1634666.15245  22542783.5554                   22542783.5744
        44.7504         31.0004
 -22555354.49648 -17538516.21947  20419225.6954                   20419223.3794
        49.7504         47.0004
  19422917.81346  15127033.55944  24717355.0634                   24717360.0234
        41.2504         28.0004
 -24335834.90648 -18943559.89848  20557935.2974                   20557935.9844
        49.0004         48.2504
 -16370886.43047 -12605953.37146  22243493.1414                   22243496.1294
        44.5004         39.5004
 25  7 15  0 47  0.0000000  0  9G02G16G01G04G28G31G32G03G26
    607458.85947    502027.32444  23092719.3984                   23092718.5514
        45.0004         29.0004
  -4739735.02046  -2854274.91842  24145849.9454                   24145853.0514
        38.5004         16.7504
 -18860195.12547 -14670966.11745  21471132.1954                   21471131.7774
        47.5004         33.5004
 -16185032.43447 -12552251.79344  22231575.9774                   22231576.9384
        43.2504         28.7504
  -2073439.78547  -1578479.71945  22556504.9614                   22556504.7774
        45.0004         31.2504
 -22526509.80548 -17516039.84047  20424714.6414                   20424712.5314
        49.7504         47.0004
  19480809.83246  15172144.20744  24728371.6954                   24728374.9694
        40.2504         26.0004
 -24402720.99248 -18995678.91848  20545206.8984                   20545208.1994
        48.7504         48.0004
 -16448171.96147 -12666175.82846  22228786.3204                   22228789.4304
        44.7504         39.2504
 25  7 15  0 47 30.0000000  0  9G02G16G01G04G28G31G32G03G26
    675750.37947    555241.39844  23105715.8134                   23105713.4654
        44.2504         28.7504
  -4855798.07046  -2944713.45343  24123763.8524                   24123766.3204
        39.0004         19.2504
 -18825869.13347 -14644218.62945  21477663.8054                   21477663.5044
        47.0004         33.7504
 -16254658.09447 -12606505.50844  22218326.6484                   22218327.7074
        42.0004         28.7504
  -2001081.53147  -1522096.70345  22570274.2664                   22570274.2194
        44.5004         30.7504
 -22497138.41848 -17493153.05947  20430303.6174                   20430301.9654
        49.2504         47.0004
  19538722.32446  15217270.72744  24739391.7504                   24739396.9184
        40.5004         27.2504
 -24469235.54748 -19047508.44548  20532549.6644                   20532550.8834
        48.2504         48.5004
 -16525045.29747 -12726077.07446  22214157.7424                   22214160.9494
        44.0004         38.7504
 25  7 15  0 48  0.0000000  0  9G02G16G01G04G28G31G32G03G26
    744230.48047    608602.43844  23118746.9694                   23118745.5864
        44.2504         29.7504
  -4971874.87546  -3035162.70343  24101675.4614                   24101678.0164
        37.7504         18.5004
 -18791040.39547 -14617079.39545  21484291.2344                   21484291.5234
        47.5004         33.5004
 -16324151.24647 -12660655.96544  22205102.5474                   22205102.9964
        43.0004         28.0004
  -1928475.38747  -1465520.53545  22584090.6334                   22584090.3554
        44.5004         30.5004
 -22467244.52048 -17469859.12147  20435992.3984                   20435990.5234
        49.2504         46.5004
  19596653.58646  15262411.89844  24750415.8204                   24750419.0234
        39.7504         25.7504
 -24535378.14848 -19099048.12548  20519963.5004                   20519964.6054
        49.0004         48.7504
 -16601505.38747 -12785656.28546  22199608.3284                   22199611.0824
        44.5004         39.5004
 25  7 15  0 48 30.0000000  0  9G02G16G01G04G28G31G32G03G26
    812899.97347    662111.06344  23131814.3284                   23131812.8594
        45.0004         29.0004
  -5087958.94146  -3125617.64142  24079584.7894                   24079587.6334
        36.5004         17.2504
 -18755707.49247 -14589547.29745  21491015.3134                   21491015.1644
        46.5004         33.5004
 -16393508.47747 -12714700.49644  22191904.2344                   22191904.7344
        42.2504         28.7504
  -1855620.35947  -1408750.43745  22597954.5784                   22597954.6994
        44.0004         30.5004
 -22436826.41048 -17446156.70347  20441780.4774                   20441778.7584
        48.7504         46.7504
  19654607.23846  15307570.51244  24761444.6644                   24761447.5394
        40.5004         27.0004
 -24601143.14848 -19150293.57448  20507448.5164                   20507449.8874
        49.5004         48.7504
 -16677545.88747 -12844908.57446  22185138.2974                   22185140.3754
        44.0004         38.7504
 25  7 15  0 49  0.0000000  0  9G02G16G01G04G28G31G32G03G26
    881756.95747    715765.75845  23144917.3914                   23144916.7274
        43.7504         30.5004
  -5204046.10246  -3216074.91442  24057493.4614                   24057496.7234
        36.2504         17.7504
 -18719871.73847 -14561623.38345  21497834.5944                   21497834.8984
        46.2504         33.5004
 -16462729.00447 -12768638.54744  22178731.9844                   22178732.3524
        44.5004         27.2504
  -1782518.07847  -1351787.64844  22611865.6174                   22611865.2074
        44.0004         29.7504
 -22405885.99248 -17422047.30147  20447668.5394                   20447666.8094
        49.0004         46.7504
  19712584.15246  15352747.25444  24772477.1024                   24772480.1214
        41.0004         28.0004
 -24666527.39848 -19201242.31648  20495006.6484                   20495007.6484
        49.5004         48.5004
 -16753163.07847 -12903830.98046  22170748.6094                   22170751.2854
        44.0004         39.2504
 25  7 15  0 49 30.0000000  0  9G02G16G01G04G28G31G32G03G26
    950796.43047    769562.67245  23158055.2894                   23158054.0394
        44.2504         31.0004
  -5320135.78946  -3306534.21142  24035402.8674                   24035405.4184
        36.0004         16.7504
 -18683537.55147 -14533311.07045  21504748.7894                   21504748.4144
        46.5004         33.7504
 -16531815.35947 -12822472.02344  22165584.9844                   22165585.4884
        44.0004         28.2504
  -1709173.37547  -1294636.01245  22625823.0234                   22625822.9144
        43.5004         30.5004
 -22374427.28148 -17397534.03147  20453654.8204                   20453652.7504
        49.2504         46.5004
  19770582.24646  15397940.52045  24783513.7894                   24783519.5864
        40.2504         30.0004
 -24731531.07448 -19251894.53148  20482636.3754                   20482637.6604
        50.2504         49.0004
 -16828356.43447 -12962423.15246  22156439.5704                   22156442.0474
        43.5004         39.2504
 25  7 15  0 50  0.0000000  0  9G02G16G01G04G28G31G32G03G26
   1020015.71947    823499.68044  23171227.1724                   23171226.1174
        43.5004         28.5004
  -5436224.82846  -3396992.97742  24013311.0394                   24013314.1724
        37.0004         17.2504
 -18646707.05547 -14504612.02045  21511757.3914                   21511757.5314
        46.5004         33.7504
 -16600767.58647 -12876200.98044  22152464.2814                   22152464.4344
        44.0004         29.7504
  -1635588.70347  -1237297.34045  22639825.2274                   22639824.8244
        44.5004         30.2504
 -22342452.46148 -17372618.59447  20459739.5474                   20459737.4844
        49.5004         46.7504
  19828601.59046  15443150.32044  24794554.1954                   24794558.0594
        39.2504         29.2504
 -24796151.85548 -19302248.37148  20470339.8444                   20470340.7704
        49.5004         49.0004
 -16903123.08247 -13020682.81646  22142211.7814                   22142214.9534
        44.0004         39.7504
 25  7 15  0 50 30.0000000  0  9G02G16G01G04G28G31G32G03G26
   1089413.22747    877575.57444  23184432.9064                   23184431.9024
        42.5004         27.2504
  -5552308.82446  -3487447.81642  23991221.1484                   23991223.7234
        37.5004         17.2504
 -18609381.18447 -14475526.96545  21518860.4534                   21518860.6294
        46.5004         33.2504
 -16669584.47347 -12929824.48044  22139368.3834                   22139369.1644
        43.7504         28.2504
  -1561765.25447  -1179772.61345  22653873.0554                   22653873.4024
        43.5004         30.2504
 -22309962.64548 -17347301.86747  20465922.1724                   20465920.0164
        49.7504         46.2504
  19886643.55546  15488377.74644  24805598.5554                   24805603.3134
        38.7504         29.0004
 -24860386.35548 -19352301.19948  20458116.1334                   20458117.2034
        49.2504         48.7504
 -16977458.89847 -13078606.75046  22128066.1094                   22128068.8054
        43.7504         39.2504
 25  7 15  0 51  0.0000000  0  9G02G16G01G04G28G31G32G03G26
   1158983.15647    931785.81644  23197671.7274                   23197670.8284
        42.5004         27.7504
  -5668387.44546  -3577898.47342  23969131.4304                   23969134.4184
        37.0004         16.2504
 -18571565.10247 -14446059.92245  21526056.3364                   21526056.4494
        46.7504         33.0004
 -16738269.13347 -12983344.95344  22126298.0784                   22126298.7894
        44.2504         29.2504
  -1487708.51247  -1122066.11745  22667967.0234                   22667965.8054
        43.5004         30.2504
 -22276963.00848 -17321587.87147  20472201.4614                   20472199.5594
        49.0004         46.0004
  19944705.32456  15533620.59055  24816648.9924                   24816652.3914
        40.0004         30.5004
 -24924235.29748 -19402053.60548  20445966.1884                   20445967.4104
        49.7504         49.0004
 -17051364.02747 -13136195.09446  22114002.3054                   22114005.4104
        43.5004         39.7504
 25  7 15  0 51 30.0000000  0  9G02G16G01G04G28G31G32G03G26
   1228723.75047    986129.03544  23210942.6564                   23210941.7704
        43.5004         28.2504
  -5784456.59846  -3668341.69942  23947043.8594                   23947046.5554
        36.5004         17.2504
 -18533260.00047 -14416211.82445  21533345.5394                   21533345.5984
        46.2504         33.0004
 -16806820.68047 -13036761.69144  22113253.6564                   22113253.9534
        45.0004         29.2504
  -1413419.92247  -1064178.95344  22682102.3914                   22682102.5204
        43.0004         28.7504
 -22243454.68748 -17295477.48047  20478577.8524                   20478576.1684
        49.2504         46.0004
  20002788.02046  15578879.75845  24827701.3984                   24827705.6214
        40.2504         31.5004
 -24987695.46148 -19451503.05948  20433889.8674                   20433890.9104
        49.0004         49.0004
 -17124834.69947 -13193444.88746  22100021.4694                   22100024.3954
        44.5004         39.7504
 25  7 15  0 52  0.0000000  0  9G02G16G01G04G28G31G32G03G26
   1298629.78147   1040601.18844  23224245.6414                   23224244.7114
        43.0004         28.0004
  -5900515.77746  -3758777.23043  23924958.7034                   23924961.5594
        37.7504         18.2504
 -18494470.60947 -14385986.35245  21540727.1254                   21540727.1414
        46.5004         33.5004
 -16875241.63347 -13090076.68444  22100233.0394                   22100233.2384
        44.7504         28.2504
  -1338904.48047  -1006115.03144  22696282.7894                   22696281.9964
        44.0004         28.7504
 -22209442.56248 -17268974.54347  20485050.4924                   20485048.3754
        49.5004         46.7504
  20060889.18446  15624153.28944  24838757.3444                   24838761.6604
        38.2504         29.2504
 -25050767.14148 -19500649.80548  20421887.9384                   20421888.6994
        49.5004         49.0004
 -17197870.62547 -13250355.94146  22086122.9064                   22086126.0474
        44.5004         39.2504
 25  7 15  0 52 30.0000000  0  9G02G16G01G04G28G31G32G03G26
   1368700.91447   1095201.97744  23237579.5554                   23237579.5554
        42.0004         27.7504
  -6016559.18746  -3849200.46142  23902875.9304                   23902878.7974
        37.5004         17.2504
 -18455196.67647 -14355383.31245  21548200.9694                   21548200.4614
        46.2504         33.0004
 -16943529.66047 -13143288.08244  22087238.6094                   22087238.9184
        44.2504         29.2504
  -1264162.08247   -947874.23844  22710505.5704                   22710505.1644
        43.2504         29.5004
 -22174925.85248 -17242078.40647  20491618.7114                   20491616.7894
        49.0004         46.0004
  20119011.59056  15669443.41055  24849819.3204                   24849822.0554
        38.5004         30.7504
 -25113445.66048 -19549490.19148  20409960.6724                   20409961.9964
        49.5004         49.2504
 -17270466.44947 -13306924.04746  22072308.1024                   22072311.1954
        44.0004         39.0004
 25  7 15  0 53  0.0000000  0  9G02G16G01G04G28G31G32G03G26
   1438934.97747   1149929.71944  23250945.1644                   23250944.5124
        42.2504         27.2504
  -6132582.83246  -3939608.25443  23880797.4534                   23880800.2854
        38.2504         19.0004
 -18415439.68447 -14324403.87945  21555766.4224                   21555765.8674
        46.0004         33.2504
 -17011684.06647 -13196395.36744  22074269.0004                   22074269.7504
        44.5004         29.2504
  -1189194.51647   -889457.99644  22724771.7894                   22724771.4774
        44.0004         29.5004
 -22139906.64548 -17214790.73047  20498282.7664                   20498280.9414
        49.5004         46.5004
  20177156.03546  15714750.70344  24860883.9454                   24860886.7894
        38.0004         28.7504
 -25175728.07848 -19598021.93748  20398108.2894                   20398109.9654
        49.5004         49.2504
 -17342618.74247 -13363146.57046  22058578.5554                   22058581.3134
        44.5004         39.0004
 25  7 15  0 53 30.0000000  0  9G02G16G01G04G28G31G32G03G26
   1509332.52347   1204784.84844  23264341.2274                   23264340.9384
        42.2504         27.0004
  -6248580.60946  -4029995.94543  23858724.1954                   23858725.9614
        39.2504         19.5004
 -18375199.03147 -14293047.56245  21563423.7274                   21563423.5594
        46.7504         33.0004
 -17079702.06247 -13249396.35544  22061325.2114                   22061326.1024
        44.0004         29.2504
  -1114001.31647   -830865.93444  22739080.4534                   22739080.6374
        43.0004         29.7504
 -22104384.31248 -17187110.99647  20505042.5164                   20505040.3954
        49.0004         46.2504
  20235325.57846  15760077.55144  24871953.3674                   24871955.7464
        37.0004         28.5004
 -25237609.28948 -19646241.04348  20386333.0474                   20386334.0984
        49.5004         49.5004
 -17414321.80547 -13419019.03946  22044933.8834                   22044936.6054
        42.7504         39.0004
 25  7 15  0 54  0.0000000  0  9G02G16G01G04G28G31G32G03G26
   1579890.05547   1259764.62944  23277768.8134                   23277767.9964
        42.2504         28.0004
  -6364550.14546  -4120361.60243  23836655.9534                   23836658.0004
        39.0004         20.7504
 -18334477.72747 -14261316.71545  21571172.9064                   21571172.5984
        46.5004         33.5004
 -17147584.41047 -13302291.66444  22048408.2894                   22048408.3054
        44.5004         28.7504
  -1038585.58647   -772100.49245  22753431.8444                   22753431.4024
        43.7504         30.0004
 -22068361.64148 -17159041.38747  20511897.1564                   20511895.6414
        48.7504         46.7504
  20293519.61745  15805423.48044  24883025.4304                   24883030.3204
        34.2504         28.0004
 -25299087.84848 -19694146.39548  20374633.9534                   20374634.9774
        49.7504         49.2504
 -17485573.66047 -13474539.89546  22031374.7504                   22031377.5984
        43.0004         38.7504
 25  7 15  0 54 30.0000000  0  9G02G16G01G04G28G31G32G03G26
   1650601.53947   1314864.39544  23291224.4304                   23291223.6374
        43.0004         28.0004
  -6480490.85946  -4210704.82043  23814592.1414                   23814594.5984
        39.2504         22.2504
 -18293280.93747 -14229215.35545  21579012.3914                   21579012.5044
        46.2504         32.7504
 -17215334.05147 -13355083.53544  22035516.1414                   22035516.0944
        44.2504         29.5004
   -962952.66847   -713165.77745  22767824.1094                   22767823.8834
        43.2504         30.0004
 -22031843.57048 -17130585.75047  20518846.4064                   20518844.9414
        49.5004         46.7504
  20351735.44145  15850786.37944  24894103.4224                   24894108.1054
        33.7504         28.2504
 -25360164.42248 -19741738.50848  20363011.4924                   20363012.5474
        50.0004         49.5004
 -17556374.32447 -13529709.19546  22017901.3834                   22017905.0274
        43.7504         38.7504
 25  7 15  0 55  0.0000000  0  9G02G16G01G04G28G31G32G03G26
   1721465.44546   1370082.93044  23304709.0394                   23304708.4414
        41.2504         26.0004
  -6596398.60246  -4301022.33643  23792536.4454                   23792537.9774
        38.7504         20.2504
 -18251609.85247 -14196744.40245  21586942.5084                   21586942.3954
        46.2504         33.0004
 -17282950.00847 -13407771.23444  22022648.6484                   22022649.0354
        45.0004         29.5004
   -887103.88747   -654062.88344  22782258.0164                   22782258.0514
        43.0004         28.7504
 -21994831.41848 -17101745.10547  20525889.3284                   20525887.7704
        48.7504         46.0004
  20409974.37546  15896167.25844  24905188.2734                   24905190.8634
        36.0004         26.2504
 -25420835.72348 -19789014.84048  20351466.5704                   20351467.2304
        50.2504         49.2504
 -17626720.04747 -13584523.99246  22004515.6804                   22004518.4344
        43.0004         39.2504
 25  7 15  0 55 30.0000000  0  9G02G16G01G04G28G31G32G03G26
   1792474.93446   1425414.89144  23318221.7344                   23318220.8444
        41.7504         26.5004
  -6712274.22346  -4391314.84043  23770485.2034                   23770487.2464
        40.0004         21.7504
 -18209470.90247 -14163908.87145  21594961.0634                   21594960.9224
        47.0004         32.7504
 -17350436.31647 -13460357.93044  22009806.7034                   22009806.6054
        44.7504         29.2504
   -811045.73847   -594796.84844  22796731.0164                   22796730.8204
        42.7504         29.0004
 -21957331.74648 -17072524.59047  20533025.5554                   20533023.5354
        48.5004         45.7504
  20468230.44155  15940956.07454  24916271.6414                   24916277.4184
        34.2504         27.7504
 -25481103.63748 -19835976.83648  20339997.5944                   20339998.8134
        50.0004         49.5004
 -17696612.15247 -13638985.31246  21991215.3204                   21991218.4264
        44.2504         39.2504
 25  7 15  0 56  0.0000000  0  9G02G16G01G04G28G31G32G03G26
   1863632.90646   1480862.56344  23331762.7664                   23331761.9104
        41.2504         25.2504
  -6828109.08646  -4481575.59043  23748443.3364                   23748444.5084
        40.7504         21.5004
 -18166861.03547 -14130706.40245  21603069.5164                   21603069.3914
        46.2504         32.5004
 -17417787.69947 -13512839.48844  21996989.8284                   21996990.3204
        45.0004         29.2504
   -734775.23447   -535365.32844  22811245.0314                   22811245.3284
        43.2504         29.0004
 -21919341.50448 -17042921.81247  20540254.7274                   20540252.9414
        48.2504         45.7504
  20526513.18445  15986371.07044  24927363.7344                   24927368.2234
        33.7504         26.5004
 -25540960.60248 -19882618.60948  20328607.2664                   20328608.1644
        50.0004         49.5004
 -17766042.57847 -13693086.88346  21978003.0084                   21978005.7774
        44.5004         39.0004
 25  7 15  0 56 30.0000000  0  9G02G16G01G04G28G31G32G03G26
   1934935.96946   1536423.28544  23345331.1884                   23345330.5944
        41.0004         27.2504
  -6943900.20346  -4571802.26643  23726407.7814                   23726409.9694
        39.7504         22.0004
 -18123782.88347 -14097139.04745  21611267.0164                   21611266.8914
        46.0004         32.5004
 -17485004.52047 -13565216.17644  21984198.8204                   21984199.5124
        44.2504         29.0004
   -658295.07447   -475770.46144  22825798.6024                   22825798.3164
        43.5004         28.5004
 -21880863.14148 -17012938.68047  20547577.1024                   20547575.0354
        48.7504         46.0004
  20584820.42645  16031805.21544  24938458.9304                   24938463.9494
        33.5004         26.7504
 -25600404.77048 -19928938.73048  20317295.0554                   20317296.0664
        50.0004         50.0004
 -17835008.89847 -13746826.82446  21964878.9384                   21964882.0984
        44.2504         39.5004
 25  7 15  0 57  0.0000000  0 10G02G16G09G01G04G28G31G32G03G26
   2006379.94547   1592093.81644  23358927.2194                   23358926.7814
        42.0004         28.0004
  -7059645.75046  -4661993.43043  23704382.1884                   23704384.1644
        39.5004         21.5004
   1451128.32855   1152111.56654  24947140.1644                   24947145.6414
        33.0004         26.0004
 -18080240.38347 -14063209.85545  21619552.6724                   21619553.1844
        45.7504         33.0004
 -17552088.31647 -13617489.21544  21971433.7664                   21971433.7664
        43.5004         29.2504
   -581609.23447   -416015.27744  22840392.1644                   22840391.4264
        43.7504         29.5004
 -21841900.66448 -16982578.31647  20554991.1804                   20554989.3754
        48.0004         46.0004
  20643150.86346  16077257.42644  24949560.7114                   24949563.4574
        36.7504         28.0004
 -25659435.45748 -19974936.66448  20306062.2504                   20306063.2074
        50.5004         49.7504
 -17903510.02747 -13800204.28146  21951843.4924                   21951846.9024
        43.0004         39.0004
 25  7 15  0 57 30.0000000  0 10G02G16G09G01G04G28G31G32G03G26
   2077942.66447   1647856.86744  23372544.9064                   23372544.5004
        42.0004         25.5004
  -7175362.03946  -4752161.76243  23682362.3594                   23682364.2234
        39.2504         21.5004
   1359784.87145   1080935.02744  24929758.9614                   24929764.4574
        34.0004         26.2504
 -18036255.25047 -14028935.77745  21627923.1094                   21627923.2074
        45.7504         32.0004
 -17619058.54747 -13669673.78145  21958689.0944                   21958689.4064
        45.2504         30.0004
   -504739.43047   -356116.76644  22855019.2974                   22855019.3914
        43.5004         28.2504
 -21802475.74248 -16951857.60947  20562493.8054                   20562491.7154
        49.0004         46.5004
  20701485.44946  16122712.83644  24960660.3834                   24960664.6334
        36.7504         28.7504
 -25718069.87948 -20020625.82448  20294904.1254                   20294905.5274
        49.0004         49.5004
 -17971562.61747 -13853232.21146  21938893.8834                   21938896.2734
        43.5004         39.5004
 25  7 15  0 58  0.0000000  0 10G02G16G09G01G04G28G31G32G03G26
   2149620.06647   1703709.29344  23386184.5164                   23386183.6844
        42.2504         26.5004
  -7291047.34046  -4842305.96943  23660348.0864                   23660349.1724
        37.7504         20.7504
   1268440.31345   1009757.69544  24912377.2274                   24912382.3594
        34.0004         26.2504
 -17991831.63747 -13994320.00445  21636376.1094                   21636376.3094
        45.2504         32.5004
 -17685916.89547 -13721771.15645  21945966.3914                   21945966.8554
        45.7504         30.2504
   -427689.71147   -296078.08245  22869681.5784                   22869681.6604
        43.5004         30.0004
 -21762592.31648 -16920779.63747  20570083.1954                   20570081.6254
        49.0004         46.2504
  20759822.39546  16168170.12544  24971761.3834                   24971765.8324
        38.0004         29.5004
 -25776307.55148 -20066005.81648  20283821.9304                   20283823.0124
        49.5004         49.5004
 -18039165.70347 -13905909.87946  21926029.3754                   21926032.4844
        44.7504         39.2504
 25  7 15  0 58 30.0000000  0 10G02G16G09G01G04G28G31G32G03G26
   2221405.73447   1759646.08244  23399845.0164                   23399844.4654
        42.0004         25.5004
  -7406701.40646  -4932425.85243  23638339.1254                   23638341.2854
        38.7504         21.5004
   1177091.81345    938577.18844  24894993.6804                   24894998.3014
        34.0004         26.5004
 -17946974.95747 -13959366.78145  21644912.2034                   21644912.2624
        45.5004         32.5004
 -17752666.46947 -13773783.76645  21933264.1414                   21933265.0044
        45.7504         30.5004
   -350465.55146   -235903.46944  22884376.3834                   22884376.4184
        41.5004         28.5004
 -21722255.67648 -16889348.49647  20577758.8674                   20577757.2584
        49.0004         46.2504
  20818157.04356  16213322.10954  24982863.9694                   24982866.4344
        37.5004         29.2504
 -25834149.40648 -20111077.38348  20272815.2974                   20272815.9304
        50.0004         49.5004
 -18106319.78547 -13958237.67646  21913249.9064                   21913253.1094
        45.0004         39.7504
 25  7 15  0 59  0.0000000  0 10G02G16G09G01G04G28G31G32G03G26
   2293303.84846   1815670.48444  23413526.4534                   23413526.2114
        41.5004         25.2504
  -7522314.11746  -5022513.53143  23616339.4534                   23616340.7584
        39.0004         21.5004
   1085745.82045    867398.68444  24877611.5164                   24877615.3874
        34.5004         26.2504
 -17901680.99647 -13924072.82045  21653531.4534                   21653531.3014
        45.0004         32.7504
 -17819300.63747 -13825706.46145  21920584.1094                   21920584.5274
        44.7504         30.7504
   -273062.65246   -175589.59044  22899105.8674                   22899105.6914
        41.7504         28.5004
 -21681461.77348 -16857561.04347  20585522.1564                   20585520.3714
        48.5004         46.0004
  20876500.14546  16258784.19144  24993964.5234                   24993968.7504
        37.2504         27.7504
 -25891586.65248 -20155833.66848  20261885.1094                   20261886.4264
        49.7504         49.2504
 -18173015.52347 -14010208.32846  21900558.5084                   21900561.2704
        45.5004         39.5004
 25  7 15  0 59 30.0000000  0 10G02G16G09G01G04G28G31G32G03G26
   2365316.20747   1871783.92644  23427230.8594                   23427229.9884
        42.5004         24.5004
  -7637878.10246  -5112563.20743  23594348.3364                   23594349.1094
        38.7504         20.7504
    994406.57445    796225.46944  24860229.6804                   24860234.4414
        33.5004         24.5004
 -17855947.86347 -13888436.67245  21662234.5634                   21662234.4144
        45.7504         32.0004
 -17885815.15247 -13877535.90245  21907926.8674                   21907927.5704
        45.2504         30.0004
   -195479.12547   -115134.92645  22913870.2114                   22913870.4454
        42.7504         30.5004
 -21640208.66048 -16825415.77747  20593371.8754                   20593370.2894
        49.0004         45.7504
  20934854.26646  16304254.87945  25005069.0164                   25005074.6374
        37.5004         30.7504
 -25948612.78948 -20200269.60548  20251033.8984                   20251034.6994
        50.5004         49.5004
 -18239246.03547 -14061816.44146  21887955.2894                   21887958.4224
        45.2504         39.7504
 25  7 15  1  0  0.0000000  0 10G02G16G09G01G04G28G31G32G03G26
   2437446.62146   1927989.32844  23440955.6884                   23440955.7814
        41.5004         24.7504
  -7753382.91046  -5202566.80943  23572368.4534                   23572369.2154
        39.0004         20.0004
    903081.08245    725062.92644  24842849.8914                   24842856.0394
        33.5004         26.5004
 -17809771.12147 -13852454.82445  21671021.4844                   21671021.6254
        46.0004         32.7504
 -17952203.01647 -13929266.68045  21895293.8524                   21895293.9414
        44.5004         30.7504
   -117710.31646    -54535.92244  22928668.8754                   22928668.9414
        41.7504         28.5004
 -21598491.62548 -16792909.02047  20601310.5314                   20601309.1334
        49.5004         46.2504
  20993226.41446  16349739.53945  25016177.0234                   25016181.7424
        37.5004         30.2504
 -26005218.77348 -20244378.15248  20240261.8284                   20240262.9734
        49.5004         49.5004
 -18305001.77347 -14113054.62946  21875442.2974                   21875445.0434
        45.7504         40.0004
 25  7 15  1  0 30.0000000  0 10G02G16G09G01G04G28G31G32G03G26
   2509690.16047   1984282.89844  23454704.4454                   23454703.8754
        42.2504         25.2504
  -7868827.66446  -5292523.55943  23550399.5784                   23550400.3874
        39.2504         19.7504
    811766.93845    653909.23044  24825473.4454                   24825478.9694
        35.2504         26.7504
 -17763155.48847 -13816130.98445  21679892.2194                   21679892.4414
        45.7504         32.7504
 -18018466.55547 -13980900.56645  21882683.7034                   21882684.8834
        43.7504         30.7504
    -39760.83647      6203.86744  22943502.3594                   22943502.5234
        43.0004         29.0004
 -21556315.35548 -16760044.39847  20609336.3364                   20609334.5744
        48.5004         45.5004
  21051604.61716                  25027288.258
        39.000
 -26061404.73048 -20288159.41048  20229569.9844                   20229570.5704
        50.0004         49.5004
 -18370282.43047 -14163922.62546  21863019.7424                   21863022.3364
        44.5004         40.0004
 25  7 15  1  1  0.0000000  0 10G02G16G09G01G04G28G31G32G03G26
   2582046.79747   2040664.59044  23468473.5864                   23468472.6954
        42.0004         25.0004
  -7984206.39846  -5382428.89543  23528442.7664                   23528444.6644
        38.5004         19.0004
    720466.79745    582766.40644  24808098.7344                   24808105.3984
        35.2504         28.0004
 -17716100.89847 -13779465.13345  21688846.1564                   21688846.3134
        45.7504         31.7504
 -18084603.25447 -14032435.64845  21870099.1724                   21870098.8914
        45.0004         30.5004
     38369.41447     67084.53944  22958369.5554                   22958369.5044
        42.0004         28.5004
 -21513679.80148 -16726821.90247  20617449.8674                   20617447.7464
        48.2504         46.2504
  21110011.59446  16439530.58255  25038404.2974                   25038407.4384
        39.2504         30.5004
 -26117165.98848 -20331609.73448  20218958.7814                   20218959.6484
        49.5004         49.2504
 -18435082.99647 -14214416.51246  21850688.6804                   21850691.2194
        45.2504         40.2504
 25  7 15  1  1 30.0000000  0 10G02G16G09G01G04G28G31G32G03G26
   2654516.60546   2097134.46944  23482263.8054                   23482263.2194
        41.7504         25.5004
  -8099512.70346  -5472277.77743  23506500.1724                   23506502.7464
        39.0004         19.7504
    629183.45345    511636.70344  24790729.0474                   24790734.9694
        34.5004         29.5004
 -17668606.96147 -13742456.90245  21697883.8134                   21697883.9414
        45.5004         32.0004
 -18150610.16447 -14083869.57845  21857538.3754                   21857538.4534
        45.0004         31.5004
    116681.12947    128106.60944  22973272.2974                   22973271.5904
        42.7504         28.0004
 -21470584.43447 -16693241.11747  20625650.1564                   20625648.8594
        47.7504         46.0004
  21168440.54746  16485059.50444  25049520.9384                   25049525.7304
        38.7504         29.7504
 -26172497.53148 -20374725.20348  20208429.5314                   20208430.3284
        50.5004         49.5004
 -18499397.93747 -14264532.02046  21838449.5864                   21838452.5864
        45.0004         40.0004
 25  7 15  1  2  0.0000000  0 10G02G16G09G01G04G28G31G32G03G26
   2727095.25447   2153689.16044  23496075.5944                   23496074.4024
        42.2504         25.2504
  -8214745.22746  -5562069.19943  23484573.0314                   23484574.5274
        39.0004         19.2504
    537915.25445    440518.74244  24773360.2274                   24773366.2624
        33.5004         26.7504
 -17620677.79747 -13705109.55145  21707005.0314                   21707004.6844
        46.0004         31.5004
 -18216488.98847 -14135203.68745  21845001.6884                   21845002.5084
        45.2504         31.5004
    195170.25447    189266.89144  22988208.3674                   22988207.8404
        42.2504         29.2504
 -21427033.29347 -16659305.18747  20633937.9534                   20633936.3014
        47.2504         45.7504
  21226887.92256  16529388.38755  25060643.8364                   25060648.5314
        38.5004         30.0004
 -26227398.90648 -20417505.47748  20197982.2734                   20197983.2544
        49.7504         49.7504
 -18563226.44147 -14314268.46146  21826304.2664                   21826306.1414
        46.5004         40.7504
 25  7 15  1  2 30.0000000  0 10G02G16G09G01G04G28G31G32G03G26
   2799787.08246   2210332.02744  23509908.1414                   23509907.9414
        40.5004         25.5004
  -8329893.11346  -5651794.65643  23462661.1804                   23462661.6644
        39.7504         19.7504
    446669.34846    369418.25444  24755998.8054                   24756001.7384
        36.5004         28.2504
 -17572308.80147 -13667419.46545  21716209.4454                   21716209.3714
        45.0004         32.2504
 -18282232.53547 -14186432.40245  21832490.9844                   21832491.8324
        44.7504         31.2504
    273841.66047    250569.21144  23003178.8594                   23003179.2464
        43.0004         28.7504
 -21383021.74247 -16625010.49247  20642312.7194                   20642311.2504
        46.7504         45.2504
  21285365.18056  16574954.98454  25071772.8834                   25071776.7154
        39.2504         29.2504
 -26281860.81248 -20459943.31648  20187618.1724                   20187619.1844
        50.7504         49.7504
 -18626558.72347 -14363618.27046  21814251.5944                   21814254.4264
        46.0004         40.7504
 25  7 15  1  3  0.0000000  0 10G02G16G09G01G04G28G31G32G03G26
   2872583.00046   2267055.99644  23523760.6174                   23523760.6884
        40.7504         26.5004
  -8444959.73846  -5741456.80143  23440764.5004                   23440765.6844
        39.7504         21.0004
    355439.18846    298330.01644  24738637.7034                   24738641.8634
        36.7504         28.5004
 -17523508.95747 -13629393.65645  21725495.1564                   21725495.4344
        46.2504         31.5004
 -18347847.29347 -14237560.75445  21820004.8594                   21820005.0394
        43.5004         31.0004
    352686.52047    312006.68444  23018182.6414                   23018182.4734
        43.0004         27.7504
 -21338558.63747 -16590363.92647  20650774.5634                   20650772.8324
        47.5004         45.7504
  21343863.96946  16620538.37945  25082904.8984                   25082908.5234
        40.7504         30.2504
 -26335887.66048 -20502042.15248  20177337.4384                   20177338.4414
        50.0004         50.0004
 -18689398.87547 -14412584.57446  21802293.6334                   21802296.3014
        44.7504         39.7504
 25  7 15  1  3 30.0000000  0 10G02G16G09G01G04G28G31G32G03G26
   2945484.50046   2323862.23444  23537633.5634                   23537633.5664
        40.7504         24.7504
  -8559937.31246  -5831049.55543  23418884.9534                   23418885.4344
        39.5004         20.2504
    264229.24645    227257.45744  24721279.8914                   24721285.0394
        34.0004         26.5004
 -17474276.47747 -13591030.71545  21734864.4614                   21734864.1994
        44.7504         31.2504
 -18413328.81647 -14288585.28545  21807544.0164                   21807544.4304
        45.0004         32.0004
    431706.94947    373581.02044  23033220.3834                   23033219.5634
        42.5004         28.2504
 -21293642.00847 -16555363.96947  20659321.9614                   20659320.3014
        47.5004         46.0004
  21402388.85246  16666142.06344  25094042.2734                   25094045.7774
        40.2504         29.5004
 -26389472.98048 -20543796.94548  20167140.2034                   20167141.4454
        49.5004         49.0004
 -18751739.98447 -14461162.00446  21790430.7274                   21790433.2074
        45.7504         40.7504
 25  7 15  1  4  0.0000000  0 10G02G16G09G01G04G28G31G32G03G26
   3018487.85246   2380747.85944  23551526.0234                   23551524.9224
        40.5004         25.0004
  -8674823.44146  -5920571.09843  23397022.3914                   23397023.3284
        39.2504         21.5004
    173038.27345    156199.73844  24703927.2584                   24703932.3134
        35.0004         27.7504
 -17424614.90247 -13552333.44545  21744314.1644                   21744314.8834
        46.0004         31.5004
 -18478678.21147 -14339506.87945  21795108.2194                   21795108.8164
        44.7504         30.2504
    510899.58646    435289.50044  23048289.1254                   23048289.8954
        41.5004         28.5004
 -21248275.34847 -16520013.35247  20667954.2894                   20667953.2974
        47.5004         45.5004
  21460939.13746  16711765.60544  25105182.9774                   25105187.0704
        40.0004         28.0004
 -26442615.69548 -20585206.83648  20157027.7344                   20157028.2894
        49.7504         49.2504
 -18813580.67247 -14509349.52346  21778662.7344                   21778664.5354
        45.7504         40.5004
 25  7 15  1  4 30.0000000  0 10G02G16G09G01G04G28G31G32G03G26
   3091590.78546   2437711.05144  23565437.2974                   23565436.3914
        40.2504         25.7504
  -8789614.06246  -6010018.20343  23375178.5864                   23375179.3244
        39.5004         22.2504
     81867.04745     85157.39844  24686578.0164                   24686582.4184
        35.5004         28.2504
 -17374526.29347 -13513303.38345  21753846.5234                   21753846.1724
        45.0004         31.0004
 -18543894.80147 -14390324.96145  21782698.5084                   21782698.0634
        45.0004         31.7504
    590262.73447    497130.86744  23063391.7034                   23063391.7504
        42.2504         28.5004
 -21202460.46948 -16484313.45747  20676672.6024                   20676671.1844
        48.0004         46.0004
  21519515.59046  16757409.48444  25116330.8284                   25116334.5474
        39.5004         28.7504
 -26495313.18048 -20626269.78548  20146999.8444                   20147000.3094
        49.5004         49.5004
 -18874917.86747 -14557144.69546  21766990.7194                   21766993.1294
        46.0004         40.7504
 25  7 15  1  5  0.0000000  0 10G02G16G09G01G04G28G31G32G03G26
   3164791.31846   2494750.32444  23579366.1174                   23579366.5394
        40.0004         26.7504
  -8904305.35546  -6099387.91443  23353353.9924                   23353354.1024
        39.7504         22.7504
     -9283.95346     14130.80944  24669231.9534                   24669236.7774
        36.0004         28.2504
 -17324012.61747 -13473942.13345  21763458.4614                   21763458.4494
        46.2504         31.0004
 -18608978.07047 -14441039.18045  21770313.1094                   21770313.6024
        46.0004         31.2504
    669794.62547    559103.70344  23078527.1884                   23078526.4144
        43.0004         27.0004
 -21156199.42247 -16448265.90647  20685476.1564                   20685474.5554
        47.5004         46.0004
  21578122.90256  16803077.35254  25127482.7894                   25127487.0124
        39.0004         26.2504
 -26547562.83248 -20666983.79348  20137056.9064                   20137058.4144
        49.5004         50.0004
 -18935748.66047 -14604545.27046  21755414.6884                   21755417.0044
        46.0004         41.0004
 25  7 15  1  5 30.0000000  0 10G02G16G09G01G04G28G31G32G03G26
   3238085.28146   2551862.34444  23593313.9454                   23593313.5474
        41.0004         25.7504
  -9018895.43746  -6188678.72743  23331547.9534                   23331548.5124
        40.0004         21.7504
   -100416.30546    -56881.25045  24651890.1804                   24651894.9734
        38.2504         30.7504
 -17273078.07847 -13434252.93045  21773151.3914                   21773151.2074
        45.0004         32.2504
 -18673929.49247 -14491650.64845  21757953.9924                   21757954.2074
        45.5004         32.2504
    749491.46147    621205.07444  23093692.6884                   23093692.2974
        42.2504         27.7504
 -21109496.13747 -16411873.76247  20694363.6884                   20694361.6414
        47.0004         45.2504
  21636751.77046  16848762.09444  25138638.7274                   25138643.1374
        38.7504         27.2504
 -26599364.11748 -20707348.41448  20127199.5784                   20127200.3984
        49.7504         49.5004
 -18996072.15647 -14651550.55146  21743935.9304                   21743938.1374
        45.7504         41.2504
 25  7 15  1  6  0.0000000  0 10G02G16G09G01G04G28G31G32G03G26
   3311469.84846   2609045.02044  23607278.7894                   23607278.3324
        41.2504         26.5004
  -9133380.52346  -6277887.76243  23309761.7194                   23309762.1604
        41.5004         21.0004
   -191529.77746   -127878.63745  24634552.0944                   24634556.7464
        38.2504         31.0004
 -17221725.04347 -13394237.61745  21782923.1334                   21782923.3054
        45.2504         31.2504
 -18738748.80947 -14542159.17645  21745618.6094                   21745618.9884
        45.7504         31.5004
    829351.18847    683433.37544  23108889.5394                   23108889.3054
        42.0004         27.7504
 -21062352.73047 -16375138.66047  20703334.3594                   20703332.6484
        47.7504         45.5004
  21695406.76646  16894467.23444  25149801.3594                   25149805.6484
        40.5004         28.0004
 -26650714.77348 -20747361.90248  20117427.4774                   20117428.9494
        50.2504         49.7504
 -19055885.78147 -14698158.53946  21732553.0704                   21732556.3134
        45.2504         41.0004
 25  7 15  1  6 30.0000000  0 10G02G16G09G01G04G28G31G32G03G26
   3384942.67646   2666296.43844  23621260.1334                   23621260.1564
        41.2504         26.7504
  -9247757.09046  -6367012.25043  23287996.5784                   23287997.0864
        41.0004         22.5004
   -282624.17646   -198861.11344  24617216.5864                   24617221.9494
        36.7504         29.0004
 -17169955.92247 -13353898.08245  21792774.9534                   21792774.4734
        45.0004         31.5004
 -18803435.82447 -14592564.60545  21733308.7664                   21733309.2624
        45.2504         31.2504
    909371.75047    745787.00044  23124116.8984                   23124117.2624
        42.5004         28.7504
 -21014771.80547 -16338062.62947  20712388.8204                   20712387.4844
        47.5004         45.7504
  21754092.16416                  25160966.891
        38.500
 -26701612.54348 -20787022.47348  20107742.2974                   20107743.4964
        49.7504         49.7504
 -19115186.89847 -14744367.15646  21721268.4224                   21721271.1214
        45.5004         41.0004
 25  7 15  1  7  0.0000000  0 10G02G16G09G01G04G28G31G32G03G26
   3458502.62546   2723615.73844  23635258.5004                   23635258.3164
        40.0004         27.2504
  -9362020.08246  -6456048.20743  23266253.0234                   23266253.8984
        41.0004         22.2504
   -373697.89546   -269827.51244  24599885.9694                   24599890.8674
        37.5004         28.0004
 -17117771.66047 -13313235.06645  21802704.9694                   21802705.0904
        45.7504         31.0004
 -18867988.78147 -14642865.58245  21721024.8364                   21721025.3244
        44.5004         30.5004
    989552.58647    808265.50844  23139374.6334                   23139374.6954
        42.2504         26.5004
 -20966753.85948 -16300646.07447  20721526.5314                   20721525.1454
        48.0004         46.0004
  21812801.95346  16984113.67654  25172137.9384                   25172144.0204
        37.0004         26.0004
 -26752053.74248 -20826327.30548  20098143.9144                   20098144.8404
        49.7504         50.0004
 -19173971.54747 -14790173.31646  21710082.1254                   21710084.8954
        45.0004         40.7504
 25  7 15  1  7 30.0000000  0 10G02G16G09G01G04G28G31G32G03G26
   3532145.89146   2780999.97744  23649272.2584                   23649272.1054
        41.2504         25.7504
  -9476167.25446  -6544993.93443  23244531.1174                   23244532.0274
        41.2504         22.7504
   -464751.81646   -340778.49244  24582559.2894                   24582563.0514
        37.0004         28.0004
 -17065175.90247 -13272251.39845  21812713.7034                   21812713.6214
        45.0004         31.0004
 -18932408.61747 -14693062.82445  21708766.2034                   21708766.9534
        44.5004         31.0004
   1069890.44147    870866.37544  23154662.0004                   23154662.3054
        42.2504         26.7504
 -20918302.37147 -16262891.69547  20730746.1644                   20730744.3164
        47.5004         45.2504
  21871539.43846  17029883.11744  25183317.6724                   25183320.7934
        38.7504         25.0004
 -26802037.30548 -20865275.51248  20088632.3054                   20088633.1174
        50.5004         50.0004
 -19232238.33647 -14835575.99646  21698994.3984                   21698997.2034
        46.0004         41.5004
 25  7 15  1  8  0.0000000  0 10G02G16G09G01G04G28G31G32G03G26
   3605873.57846   2838449.98044  23663302.3134                   23663301.9964
        41.7504         27.0004
  -9590191.48446  -6633843.83643  23222832.9774                   23222833.6254
        41.2504         23.5004
   -555782.40646   -411711.27644  24565236.7504                   24565240.1994
        38.5004         28.0004
 -17012167.82447 -13230946.44945  21822800.9774                   21822801.2154
        46.0004         32.0004
 -18996691.77747 -14743153.57845  21696533.9614                   21696533.9614
        45.7504         31.0004
   1150386.56346    933590.57044  23169980.7344                   23169980.3244
        41.2504         26.2504
 -20869416.40647 -16224798.75847  20740049.2584                   20740047.3284
        47.5004         45.2504
  21930308.23056  17075676.84853  25194499.8204                   25194504.3524
        37.0004         22.5004
 -26851557.74648 -20903862.85548  20079208.4304                   20079209.2344
        49.7504         49.7504
 -19289981.46547 -14880570.57446  21688006.2034                   21688008.7114
        46.2504         41.0004
 25  7 15  1  8 30.0000000  0 10G02G16G09G01G04G28G31G32G03G26
   3679683.43446   2895964.02044  23677348.5314                   23677347.8244
        41.2504         27.0004
  -9704088.39546  -6722594.55943  23201159.3674                   23201159.3444
        39.7504         22.5004
   -646789.08646   -482625.44944  24547918.6254                   24547922.0514
        39.5004         28.2504
 -16958749.41447 -13189321.76245  21832966.2344                   21832966.2894
        45.2504         30.5004
 -19060837.53547 -14793137.25045  21684327.3054                   21684327.3164
        44.7504         31.2504
   1231039.42246    996436.88744  23185327.7274                   23185328.2974
        41.2504         25.7504
 -20820097.96147 -16186368.82047  20749434.3444                   20749432.4924
        47.2504         45.0004
  21989109.37146  17121495.90643  25205690.0474                   25205694.6484
        38.2504         22.0004
 -26900612.36748 -20942087.23048  20069873.6724                   20069874.5434
        50.0004         50.0004
 -19347198.01247 -14925154.87146  21677118.3594                   21677120.7664
        45.5004         41.2504
 25  7 15  1  9  0.0000000  0  9G02G16G09G01G04G28G31G03G26
   3753570.80146   2953538.44544  23691408.5314                   23691408.2734
        41.0004         26.2504
  -9817856.88346  -6811245.17243  23179509.3524                   23179510.0354
        40.2504         22.0004
   -737773.84046   -553522.50044  24530604.0474                   24530608.4384
        38.5004         26.2504
 -16904925.42247 -13147381.03145  21843208.9774                   21843208.7114
        45.2504         31.0004
 -19124847.96947 -14843015.48445  21672146.2664                   21672146.8634
        44.0004         31.0004
   1311844.68846   1059401.96144  23200705.3284                   23200705.4534
        41.2504         27.2504
 -20770351.25848 -16147605.18447  20758900.5864                   20758898.8634
        48.0004         45.5004
 -26949201.27748 -20979948.70748  20060627.7584                   20060628.6334
        49.5004         50.0004
 -19403887.71147 -14969328.60546  21666330.6024                   21666333.2774
        46.7504         41.0004
 25  7 15  1  9 30.0000000  0  9G02G16G09G01G04G28G31G03G26
   3827536.34846   3011173.79344  23705484.2424                   23705483.8794
        40.7504         25.2504
  -9931490.18746  -6899790.48043  23157885.4534                   23157886.2274
        40.5004         22.7504
   -828733.24246   -624399.88744  24513294.6804                   24513298.8364
        36.5004         25.7504
 -16850695.14847 -13105123.73445  21853528.3754                   21853528.6914
        45.0004         30.7504
 -19188719.51647 -14892785.48845  21659992.0234                   21659992.4884
        45.0004         31.5004
   1392803.57846   1122486.75044  23216110.6724                   23216111.3364
        41.2504         26.7504
 -20720175.81247 -16108507.45747  20768448.7344                   20768447.2274
        47.2504         45.5004
 -26997319.09848 -21017443.09448  20051470.9924                   20051471.8914
        50.2504         50.0004
 -19460044.97347 -15013087.46546  21655644.6414                   21655647.1214
        45.7504         41.7504
 25  7 15  1 10  0.0000000  0  9G02G16G09G01G04G28G31G03G26
   3901587.62146   3068875.95343  23719575.4924                   23719574.7074
        40.0004         22.7504
 -10044974.39546  -6988219.61343  23136289.8134                   23136290.7624
        40.7504         22.7504
   -919656.80546   -695249.28944  24495992.5554                   24495996.6804
        37.5004         26.0004
 -16796050.75047 -13062543.71945  21863926.9224                   21863926.6094
        44.5004         30.2504
 -19252441.66847 -14942439.09045  21647865.8984                   21647866.4774
        44.5004         32.5004
   1473924.34846   1185697.69144  23231548.3594                   23231548.0594
        41.2504         26.0004
 -20669563.58648 -16069069.37147  20778080.0634                   20778078.2304
        48.7504         45.5004
 -27044953.31648 -21054560.66848  20042406.7034                   20042407.6024
        49.5004         49.5004
 -19515656.98047 -15056421.44546  21645061.3984                   21645063.6724
        46.0004         41.2504
 25  7 15  1 10 30.0000000  0  9G02G16G09G01G04G28G31G03G26
   3975735.57446   3126653.44543  23733685.1174                   23733685.1094
        40.2504         22.5004
 -10158292.25046  -7076519.10543  23114725.9384                   23114726.7114
        40.0004         22.5004
  -1010531.01646   -766060.24644  24478700.3674                   24478704.0784
        37.5004         26.0004
 -16740981.54747 -13019632.71545  21874406.2194                   21874406.1524
        45.2504         31.0004
 -19316000.83647 -14991965.70745  21635770.7974                   21635771.2154
        45.7504         32.2504
   1555218.25447   1249043.52744  23247017.4384                   23247017.4694
        42.0004         28.2504
 -20618503.43748 -16029282.27047  20787796.5084                   20787794.6804
        48.2504         45.5004
 -27092088.52348 -21091289.38748  20033436.6954                   20033437.9964
        50.0004         50.0004
 -19570708.13747 -15099318.41046  21634585.4064                   21634588.0274
        45.2504         41.2504
 25  7 15  1 11  0.0000000  0  9G02G16G09G01G04G28G31G03G26
   4049972.94946   3184500.59043  23747812.0474                   23747811.7704
        40.7504         22.0004
 -10271445.31646  -7164690.20343  23093193.9224                   23093194.3794
        40.2504         22.2504
  -1101360.80146   -836836.56644  24461415.3674                   24461418.8794
        37.2504         26.2504
 -16685495.03547 -12976396.51645  21884964.6564                   21884965.1294
        45.5004         30.7504
 -19379401.85947 -15041369.06645  21623706.3674                   21623706.6174
        45.5004         31.5004
   1636678.29746   1312518.81644  23262518.3134                   23262519.0164
        41.5004         28.2504
 -20567002.55948 -15989151.73847  20797596.7814                   20797595.0164
        48.5004         45.2504
 -27138727.66448 -21127631.56248  20024561.6804                   20024562.9454
        49.5004         49.7504
 -19625201.09447 -15141780.41846  21624215.9694                   21624218.3714
        46.5004         41.5004
 25  7 15  1 11 30.0000000  0  9G02G16G09G01G04G28G31G03G26
   4124291.98046   3242411.37943  23761955.0944                   23761954.4884
        39.7504         22.2504
 -10384434.64846  -7252733.73443  23071692.7034                   23071692.5904
        40.5004         23.5004
  -1192150.58646   -907581.73044  24444138.4144                   24444142.5124
        36.5004         25.0004
 -16629598.64547 -12932840.92645  21895601.8914                   21895601.8714
        44.5004         31.2504
 -19442649.23047 -15090652.71545  21611670.7344                   21611670.9774
        45.2504         32.5004
   1718297.60947   1376118.19944  23278050.7664                   23278051.0554
        42.0004         27.5004
 -20515068.57447 -15948683.72347  20807479.1484                   20807477.7894
        47.7504         44.5004
 -27184873.35948 -21163589.24648  20015780.8444                   20015781.9884
        49.7504         50.2504
 -19679138.28547 -15183809.35246  21613951.8914                   21613954.4024
        46.0004         41.5004
 25  7 15  1 12  0.0000000  0  9G02G16G09G01G04G28G31G03G26
   4198689.02346   3300382.97343  23776112.4614                   23776112.0944
        39.5004         20.2504
 -10497258.03946  -7340647.93044  23050223.1414                   23050223.6764
        40.5004         24.0004
  -1282901.67246   -978296.71544  24426870.0004                   24426873.2624
        38.7504         29.0004
 -16573296.29747 -12888969.03145  21906316.1094                   21906316.0124
        45.0004         31.0004
 -19505744.09447 -15139817.51645  21599664.2274                   21599664.4574
        46.2504         32.2504
   1800072.83646   1439839.10544  23293611.3674                   23293612.7894
        41.0004         28.2504
 -20462705.00047 -15907880.95747  20817444.3054                   20817442.2734
        47.7504         44.7504
 -27230524.93748 -21199161.90648  20007093.2734                   20007094.5354
        50.0004         50.0004
 -19732518.77747 -15225404.49646  21603794.0864                   21603796.5394
        46.5004         41.5004
 25  7 15  1 12 30.0000000  0  9G02G16G09G01G04G28G31G03G26
   4273154.59846   3358407.97343  23790283.0084                   23790282.6454
        38.2504         20.7504
 -10609918.88746  -7428435.46944  23028784.4144                   23028784.8134
        40.7504         24.2504
  -1373620.48046  -1048986.57044  24409605.4304                   24409609.6914
        36.7504         29.2504
 -16516597.32847 -12844788.06245  21917105.3054                   21917105.5044
        44.5004         31.5004
 -19568692.92647 -15188868.53545  21587685.7034                   21587685.9924
        45.7504         31.7504
   1881995.28546   1503674.69144  23309202.0704                   23309201.7704
        41.5004         28.2504
 -20409920.96947 -15866750.56647  20827488.5704                   20827486.4654
        47.7504         44.5004
 -27275687.02048 -21234353.13348  19998499.2274                   19998500.1564
        50.0004         50.0004
 -19785346.95747 -15266569.27746  21593741.4694                   21593744.0274
        46.7504         41.7504
 25  7 15  1 13  0.0000000  0  9G02G16G09G01G04G28G31G03G26
   4347683.13346   3416482.00043  23804464.0554                   23804465.0514
        36.5004         20.2504
 -10722416.33646  -7516095.69543  23007376.9454                   23007376.8714
        40.2504         23.0004
  -1464310.15646  -1119653.71945  24392348.3134                   24392352.3324
        38.0004         30.0004
 -16459507.49647 -12800302.52045  21927969.0864                   21927969.6844
        45.5004         31.0004
 -19631498.56647 -15237807.96945  21575734.1564                   21575734.3554
        46.5004         32.0004
   1964059.72746   1567620.93444  23324818.2894                   23324817.8914
        41.0004         27.0004
 -20356722.13347 -15825296.94147  20837611.5634                   20837610.2934
        47.5004         44.7504
 -27320360.68048 -21269163.77748  19989998.1564                   19989999.1724
        49.5004         50.0004
 -19837623.78147 -15307304.43746  21583793.4064                   21583795.4414
        46.7504         41.7504
 25  7 15  1 13 30.0000000  0  9G02G16G09G01G04G28G31G03G26
   4422273.87146   3474604.46543  23818659.7504                   23818659.5084
        38.2504         20.0004
 -10834745.00046  -7603624.38743  22986001.8444                   22986001.3244
        40.7504         22.7504
  -1554968.59446  -1190296.56644  24375095.9384                   24375100.5704
        37.2504         27.5004
 -16402027.61747 -12755513.05145  21938907.3204                   21938907.5554
        45.7504         31.5004
 -19694159.01247 -15286634.26645  21563809.8834                   21563810.2464
        45.5004         33.0004
   2046265.98446   1631677.69144  23340460.8674                   23340461.3204
        40.2504         27.0004
 -20303108.87548 -15783520.39547  20847814.1334                   20847812.8874
        48.7504         45.2504
 -27364542.10948 -21303590.85548  19981591.0164                   19981591.8754
        49.0004         49.7504
 -19889345.14847 -15347606.77046  21573950.9614                   21573953.1294
        47.0004         41.5004
 25  7 15  1 14  0.0000000  0  9G02G16G09G01G04G28G31G03G26
   4496921.86346   3532771.56343  23832864.3134                   23832864.4264
        38.2504         20.5004
 -10946903.71146  -7691020.65643  22964658.2424                   22964658.2074
        40.2504         22.5004
  -1645598.17246  -1260916.88744  24357850.3204                   24357853.9344
        38.0004         29.5004
 -16344162.89147 -12710423.71945  21949918.8984                   21949919.0474
        44.5004         31.2504
 -19756676.60547 -15335349.25045  21551913.3284                   21551913.5554
        46.2504         32.2504
   2128609.40646   1695841.35544  23356130.4454                   23356130.8364
        41.2504         27.5004
 -20249086.23447 -15741424.85947  20858094.7734                   20858092.5004
        47.5004         44.5004
 -27408231.84448 -21337634.80148  19973276.6884                   19973277.3524
        49.7504         50.0004
 -19940511.45747 -15387476.59447  21564214.4774                   21564216.9144
        46.0004         42.0004
 25  7 15  1 14 30.0000000  0  9G02G16G09G01G04G28G31G03G26
   4571621.01246   3590978.55143  23847078.9064                   23847079.2464
        39.0004         21.7504
 -11058892.72346  -7778284.70743  22943346.9454                   22943347.3364
        40.7504         22.7504
  -1736202.12546  -1331517.26644  24340608.4924                   24340612.5044
        36.5004         28.0004
 -16285919.38347 -12665039.21545  21961001.9694                   21961001.8054
        45.7504         30.7504
 -19819054.46147 -15383955.34445  21540043.3524                   21540043.0704
        45.0004         31.7504
   2211084.69547   1760107.71544  23371825.0164                   23371825.3054
        42.0004         26.7504
 -20194660.02048 -15699014.83647  20868451.3054                   20868449.9104
        48.2504         45.0004
 -27451431.29748 -21371296.71148  19965056.0554                   19965056.9224
        49.7504         50.0004
 -19991123.96147 -15426914.87946  21554583.0314                   21554584.8874
        46.7504         41.7504
 25  7 15  1 15  0.0000000  0  9G02G16G09G01G04G28G31G03G26
   4646368.69946   3649223.31343  23861304.0634                   23861303.6024
        39.0004         22.5004
 -11170708.23846  -7865413.55143  22922069.5084                   22922069.3364
        41.2504         22.5004
  -1826780.44945  -1402097.66444  24323371.9064                   24323375.6954
        35.5004         25.5004
 -16227299.89547 -12619361.74645  21972157.3754                   21972156.9144
        45.2504         31.7504
 -19881292.50447 -15432452.50045  21528199.3444                   21528199.4694
        45.0004         31.7504
   2293689.64546   1824475.14144  23387544.0314                   23387545.0864
        41.5004         26.7504
 -20139833.04347 -15656292.53547  20878884.6644                   20878882.8014
        47.7504         45.2504
 -27494138.60248 -21404575.12148  19956929.3284                   19956930.1564
        49.5004         50.0004
 -20041180.57847 -15465920.00846  21545057.6024                   21545059.9304
        45.7504         41.5004
 25  7 15  1 15 30.0000000  0  9G02G16G09G01G04G28G31G03G26
   4721161.48846   3707503.24243  23875535.8444                   23875536.4344
        39.2504         22.2504
 -11282347.34846  -7952404.96143  22900824.7974                   22900825.8674
        40.7504         22.5004
  -1917333.70745  -1472658.46144  24306140.4144                   24306144.4614
        35.2504         27.5004
 -16168307.99247 -12573394.08245  21983382.9144                   21983382.8134
        44.2504         31.2504
 -19943391.32047 -15480841.15645  21516382.0634                   21516382.5274
        44.7504         33.0004
   2376421.45747   1888941.44544  23403288.0864                   23403287.8554
        42.7504         26.7504
 -20084608.17247 -15613260.19147  20889393.6174                   20889391.4264
        47.5004         44.0004
 -27536352.64548 -21437469.18748  19948896.1884                   19948897.2194
        49.7504         49.7504
 -20090680.07847 -15504491.00447  21535638.0704                   21535640.8714
        46.0004         42.2504
 25  7 15  1 16  0.0000000  0  9G02G16G09G01G04G28G31G03G26
   4795999.21146   3765818.18444  23889777.7664                   23889778.1254
        40.0004         24.5004
 -11393804.19146  -8039254.32843  22879615.0234                   22879615.8164
        40.0004         23.0004
  -2007859.36345  -1543197.80544  24288912.6564                   24288918.4144
        33.2504         27.7504
 -16108943.84847 -12527136.36345  21994679.3444                   21994679.5634
        44.0004         32.0004
 -20005348.05547 -15529119.09845  21504592.3054                   21504592.3674
        45.0004         32.5004
   2459280.65246   1953506.96944  23419055.7814                   23419056.1604
        41.2504         26.0004
 -20028985.59047 -15569917.93747  20899977.8754                   20899976.5004
        47.0004         44.7504
 -27578068.91848 -21469975.36748  19940957.6334                   19940958.7504
        49.7504         50.0004
 -20139617.81247 -15542624.26647  21526325.5634                   21526327.7114
        46.5004         42.0004
 25  7 15  1 16 30.0000000  0  9G02G16G09G01G04G28G31G03G26
   6446295.44546   5051763.11744  24203818.6724                   24203818.8164
        40.5004         24.5004
  -9929652.44946  -6898356.73443  23158233.5474                   23158234.1374
        41.0004         22.2504
   -522935.67645   -386114.23444  24571485.0554                   24571489.5354
        33.5004         26.7504
 -14473793.62547 -11252993.38745  22305838.1724                   22305838.6724
        45.5004         31.2504
 -18491742.03147 -14349685.80145  21792622.3364                   21792621.9104
        44.5004         33.0004
   4117680.97347   3245766.91444  23734639.2034                   23734638.6254
        42.0004         25.7504
 -18397551.09447 -14298670.29747  21210429.4534                   21210427.7624
        47.2504         44.5004
 -26043865.63748 -20274492.28548  20232906.8914                   20232908.0084
        49.0004         50.0004
 -18612571.59447 -14352718.10946  21816912.0164                   21816914.5944
        45.7504         41.5004
 25  7 15  1 17  0.0000000  0  9G02G16G09G01G04G28G31G03G26
   6521215.64846   5110142.32044  24218075.4844                   24218076.1604
        41.2504         26.0004
 -10040733.29747  -6984913.12143  23137096.1174                   23137096.3054
        42.0004         22.5004
   -613405.53145   -456610.07444  24554269.6414                   24554272.7464
        34.0004         27.0004
 -14413693.20747 -11206161.95345  22317274.8754                   22317275.5514
        46.2504         32.0004
 -18553414.15247 -14397741.97345  21780886.2974                   21780886.3244
        44.7504         33.7504
   4200788.87946   3310526.24644  23750454.1024                   23750454.4344
        41.5004         25.7504
 -18341140.50447 -14254714.02047  21221164.3364                   21221162.8794
        47.5004         44.2504
 -26084580.75048 -20306218.34448  20225159.1884                   20225159.8714
        49.5004         50.2504
 -18660379.67247 -14389971.13747  21807814.9694                   21807817.3834
        46.5004         42.0004
 25  7 15  1 17 30.0000000  0  9G02G16G09G01G04G28G31G03G26
   6596170.00846   5168548.11344  24232339.6644                   24232339.7734
        41.2504         25.0004
 -10151624.14847  -7071321.46543  23115994.1884                   23115994.1214
        42.0004         22.7504
   -703850.49245   -527086.48844  24537058.1884                   24537061.6254
        34.2504         28.0004
 -14353232.04347 -11159049.41445  22328780.8054                   22328780.5824
        45.5004         31.7504
 -18614946.85947 -14445689.52745  21769176.9924                   21769177.1844
        44.5004         33.5004
   4284014.88346   3375377.60944  23766290.7034                   23766291.1254
        40.0004         25.5004
 -18284343.00848 -14210456.25047  21231972.5084                   21231970.8914
        48.5004         44.5004
 -26124795.63748 -20337554.61748  20217506.7734                   20217507.3094
        49.5004         50.2504
 -18707623.20747 -14426784.24646  21798824.4304                   21798827.8954
        46.0004         41.7504
 25  7 15  1 18  0.0000000  0  9G02G16G09G01G04G28G31G03G26
   6671157.25046   5226979.56344  24246609.2664                   24246609.2504
        41.0004         25.5004
 -10262320.14147  -7157577.96144  23094928.8594                   23094929.4064
        42.2504         24.0004
   -794268.93445   -597542.27044  24519851.8984                   24519855.2194
        32.5004         28.5004
 -14292411.38747 -11111656.74645  22340354.1414                   22340354.3714
        46.2504         31.5004
 -18676338.41847 -14493527.07445  21757494.6724                   21757494.8874
        45.0004         33.5004
   4367358.47746   3440320.62143  23782150.0864                   23782150.7854
        39.0004         23.2504
 -18227159.14847 -14165897.41447  21242854.1094                   21242852.8634
        47.0004         44.2504
 -26164507.01248 -20368498.53948  20209949.6564                   20209950.6684
        49.7504         50.2504
 -18754298.66047 -14463154.71147  21789943.2894                   21789945.7854
        45.5004         42.0004
 25  7 15  1 18 30.0000000  0  9G02G16G09G01G04G28G31G03G26
   6746171.93046   5285432.36744  24260884.5554                   24260884.4774
        40.7504         26.0004
 -10372820.77047  -7243682.26644  23073901.6954                   23073901.6724
        42.5004         25.0004
   -884663.89145   -667979.75444  24502650.0164                   24502653.4694
        31.5004         25.5004
 -14231237.18747 -11063988.60245  22351995.8914                   22351996.0434
        44.0004         31.2504
 -18737591.72347 -14541256.89145  21745838.5084                   21745838.2734
        45.7504         33.2504
   4450814.52346   3505351.18444  23798032.1954                   23798031.8094
        40.0004         25.2504
 -18169594.96147 -14121042.22747  21253808.5784                   21253806.8954
        47.2504         44.0004
 -26203716.12148 -20399051.09448  20202488.7034                   20202489.6884
        50.0004         50.2504
 -18800407.26647 -14499083.46547  21781168.5314                   21781171.7074
        45.7504         42.5004
 25  7 15  1 19  0.0000000  0  9G02G16G09G01G04G28G31G03G26
   6821215.13346   5343907.41444  24275164.5004                   24275164.7544
        40.7504         25.5004
 -10483118.24647  -7329628.23043  23052912.6254                   23052912.3714
        42.2504         23.7504
   -975031.26645   -738395.74644  24485454.0234                   24485457.1174
        35.0004         28.0004
 -14169708.34847 -11016044.09845  22363704.0944                   22363704.3444
        44.5004         31.0004
 -18798702.72347 -14588875.82045  21734209.2664                   21734209.3204
        45.2504         34.2504
   4534384.93446   3570470.90243  23813934.2274                   23813935.0594
        38.5004         23.7504
 -18111649.13347 -14075889.67247  21264835.3054                   21264833.4884
        46.7504         44.0004
 -26242417.33248 -20429207.87148  20195124.2344                   20195125.0864
        48.7504         50.2504
 -18845943.28147 -14534566.05946  21772503.9304                   21772505.5124
        45.7504         41.7504
 25  7 15  1 19 30.0000000  0  9G02G16G09G01G04G28G31G03G26
   6896281.05146   5402400.16044  24289449.4224                   24289449.5944
        40.5004         25.0004
 -10593212.53147  -7415415.89144  23031962.4924                   23031962.0554
        42.2504         25.5004
  -1065374.23446   -808792.73045  24468262.5394                   24468265.7894
        36.0004         30.5004
 -14107830.99247 -10967828.03545  22375478.4924                   22375479.0904
        45.5004         30.5004
 -18859674.41447 -14636386.21945  21722607.0314                   21722607.0824
        45.7504         33.5004
   4618064.43046   3635675.60944  23829858.2584                   23829859.1414
        39.0004         24.7504
 -18053327.18748 -14030444.01647  21275933.5394                   21275931.7154
        48.7504         44.0004
 -26280612.05948 -20458969.98448  20187855.5554                   20187856.1994
        49.5004         50.2504
 -18890907.99647 -14569603.46547  21763946.6954                   21763949.4414
        45.5004         42.0004
 25  7 15  1 20  0.0000000  0  9G02G16G09G01G04G28G31G03G26
   6971365.23446   5460907.09443  24303737.6024                   24303738.1564
        39.7504         23.5004
 -10703101.32447  -7501043.42644  23011051.2194                   23011050.8324
        43.0004         25.2504
  -1155694.64545   -879172.11745  24451073.7034                   24451078.0124
        35.5004         31.0004
 -14045609.85947 -10919344.07845  22387318.7894                   22387319.3754
        43.5004         30.7504
 -18920508.54347 -14683789.40645  21711030.7584                   21711030.3404
        46.0004         32.5004
   4701849.04346   3700962.30544  23845801.8444                   23845803.4224
        38.5004         24.0004
 -17994633.76247 -13984708.89847  21287102.7344                   21287101.2704
        47.5004         44.5004
 -26318300.46948 -20488337.57048  20180683.8834                   20180684.7384
        51.0004         50.2504
 -18935301.56647 -14604195.83247  21755499.1024                   21755501.1294
        46.5004         42.0004
 25  7 15  1 20 30.0000000  0  9G02G16G09G01G04G28G31G03G26
   7046472.50046   5519432.02343  24318029.6094                   24318030.7234
        38.5004         22.2504
 -10812774.44147  -7586502.89144  22990180.6884                   22990180.8164
        42.5004         25.7504
  -1245985.08646   -949528.16045  24433891.8984                   24433895.7304
        37.2504         31.5004
 -13983040.54747 -10870588.83245  22399225.1884                   22399226.3054
        44.5004         31.0004
 -18981197.60947 -14731079.56245  21699481.6724                   21699481.8554
        46.2504         33.5004
   4785744.12546   3766335.01243  23861767.4844                   23861767.4654
        39.7504         23.2504
 -17935563.96948 -13938680.51647  21298343.0784                   21298341.6724
        48.5004         44.5004
 -26355473.56248 -20517303.60248  20173609.8204                   20173610.8484
        49.5004         50.5004
 -18979114.86347 -14638336.04747  21747162.2974                   21747164.2734
        46.2504         42.0004
 25  7 15  1 21  0.0000000  0  9G02G16G09G01G04G28G31G03G26
   7121603.00046   5577975.05943  24332327.0634                   24332327.0234
        38.5004         21.5004
 -10922224.98447  -7671788.91044  22969353.0234                   22969353.3484
        42.5004         25.5004
  -1336242.20346  -1019858.28945  24416716.5554                   24416720.3444
        38.0004         32.7504
 -13920122.83647 -10821562.09445  22411198.3444                   22411198.8484
        44.0004         30.0004
 -19041738.33247 -14778254.13345  21687961.3284                   21687961.3594
        46.5004         34.2504
   4869750.75746   3831794.61243  23877752.9534                   23877753.5514
        40.2504         22.5004
 -17876117.35547 -13892358.50847  21309655.3204                   21309653.5554
        47.5004         44.0004
 -26392126.47748 -20545864.32048  20166635.2974                   20166636.1724
        50.5004         50.2504
 -19022343.07447 -14672020.34847  21738935.5554                   21738937.9534
        46.0004         42.0004
 25  7 15  1 21 30.0000000  0  9G02G16G09G01G04G28G31G03G26
   7196750.22346   5636531.15243  24346626.0554                   24346627.8054
        37.5004         21.0004
 -11031454.01247  -7756902.34044  22948567.5004                   22948567.6094
        42.5004         25.2504
  -1426470.26646  -1090165.78145  24399547.0784                   24399550.3444
        38.2504         32.7504
 -13856863.75047 -10772269.37145  22423236.2734                   22423236.7704
        45.0004         30.0004
 -19102134.66447 -14825316.18445  21676467.9774                   21676468.3634
        45.5004         33.7504
   4953862.63747   3897336.25443  23893759.3444                   23893759.8244
        42.0004         22.7504
 -17816300.46547 -13845747.97347  21321038.5084                   21321036.0664
        47.5004         44.0004
 -26428261.72748 -20574021.64548  20159759.1564                   20159759.9064
        50.5004         50.5004
 -19064988.55147 -14705250.55947  21730820.5944                   21730822.8404
        46.2504         42.0004
 25  7 15  1 22  0.0000000  0  9G02G16G09G01G04G28G31G03G26
   7271911.38746   5695098.09043  24360929.5084                   24360930.8324
        36.0004         20.7504
 -11140457.36747  -7841839.91844  22927824.8594                   22927824.7624
        42.2504         25.0004
  -1516669.11746  -1160450.50045  24382382.1884                   24382386.2814
        39.2504         33.7504
 -13793266.32447 -10722712.98845  22435338.4614                   22435338.8754
        44.7504         30.0004
 -19162386.51247 -14872265.64545  21665002.5084                   21665002.7304
        46.2504         34.0004
   5038077.81646   3962958.46543  23909784.5474                   23909785.7114
        40.7504         22.5004
 -17756116.37147 -13798851.29747  21332490.5784                   21332489.4844
        47.5004         44.0004
 -26463877.71148 -20601774.35548  20152981.5004                   20152982.4614
        49.5004         50.0004
 -19107049.74647 -14738025.48847  21722816.5944                   21722818.6604
        45.7504         42.0004
 25  7 15  1 22 30.0000000  0  9G02G16G09G01G04G28G31G03G26
   7347082.66846   5753672.90643  24375234.2274                   24375235.6134
        36.5004         19.5004
 -11249232.86347  -7926599.94544  22907125.6954                   22907125.2234
        42.0004         26.0004
  -1606839.86746  -1230713.33645  24365224.4614                   24365227.4694
        40.5004         34.7504
 -13729334.55947 -10672896.07844  22447504.3754                   22447504.5944
        45.0004         29.5004
 -19222494.75447 -14919103.21145  21653564.0394                   21653564.9384
        46.2504         34.2504
   5122393.13746   4028658.63343  23925830.1954                   23925830.5434
        40.5004         23.0004
 -17695568.59048 -13751671.23847  21344013.0004                   21344011.2074
        48.5004         44.2504
 -26498973.89548 -20629122.01648  20146302.6484                   20146303.7304
        49.5004         50.2504
 -19148526.05147 -14770344.66447  21714923.3594                   21714925.6024
        46.2504         42.2504
 25  7 15  1 23  0.0000000  0  9G02G16G09G01G04G28G31G03G26
   7422261.07446   5812253.20743  24389540.2344                   24389541.4494
        37.5004         19.0004
 -11357777.86747  -8011180.37144  22886469.6334                   22886470.2304
        42.7504         26.0004
  -1696983.14846  -1300954.76245  24348069.6564                   24348073.8714
        39.5004         34.5004
 -13665072.18447 -10622821.55545  22459733.5084                   22459733.5944
        45.2504         30.0004
 -19282460.02347 -14965829.38345  21642153.3914                   21642152.9734
        46.2504         34.0004
   5206805.89546   4094434.75043  23941893.4774                   23941893.2424
        40.5004         22.7504
 -17634660.42248 -13704210.35247  21355603.9694                   21355602.0394
        49.0004         44.2504
 -26533549.39848 -20656063.96148  20139723.2584                   20139724.7274
        49.7504         50.5004
 -19189416.55147 -14802207.38747  21707142.3134                   21707144.9414
        45.5004         42.2504
 25  7 15  1 23 30.0000000  0 10G02G16G09G06G01G04G28G31G03G26
   7497442.72746   5870836.13743  24403847.5864                   24403848.1844
        38.0004         19.0004
 -11466089.63747  -8095579.05144  22865858.9924                   22865858.5434
        42.0004         26.0004
  -1787099.63346  -1371175.30545  24330921.5234                   24330925.1254
        39.5004         33.2504
   3044252.40656   2391440.67254  25544011.8754                   25544015.1764
        37.0004         26.0004
 -13600482.85947 -10572492.26644  22472024.5944                   22472024.6414
        44.5004         29.5004
 -19342282.86347 -15012444.56645  21630769.4614                   21630769.3674
        46.0004         33.7504
   5291313.20346   4160284.52044  23957974.2034                   23957975.3134
        39.2504         25.2504
 -17573395.00448 -13656471.09847  21367261.8834                   21367260.6134
        48.0004         44.0004
 -26567603.40248 -20682599.54348  20133243.2034                   20133243.9844
        50.0004         50.7504
 -19229720.46147 -14833612.99647  21699472.4614                   21699475.0984
        45.5004         42.0004
 25  7 15  1 24  0.0000000  0 10G02G16G09G06G01G04G28G31G03G26
   7572610.29746   5929408.04343  24418151.4384                   24418152.2504
        38.0004         18.2504
 -11574179.53147  -8179804.83644  22845289.7894                   22845290.1134
        42.7504         26.0004
  -1877204.04346  -1441386.44545  24313775.5164                   24313777.9024
        39.0004         32.5004
   2964733.80946   2329478.20344  25528879.6484                   25528883.6604
        37.2504         28.0004
 -13535584.53147 -10521922.20344  22484374.1254                   22484374.7114
        44.5004         28.5004
 -19401978.00447 -15058960.24245  21619409.9694                   21619409.5664
        45.5004         34.0004
   5375898.31346   4226194.89843  23974070.4304                   23974071.4064
        37.5004         23.2504
 -17511790.31247 -13608467.47347  21378984.5164                   21378983.4144
        47.2504         44.0004
 -26601149.18748 -20708739.11348  20126859.5944                   20126860.3954
        50.0004         50.7504
 -19269451.04747 -14864571.87147  21691912.2114                   21691914.7194
        45.0004         42.5004
 25  7 15  1 24 30.0000000  0 10G02G16G09G06G01G04G28G31G03G26
   7647753.79746   5987961.20743  24432450.6884                   24432451.5394
        38.7504         18.2504
 -11682051.27746  -8263860.64544  22824762.2424                   22824762.2894
        41.7504         25.7504
  -1967303.78546  -1511593.94545  24296630.5004                   24296632.1684
        39.0004         33.0004
   2885614.94546   2267827.16444  25513823.4774                   25513827.5084
        38.5004         27.2504
 -13470387.47747 -10471119.36745  22496780.5164                   22496781.0234
        44.7504         30.0004
 -19461552.59447 -15105381.97745  21608072.8364                   21608073.1844
        45.0004         34.0004
   5460551.73846   4292158.53544  23990179.7584                   23990180.1724
        38.2504         24.2504
 -17449856.07047 -13560207.04347  21390770.5864                   21390769.0004
        46.7504         43.7504
 -26634192.61748 -20734487.23848  20120571.7894                   20120572.6564
        49.0004         50.2504
 -19308614.20747 -14895088.60547  21684459.5004                   21684462.1954
        46.0004         42.5004
 25  7 15  1 25  0.0000000  0 10G02G16G09G06G01G04G28G31G03G26
   7722870.76246   6046493.66843  24446745.0704                   24446746.4184
        39.2504         19.2504
 -11789701.34447  -8347743.71144  22804277.3914                   22804277.1764
        42.5004         26.5004
  -2057398.62946  -1581797.60945  24279485.0084                   24279487.8134
        37.7504         31.7504
   2806897.98446   2206489.27044  25498844.8914                   25498848.7234
        37.2504         27.2504
 -13404894.61347 -10420086.02044  22509243.7664                   22509243.7344
        44.0004         29.0004
 -19521006.36747 -15151709.57445  21596759.2504                   21596759.5314
        45.5004         34.5004
   5545271.69946   4358174.03144  24006300.8754                   24006302.2734
        38.0004         25.7504
 -17387594.84447 -13511691.82847  21402618.3134                   21402617.0394
        46.5004         44.0004
 -26666731.96948 -20759842.56648  20114379.3674                   20114380.6954
        49.7504         50.2504
 -19347208.16847 -14925161.78147  21677115.6954                   21677117.7894
        46.0004         42.0004
 25  7 15  1 25 30.0000000  0 10G02G16G09G06G01G04G28G31G03G26
   7797963.54346   6105007.31343  24461034.9774                   24461036.0664
        39.2504         22.2504
 -11897121.02347  -8431447.28144  22783835.5234                   22783835.7154
        42.5004         26.5004
  -2147483.38345  -1651993.47344  24262342.4384                   24262345.4384
        35.7504         29.2504
   2728589.86746   2145470.05944  25483943.3134                   25483946.5004
        39.0004         28.0004
 -13339103.83247 -10368820.53544  22521763.3834                   22521763.6914
        44.2504         29.2504
 -19580334.09047 -15197938.94145  21585469.8054                   21585469.9304
        44.5004         32.7504
   5630061.16046   4424243.64544  24022435.3754                   24022436.5784
        40.0004         25.0004
 -17325004.02047 -13462919.78147  21414528.6644                   21414527.6724
        47.7504         44.2504
 -26698760.73848 -20784800.03548  20108284.4304                   20108285.7274
        49.5004         50.2504
 -19385226.53547 -14954786.48847  21669880.9774                   21669883.4614
        47.0004         42.0004
 25  7 15  1 26  0.0000000  0 10G02G16G09G06G01G04G28G31G03G26
   7873033.71146   6163503.30943  24475320.6414                   24475321.6684
        40.5004         22.7504
 -12004302.53947  -8514965.22344  22763439.4534                   22763439.3714
        42.5004         25.7504
  -2237553.88746  -1722178.19544  24245202.7034                   24245206.3164
        37.5004         29.5004
   2650696.84446   2084774.10244  25469120.1254                   25469124.1764
        36.2504         24.5004
 -13273014.03547 -10317322.05144  22534339.6884                   22534339.7974
        43.5004         29.7504
 -19639531.36347 -15244066.67645  21574204.8204                   21574205.0234
        45.0004         34.0004
   5714922.36346   4490369.16444  24038584.7814                   24038585.1414
        40.0004         26.0004
 -17262082.38347 -13413889.96547  21426502.4614                   21426501.0084
        46.5004         44.0004
 -26730273.21548 -20809355.19948  20102287.8364                   20102288.8674
        49.0004         50.0004
 -19422663.58247 -14983958.18447  21662756.4774                   21662759.0824
        45.7504         42.0004
 25  7 15  1 26 30.0000000  0 10G02G16G09G06G01G04G28G31G03G26
   7948082.79746   6221982.87143  24489602.6564                   24489603.2774
        40.7504         20.5004
 -12111238.83247  -8598292.11344  22743090.6884                   22743089.9534
        43.0004         26.2504
  -2327605.89146  -1792348.50445  24228066.1644                   24228069.4734
        37.5004         30.5004
   2573225.08646   2024406.57044  25454377.0234                   25454380.8874
        37.0004         26.5004
 -13206624.06247 -10265589.66844  22546973.9534                   22546973.8634
        42.7504         29.7504
 -19698593.91447 -15290089.43445  21562965.2974                   21562965.3324
        44.5004         33.7504
   5799857.44546   4556552.29344  24054747.5004                   24054748.0744
        41.0004         26.7504
 -17198828.57047 -13364601.31247  21438539.5474                   21438538.0704
        46.5004         43.7504
 -26761263.81248 -20833503.72748  20096390.5554                   20096391.6764
        48.5004         50.2504
 -19459513.80947 -15012672.61347  21655744.2114                   21655746.8714
        46.7504         42.5004
 25  7 15  1 27  0.0000000  0 10G02G16G09G06G01G04G28G31G03G26
   8023109.78546   6280445.20343  24503879.5864                   24503880.8594
        40.0004         21.7504
 -12217924.35947  -8681423.60544  22722789.3914                   22722788.1024
        43.0004         26.5004
  -2417637.59846  -1862503.00844  24210934.1724                   24210936.7344
        38.5004         29.5004
   2496178.34046   1964370.21144  25439716.5784                   25439720.2974
        38.0004         27.7504
 -13139935.30147 -10213624.45744  22559664.0394                   22559664.5164
        44.5004         29.5004
 -19757519.90247 -15336005.78145  21551752.1724                   21551752.1564
        45.5004         33.7504
   5884866.03946   4622792.67644  24070923.9304                   24070924.8554
        41.5004         25.5004
 -17135243.02047 -13315054.16047  21450639.0474                   21450637.7664
        47.5004         43.5004
 -26791729.43448 -20857243.16448  20090593.3054                   20090594.0354
        49.0004         50.0004
 -19495774.10247 -15040927.36747  21648844.6644                   21648846.5784
        46.5004         42.5004
 25  7 15  1 27 30.0000000  0 10G02G16G09G06G01G04G28G31G03G26
   8098114.18446   6338889.94143  24518153.0554                   24518154.6844
        38.7504         21.2504
 -12324353.38347  -8764355.20744  22702535.7664                   22702535.3444
        43.0004         27.0004
  -2507646.93446  -1932640.07044  24193805.3364                   24193808.1994
        38.0004         28.5004
   2419560.46146   1904668.03944  25425137.3284                   25425139.8094
        37.7504         28.7504
 -13072948.70347 -10161427.16844  22572411.2114                   22572411.7854
        45.0004         29.0004
 -19816306.97347 -15381813.88345  21540565.5784                   21540565.7034
        45.5004         33.5004
   5969948.41447   4689090.55944  24087114.7734                   24087115.7894
        42.0004         25.7504
 -17071326.55547 -13265249.14547  21462802.1644                   21462800.8164
        47.0004         44.0004
 -26821666.49648 -20880570.75048  20084896.4064                   20084897.5784
        49.0004         50.2504
 -19531441.06247 -15068719.79347  21642058.0084                   21642059.6214
        47.0004         42.7504
 25  7 15  1 28  0.0000000  0 10G02G16G09G06G01G04G28G31G03G26
   8173092.55146   6397314.37543  24532421.2584                   24532423.0204
        40.0004         21.7504
 -12430523.36347  -8847084.97744  22682332.2584                   22682331.8714
        42.5004         26.0004
  -2597634.36346  -2002760.10544  24176681.7114                   24176683.9534
        37.0004         28.7504
   2343372.77046   1845301.00444  25410638.6644                   25410642.5314
        38.0004         29.2504
 -13005667.91847 -10109000.64844  22585214.1884                   22585214.7584
        44.7504         29.2504
 -19874955.63347 -15427514.12145  21529405.3524                   21529405.0084
        45.0004         34.0004
   6055101.86347   4755443.82844  24103319.1414                   24103319.8834
        42.0004         25.5004
 -17007082.47747 -13215188.87947  21475027.5704                   21475025.9534
        45.7504         43.5004
 -26851074.24648 -20903485.88348  20079300.2274                   20079301.1524
        50.0004         50.2504
 -19566513.93747 -15096049.28547  21635383.3054                   21635385.6214
        47.0004         43.2504
 25  7 15  1 28 30.0000000  0 10G02G16G09G06G01G04G28G31G03G26
   8248041.65246   6455716.03144  24546682.8284                   24546684.6954
        39.5004         24.0004
 -12536431.39847  -8929610.62544  22662178.9534                   22662177.9774
        43.2504         26.7504
  -2687600.62945  -2072863.58243  24159560.6804                   24159563.7194
        34.0004         22.7504
   2267616.32846   1786270.03944  25396222.2734                   25396225.8714
        36.5004         28.2504
 -12938096.80547 -10056347.90644  22598072.7814                   22598073.1484
        45.2504         29.2504
 -19933466.47347 -15473106.97345  21518270.6334                   21518270.5394
        45.5004         33.5004
   6140323.64146   4821850.34443  24119535.8364                   24119537.1644
        41.2504         22.5004
 -16942514.18047 -13164875.93747  21487314.5634                   21487312.8554
        47.5004         43.5004
 -26879952.12548 -20925988.12948  20073805.1644                   20073805.9414
        49.5004         50.2504
 -19600992.20747 -15122915.45347  21628821.9534                   21628824.1914
        46.7504         42.2504
 25  7 15  1 29  0.0000000  0 10G02G16G09G06G01G04G28G31G03G26
   8322959.26646   6514093.11743  24560939.8524                   24560941.9694
        40.5004         22.2504
 -12642074.05547  -9011929.52344  22642075.3914                   22642074.7274
        43.0004         26.0004
  -2777545.55946  -2142950.46144  24142445.3674                   24142447.4964
        36.0004         27.0004
   2192293.33245   1727576.73844  25381888.7034                   25381892.9924
        34.2504         28.2504
 -12870238.31647 -10003471.23844  22610985.7974                   22610986.4574
        42.5004         29.0004
 -19991839.14847 -15518592.16845  21507162.6804                   21507162.8914
        45.7504         33.5004
   6225612.00047   4888308.72343  24135766.4304                   24135766.6134
        42.0004         23.0004
 -16877624.01247 -13114312.20747  21499662.7974                   21499660.6484
        46.0004         43.2504
 -26908298.56248 -20948076.26248  20068410.8594                   20068411.7734
        48.5004         50.0004
 -19634874.45347 -15149317.18747  21622374.2664                   21622376.4924
        47.0004         42.5004
 25  7 15  1 29 30.0000000  0 10G02G16G09G06G01G04G28G31G03G26
   8397850.25046   6572449.44543  24575191.1254                   24575193.3484
        39.7504         22.5004
 -12747439.73447  -9094032.55944  22622024.9144                   22622024.4494
        43.2504         26.2504
  -2867460.97346  -2213014.28544  24125334.8054                   24125338.2814
        36.7504         29.5004
   2117413.59845   1669228.99244  25367639.7504                   25367643.2234
        35.2504         27.0004
 -12802087.46547  -9950366.74644  22623954.5634                   22623955.1724
        44.5004         28.7504
 -20050065.44947 -15563963.30145  21496082.8204                   21496082.8014
        45.7504         33.5004
   6310972.95346   4954823.70343  24152010.0864                   24152010.1214
        41.5004         22.0004
 -16812406.66847 -13063493.53547  21512073.2344                   21512071.3524
        47.5004         43.2504
 -26936104.20348 -20969742.98448  20063119.7274                   20063120.4614
        49.0004         50.2504
 -19668151.40647 -15175247.26247  21616041.8054                   21616044.0164
        46.5004         42.2504
 25  7 15  1 30  0.0000000  0 10G02G16G09G06G01G04G28G31G03G26
   8472712.51646   6630783.41843  24589436.9144                   24589439.3834
        38.7504         22.0004
 -12852524.59447  -9175916.80144  22602027.8674                   22602027.3554
        43.0004         26.2504
  -2957346.78146  -2283055.09444  24108230.4064                   24108232.9774
        37.5004         29.7504
   2042979.10245   1611228.10244  25353476.6884                   25353479.5904
        34.5004         27.0004
 -12733647.30147  -9897036.82044  22636978.0084                   22636978.6054
        44.2504         29.2504
 -20108145.07047 -15609220.14845  21485030.4614                   21485030.7194
        46.0004         34.5004
   6396404.62146   5021393.73043  24168267.2114                   24168267.4064
        40.0004         22.5004
 -16746864.82847 -13012422.01247  21524545.5004                   21524543.9804
        46.2504         43.0004
 -26963367.65248 -20990987.23448  20057931.7894                   20057932.3284
        49.0004         50.2504
 -19700821.82047 -15200704.69947  21609825.2424                   21609827.1844
        46.0004         42.5004
 25  7 15  1 30 30.0000000  0 10G02G16G09G06G01G04G28G31G03G26
   8547545.73046   6689094.68843  24603677.1644                   24603679.7584
        36.2504         21.5004
 -12957323.22347  -9257577.98044  22582085.6414                   22582084.6524
        43.2504         26.5004
  -3047200.37545  -2353070.81645  24091130.9304                   24091134.2664
        35.2504         30.0004
   1968994.17245   1553577.53544  25339396.7814                   25339399.6804
        34.5004         26.5004
 -12664918.35947  -9843481.86744  22650057.2584                   22650057.8134
        43.0004         29.0004
 -20166075.34847 -15654360.60545  21474007.0864                   21474006.6334
        45.5004         34.2504
   6481907.68446   5088019.39543  24184538.2664                   24184538.8674
        39.2504         21.7504
 -16680998.60547 -12961097.71947  21537079.2974                   21537077.8874
        46.0004         42.7504
 -26990085.07848 -21011806.00448  20052847.3834                   20052848.2734
        49.5004         50.0004
 -19732881.94147 -15225686.59447  21603724.2734                   21603726.5044
        46.0004         42.5004
 25  7 15  1 31  0.0000000  0 10G02G16G09G06G01G04G28G31G03G26
   8622339.55946   6747375.30943  24617910.9614                   24617912.9694
        37.0004         21.5004
 -13061839.46547  -9339019.13344  22562197.0004                   22562196.2384
        43.0004         26.7504
  -3137029.31246  -2423067.32444  24074038.4304                   24074040.6174
        37.2504         29.7504
   1895453.09445   1496272.82444  25325402.0084                   25325406.3094
        33.5004         26.2504
 -12595911.37547  -9789710.27044  22663188.2424                   22663189.6884
        42.5004         28.5004
 -20223863.66847 -15699390.45745  21463010.3754                   21463010.2234
        44.5004         33.5004
   6567472.46146   5154693.18043  24200820.2344                   24200820.7894
        40.0004         21.0004
 -16614818.34847 -12909528.71947  21549672.9534                   21549671.3324
        46.5004         42.5004
 -27016262.85548 -21032204.27348  20047865.8984                   20047866.9224
        49.0004         50.2504
 -19764338.26647 -15250197.98847  21597738.3834                   21597740.8914
        46.5004         43.0004
 25  7 15  1 31 30.0000000  0 10G02G16G09G06G01G04G28G31G03G26
   8697097.13346   6805627.63343  24632137.6024                   24632139.1804
        37.0004         20.2504
 -13166064.43747  -9420233.33244  22542363.2504                   22542362.1914
        43.0004         28.7504
  -3226827.84046  -2493040.12145  24056949.0314                   24056952.1054
        36.5004         30.7504
   1822363.12945   1439319.64844  25311492.6804                   25311496.7854
        34.5004         26.5004
 -12526623.84447  -9735720.05944  22676373.7584                   22676374.4224
        43.5004         28.7504
 -20281504.28547 -15744305.21145  21452041.3674                   21452041.2664
        45.0004         34.5004
   6653102.64546   5221417.92643  24217115.3674                   24217116.0554
        40.0004         21.5004
 -16548321.07047 -12857712.69947  21562327.2344                   21562325.1914
        46.2504         42.7504
 -27041894.10548 -21052176.67648  20042988.5784                   20042989.3954
        49.5004         50.2504
 -19795184.04347 -15274233.65247  21591868.2814                   21591871.1954
        46.0004         42.7504
 25  7 15  1 32  0.0000000  0 10G02G16G09G06G01G04G28G31G03G26
   8771815.75046   6863849.65643  24646355.3054                   24646358.0824
        37.2504         20.0004
 -13269994.66447  -9501217.84044  22522585.7114                   22522585.3554
        43.2504         27.7504
  -3316596.28946  -2562989.47345  24039867.4064                   24039870.1484
        37.7504         30.0004
                                  25297671.1174                   25297675.2114
        35.5004         29.0004
 -12457059.09047  -9681513.84444  22689611.5084                   22689612.2774
        44.2504         29.0004
 -20338997.15247 -15789104.84845  21441101.1414                   21441101.0904
        45.5004         34.0004
   6738796.18046   5288192.06343  24233422.1414                   24233421.8284
        40.0004         21.0004
 -16481509.62947 -12805651.85547  21575041.0314                   21575039.4844
        46.2504         43.0004
 -27066977.78948 -21071722.40248  20038214.9614                   20038215.9774
        49.0004         50.0004
 -19825418.38347 -15297792.86347  21586115.0634                   21586117.5434
        47.2504         43.2504
 25  7 15  1 32 30.0000000  0 10G02G16G09G06G01G04G28G31G03G26
   8846490.70746   6922037.66043  24660566.3594                   24660568.2854
        36.5004         19.5004
 -13373628.53147  -9581971.42244  22502864.5704                   22502864.2734
        42.5004         27.5004
  -3406336.15646  -2632916.57044  24022790.8284                   24022792.6254
        37.0004         29.2504
   1677541.66445   1326471.79344  25283935.9384                   25283938.3714
        34.2504         28.2504
 -12387222.08247  -9627095.46944  22702901.0944                   22702901.8484
        42.0004         28.5004
 -20396343.96547 -15833790.66045  21430188.1174                   21430188.3794
        46.0004         33.5004
   6824549.18046   5355012.50843  24249740.7034                   24249741.5744
        40.7504         23.0004
 -16414388.44147 -12753349.68447  21587813.7734                   21587811.7074
        45.7504         42.5004
 -27091514.54748 -21090841.96148  20033546.1334                   20033547.1844
        48.5004         50.2504
 -19855042.09047 -15320876.25447  21580477.9924                   21580480.5314
        47.0004         43.2504
 25  7 15  1 33  0.0000000  0 10G02G16G09G06G01G04G28G31G03G26
   8921116.46946   6980187.27743  24674768.2664                   24674769.3244
        36.0004         18.2504
 -13476966.03547  -9662494.07844  22483201.0234                   22483199.7774
        43.7504         27.0004
  -3496050.62946  -2702823.85244  24005716.3914                   24005720.4104
        36.0004         27.5004
   1605808.57045   1270575.87144  25270285.2424                   25270288.0044
        33.2504         26.7504
 -12317119.14146  -9572469.85944  22716241.5784                   22716241.9964
        41.7504         28.2504
 -20453547.58247 -15878364.91445  21419302.4844                   21419302.3554
        45.2504         33.5004
   6910356.64146   5421875.35543  24266069.0554                   24266069.9574
        40.7504         22.7504
 -16346963.48847 -12700810.78947  21600644.3134                   21600642.5124
        46.0004         42.2504
 -27115506.34048 -21109536.86348  20028980.5314                   20028981.4104
        48.5004         50.0004
 -19884057.23047 -15343485.43747  21574956.3984                   21574958.7734
        46.0004         42.5004
 25  7 15  1 33 30.0000000  0 10G02G16G09G06G01G04G28G31G03G26
   8995690.79746   7038296.79743  24688958.3594                   24688960.8054
        36.0004         19.2504
 -13580002.85547  -9742782.43744  22463592.6484                   22463592.0704
        43.0004         27.5004
  -3585739.05146  -2772710.82045  23988650.3444                   23988653.2504
        37.0004         31.0004
   1534529.18455   1215033.55554  25256721.4614                   25256724.4304
        30.2504         25.2504
 -12246752.69547  -9517638.93044  22729631.6174                   22729632.4144
        42.0004         27.5004
 -20510607.23447 -15922826.96545  21408444.5554                   21408444.7424
        46.2504         34.5004
   6996217.35246   5488779.76643  24282407.4304                   24282408.9344
        40.5004         22.2504
 -16279236.28947 -12648036.37947  21613532.2344                   21613531.1954
        45.2504         43.0004
 -27138951.34048 -21127805.70748  20024518.9774                   20024520.0634
        50.0004         50.5004
 -19912462.22347 -15365619.18747  21569551.4844                   21569553.5314
        47.2504         43.0004
 25  7 15  1 34  0.0000000  0 10G02G16G09G06G01G04G28G31G03G26
   9070215.83646   7096367.95743  24703140.3444                   24703143.1174
        38.2504         20.2504
 -13682731.48047  -9822830.63744  22444044.3834                   22444043.9734
        43.0004         27.0004
  -3675396.84046  -2842573.93044  23971589.7734                   23971591.3634
        36.7504         29.5004
   1463709.59855   1159849.53154  25243244.1414                   25243248.1484
        32.7504         26.5004
 -12176121.54347  -9462601.72744  22743072.2894                   22743073.1804
        43.0004         27.5004
 -20567518.29347 -15967173.22345  21397615.0784                   21397614.9224
        46.0004         34.2504
   7082133.69946   5555727.45743  24298757.9534                   24298757.8054
        41.2504         23.0004
 -16211205.95347 -12595025.76247  21626478.4694                   21626476.8794
        47.2504         43.5004
 -27161844.00848 -21145644.16048  20020162.7274                   20020163.6604
        49.2504         50.2504
 -19940251.69547 -15387273.30147  21564263.0164                   21564265.2894
        47.0004         43.0004
 25  7 15  1 34 30.0000000  0 10G02G16G09G06G01G04G28G31G03G26
   9144688.32046   7154398.19143  24717311.9694                   24717314.8404
        38.0004         20.2504
 -13785148.74247  -9902636.21544  22424554.4774                   22424554.6214
        42.0004         27.5004
  -3765024.28946  -2912413.42645  23954533.3054                   23954536.1414
        38.5004         30.5004
   1393351.12945   1105024.79744  25229854.2194                   25229859.5164
        32.2504         26.5004
 -12105229.20346  -9407361.01644  22756562.8754                   22756563.5864
        41.7504         27.5004
 -20624280.90247 -16011403.81245  21386812.9224                   21386812.9844
        47.0004         34.0004
   7168103.51647   5622716.87143  24315116.2814                   24315118.0514
        42.0004         23.2504
 -16142875.25047 -12541781.10547  21639480.8754                   21639479.5634
        47.2504         42.2504
 -27184183.60948 -21163051.64148  20015911.5704                   20015912.5824
        49.5004         50.0004
 -19967425.03947 -15408447.30947  21559092.3674                   21559094.1764
        47.5004         43.2504
 25  7 15  1 35  0.0000000  0 10G02G16G09G06G01G04G28G31G03G26
   9219101.46146   7212382.16443  24731472.9144                   24731475.5084
        38.0004         20.7504
 -13887255.23847  -9982199.64144  22405124.6644                   22405124.0004
        43.5004         28.0004
  -3854625.74646  -2982232.66044  23937482.1484                   23937484.8594
        36.5004         28.7504
   1323451.13345   1050557.33644  25216553.5394                   25216557.1294
        32.7504         25.0004
 -12034083.08646  -9351922.56644  22770101.1724                   22770102.2624
        41.2504         26.0004
 -20680899.14547 -16055521.90645  21376039.0234                   21376039.2934
        46.7504         34.0004
   7254120.60246   5689743.09443  24331485.4924                   24331486.0004
        40.5004         22.7504
 -16074250.99647 -12488307.68447  21652540.1804                   21652538.5204
        47.7504         43.0004
 -27205973.30948 -21180030.63348  20011765.1174                   20011766.4414
        49.5004         50.5004
 -19993985.62147 -15429143.86347  21554037.8594                   21554040.2854
        47.0004         43.2504
 25  7 15  1 35 30.0000000  0 10G02G16G09G06G01G04G28G31G03G26
   9293457.87946   7270321.91043  24745623.3204                   24745625.2304
        40.5004         20.5004
 -13989042.49647 -10061514.32844  22385755.5004                   22385754.4104
        43.5004         27.5004
  -3944195.60946  -3052027.27345  23920437.8364                   23920440.6374
        38.5004         31.5004
   1254016.62145    996452.55544  25203339.7194                   25203343.4734
        31.7504         24.5004
 -11962681.03147  -9296284.66844  22783688.5704                   22783689.4384
        42.5004         27.5004
 -20737367.46547 -16099523.18045  21365293.3204                   21365293.6174
        46.2504         34.0004
   7340188.36746   5756808.79743  24347863.7734                   24347865.2234
        40.5004         23.7504
 -16005330.52748 -12434603.46547  21665655.1334                   21665653.9924
        48.2504         43.0004
 -27227206.67648 -21196576.12148  20007724.7274                   20007725.8554
        50.0004         50.2504
 -20019927.24247 -15449358.09447  21549101.5164                   21549103.4614
        47.5004         43.0004
 25  7 15  1 36  0.0000000  0 10G02G16G09G06G01G04G28G31G03G26
   9367750.22346   7328211.75043  24759760.1724                   24759762.8634
        38.5004         19.5004
 -14090511.73447 -10140581.16844  22366445.6804                   22366445.6994
        43.0004         27.5004
  -4033738.68446  -3121801.00845  23903398.9614                   23903401.5824
        39.0004         31.7504
   1185044.34446    942708.00844  25190216.2974                   25190219.0514
        36.2504         28.0004
 -11891030.99247  -9240453.53944  22797323.5394                   22797324.5784
        42.7504         27.7504
 -20793690.42647 -16143411.18445  21354575.2974                   21354575.4734
        46.7504         34.2504
   7426300.12146   5823908.80143  24364250.2344                   24364251.7424
        40.5004         21.5004
 -15936121.25447 -12380674.20347  21678825.2894                   21678824.0084
        47.2504         43.0004
 -27247887.46548 -21212691.02348  20003789.2734                   20003790.1844
        49.5004         49.7504
 -20045253.84447 -15469093.09047  21544281.9064                   21544283.7734
        47.0004         43.0004
 25  7 15  1 36 30.0000000  0 10G02G16G09G06G01G04G28G31G03G26
   9441979.77046   7386052.64543  24773885.8364                   24773889.4414
        38.7504         20.2504
 -14191655.87147 -10219394.70744  22347199.1724                   22347198.3444
        43.2504         27.0004
  -4123251.03146  -3191550.78145  23886365.7424                   23886368.5084
        38.7504         32.5004
   1116539.92645    889327.96144  25177179.3834                   25177182.8324
        34.2504         25.5004
 -11819132.33247  -9184428.65244  22811005.8284                   22811006.0164
        42.7504         27.7504
 -20849863.99247 -16187182.76645  21343885.8444                   21343885.7424
        46.0004         33.0004
   7512457.93046   5891044.65243  24380645.7274                   24380647.0234
        40.0004         22.7504
 -15866621.98847 -12326518.96147  21692050.4534                   21692049.1254
        47.2504         42.7504
 -27268010.79748 -21228371.53548  19999959.9224                   19999961.2584
        49.2504         50.2504
 -20069960.81247 -15488345.26247  21539579.8834                   21539582.1294
        45.5004         43.0004
 25  7 15  1 37  0.0000000  0 10G02G16G09G06G01G04G28G31G03G26
   9516138.70246   7443838.48643  24787998.4454                   24788000.8364
        38.0004         19.7504
 -14292477.07047 -10297956.61344  22328013.3834                   22328012.9024
        43.7504         28.5004
  -4212737.92646  -3261280.74645  23869336.6174                   23869338.9264
        40.0004         33.5004
   1048499.41045    836309.41044  25164231.3364                   25164235.1804
        35.5004         28.7504
 -11746993.62947  -9128216.75044  22824733.2504                   22824733.1844
        42.2504         28.0004
 -20905893.30147 -16230841.96145  21333224.2114                   21333223.6374
        46.0004         34.0004
   7598654.50046   5958210.75443  24397047.5784                   24397049.7344
        38.0004         21.5004
 -15796840.78147 -12272144.03547  21705329.2194                   21705327.9184
        45.7504         43.0004
 -27287581.01648 -21243621.04348  19996235.8524                   19996236.8714
        48.7504         50.2504
 -20094052.69547 -15507118.14847  21534995.4144                   21534997.5474
        45.5004         43.0004
 25  7 15  1 37 30.0000000  0 10G02G16G09G06G01G04G28G31G03G26
   9590231.59046   7501572.92643  24802097.0554                   24802100.7814
        37.0004         18.5004
 -14392964.35947 -10376258.33244  22308891.3204                   22308890.4264
        43.7504         28.0004
  -4302191.90646  -3330985.07445  23852313.1804                   23852316.3404
        39.0004         32.5004
    980931.84046    783659.37144  25151374.7664                   25151377.9064
        36.0004         29.5004
 -11674610.64847  -9071814.49244  22838507.0234                   22838507.4884
        43.2504         27.5004
 -20961770.76247 -16274382.81245  21322590.7584                   21322590.8954
        45.0004         33.2504
   7684895.36746   6025411.34043  24413459.3834                   24413460.2464
        39.0004         21.0004
 -15726773.03947 -12217545.84447  21718663.0944                   21718661.3524
        47.0004         42.5004
 -27306589.81248 -21258433.09448  19992618.5394                   19992619.6764
        49.2504         50.5004
 -20117521.39547 -15525405.41847  21530530.2814                   21530531.2664
        46.5004         43.0004
 25  7 15  1 38  0.0000000  0 10G02G16G09G06G01G04G28G31G03G26
   9664256.67246   7559254.50042  24816185.2734                   24816187.9144
        38.0004         17.7504
 -14493113.80547 -10454296.78945  22289833.1804                   22289832.3554
        43.2504         30.0004
  -4391612.45746  -3400663.31245  23835297.2894                   23835300.3444
        38.5004         32.2504
    913839.18046    731379.37144  25138606.4614                   25138610.5394
        37.2504         29.5004
 -11601986.18447  -9015224.06244  22852326.8914                   22852327.9494
        43.7504         28.0004
 -21017495.73047 -16317804.84045  21311986.8754                   21311986.7854
        46.5004         34.2504
   7771179.05146   6092645.29743  24429878.2974                   24429879.1294
        38.7504         20.5004
 -15656421.11747 -12162726.18747  21732050.7664                   21732048.7424
        46.0004         42.7504
 -27325035.70748 -21272806.51648  19989108.4304                   19989109.5634
        48.7504         50.7504
 -20140365.73847 -15543206.18447  21526182.8524                   21526184.6254
        46.5004         43.2504
 25  7 15  1 38 30.0000000  0 10G02G16G09G06G01G04G28G31G03G26
   9738205.89146   7616876.96943  24830257.3284                   24830260.3404
        37.5004         18.5004
 -14592927.08247 -10532073.30944  22270839.7584                   22270838.6844
        44.5004         29.5004
  -4481004.51246  -3470319.38745  23818286.7034                   23818289.2894
        39.7504         33.5004
    847218.07446    679466.90644  25125928.5394                   25125933.6884
        37.0004         29.0004
 -11529128.40247  -8958451.84444  22866192.0314                   22866192.2974
        42.7504         27.7504
 -21073072.95347 -16361111.73845  21301410.6724                   21301410.6994
        45.5004         33.7504
   7857498.76646   6159907.32843  24446304.8364                   24446305.8364
        38.7504         20.5004
 -15585792.44547 -12107690.89147  21745490.7114                   21745489.0314
        45.2504         42.0004
 -27342922.85548 -21286744.55548  19985704.5474                   19985705.9454
        49.2504         50.0004
 -20162589.96547 -15560523.75847  21521953.2504                   21521955.6844
        45.5004         43.2504
 25  7 15  1 39  0.0000000  0 10G02G16G09G06G01G04G28G31G03G26
   9812081.42645   7674442.00842  24844315.2034                   24844319.1024
        35.5004         17.7504
 -14692396.35947 -10609581.75845  22251910.8914                   22251910.6724
        44.5004         30.0004
  -4570363.25446  -3539949.48045  23801282.3674                   23801284.8054
        39.7504         33.7504
    781074.73846    627926.73444  25113342.5164                   25113346.5984
        37.7504         28.5004
 -11456035.83247  -8901496.65644  22880100.7734                   22880101.5124
        44.5004         27.5004
 -21128497.52747 -16404299.69945  21290863.6954                   21290863.4224
        46.5004         33.5004
   7943857.29746   6227199.63743  24462738.5234                   24462739.9304
        39.7504         20.7504
 -15514885.01647 -12052438.37147  21758983.8524                   21758982.6914
        45.2504         42.5004
 -27360245.63748 -21300242.82448  19982408.0164                   19982409.1764
        48.2504         50.0004
 -20184188.80147 -15577353.99247  21517843.6254                   21517845.0204
        46.0004         43.0004
 25  7 15  1 39 30.0000000  0 10G02G16G09G06G01G04G28G31G03G26
   9885876.05546   7731944.02743  24858357.9774                   24858360.8284
        37.0004         19.0004
 -14791523.27347 -10686823.44544  22233047.9614                   22233047.3324
        44.5004         29.2504
  -4659693.48846  -3609557.37545  23784282.7034                   23784285.5164
        40.2504         33.7504
    715405.46546    576755.91045  25100846.0164                   25100850.1254
        38.5004         30.7504
 -11382716.62947  -8844364.88344  22894053.0474                   22894053.5864
        42.2504         28.5004
 -21183774.11747 -16447372.34845  21280345.0004                   21280344.8794
        47.7504         34.2504
   8030247.92646   6294516.92243  24479178.5004                   24479179.0824
        40.0004         20.2504
 -15443706.44947 -11996974.59047  21772528.5784                   21772527.3444
        45.0004         42.0004
 -27377008.00848 -21313304.41048  19979218.2974                   19979219.6524
        49.5004         50.0004
 -20205166.49647 -15593700.23847  21513851.3524                   21513853.0004
        46.2504         43.2504
 25  7 15  1 40  0.0000000  0 10G02G16G09G06G01G04G28G31G03G26
   9959593.11346   7789385.52042  24872386.6094                   24872389.5234
        38.0004         17.7504
 -14890298.03147 -10763790.72344  22214251.5394                   22214250.4844
        43.5004         29.2504
  -4748989.02346  -3679138.22345  23767290.5314                   23767292.3754
        41.0004         33.5004
    650218.02746    525960.55544  25088440.8594                   25088445.0314
        38.5004         29.2504
 -11309167.79347  -8787054.17244  22908048.5944                   22908049.4654
        44.0004         28.0004
 -21238896.37947 -16490324.72345  21269855.4694                   21269855.5904
        47.0004         34.7504
   8116674.94146   6361862.55543  24495624.3054                   24495625.1954
        39.2504         21.0004
 -15372253.21147 -11941296.78547  21786125.8204                   21786124.3714
        46.5004         42.5004
 -27393203.02348 -21325923.90648  19976136.6174                   19976137.9064
        48.2504         50.2504
 -20225516.35947 -15609557.25047  21509978.3674                   21509980.7034
        45.2504         43.0004
 25  7 15  1 40 30.0000000  0 10G02G16G09G06G01G04G28G31G03G26
  10033226.61746   7846762.03542  24886397.6724                   24886401.5394
        36.7504         17.7504
 -14988721.08247 -10840483.93744  22195522.4534                   22195521.5434
        44.5004         29.5004
  -4838253.24246  -3748694.68045  23750303.1024                   23750306.4454
        40.2504         34.0004
    585510.37946    475539.01644  25076127.4454                   25076131.5274
        37.5004         28.5004
 -11235396.10946  -8729569.82444  22922086.4454                   22922088.1214
        41.7504         28.5004
 -21293867.52747 -16533159.36345  21259394.7814                   21259394.7734
        47.0004         34.5004
   8203133.08646   6429232.44143  24512077.4384                   24512077.8364
        41.0004         22.0004
 -15300531.76647 -11885409.96947  21799773.5704                   21799772.6804
        45.7504         42.0004
 -27408833.29348 -21338103.33648  19973162.2734                   19973163.2544
        48.5004         50.7504
 -20245241.33247 -15624927.35247  21506225.0944                   21506227.1174
        47.2504         43.5004
 25  7 15  1 41  0.0000000  0 10G02G16G09G06G01G04G28G31G03G26
  10106775.94946   7904072.94543  24900394.3444                   24900397.4804
        38.2504         18.2504
 -15086786.84447 -10916898.75044  22176860.9614                   22176860.2504
        44.2504         29.0004
  -4927483.97746  -3818225.03145  23733323.4384                   23733326.3054
        40.7504         32.7504
    521286.02746    425494.14844  25063906.3984                   25063909.4534
        39.5004         29.5004
 -11161402.70747  -8671912.70344  22936167.7274                   22936168.1914
        42.2504         27.7504
 -21348685.24247 -16575874.44145  21248963.3984                   21248963.6334
        46.5004         34.5004
   8289622.54346   6496626.73443  24528535.7114                   24528536.7424
        39.5004         21.7504
 -15228542.44147 -11829314.42647  21813473.4774                   21813471.5664
        46.7504         42.2504
 -27423895.92248 -21349840.45748  19970295.8134                   19970297.2774
        48.0004         50.2504
 -20264338.66447 -15639808.37547  21502590.8754                   21502593.5594
        45.5004         43.0004
 25  7 15  1 41 30.0000000  0 10G02G16G09G06G01G04G28G31G03G26
  10180236.13346   7961314.35243  24914374.0944                   24914377.4184
        38.7504         19.0004
 -15184494.73447 -10993034.69944  22158267.6884                   22158266.8164
        45.2504         29.7504
  -5016683.50446  -3887731.08645  23716349.2114                   23716352.0904
        41.2504         33.5004
    457543.94146    375824.98044  25051775.4924                   25051780.3284
        36.5004         26.5004
 -11087193.22346  -8614087.22744  22950289.3134                   22950290.5554
        41.7504         28.0004
 -21403351.71547 -16618471.66845  21238560.6414                   21238560.4184
        47.2504         33.5004
   8376139.17246   6564042.23043  24544999.8984                   24544999.9964
        39.7504         22.0004
 -15156290.32047 -11773014.09446  21827222.2894                   21827220.8444
        46.0004         41.5004
 -27438392.55147 -21361136.54348  19967537.6334                   19967538.2234
        47.7504         50.0004
 -20282810.42647 -15654201.93447  21499075.7894                   21499077.9614
        47.0004         43.0004
 25  7 15  1 42  0.0000000  0 10G02G16G09G06G01G04G28G31G03G26
  10253608.03546   8018486.98443  24928335.1884                   24928339.6174
        36.0004         18.5004
 -15281837.84447 -11068886.40644  22139743.6094                   22139742.6684
        45.5004         28.5004
  -5105848.49646  -3957210.21945  23699382.1804                   23699384.8244
        40.5004         33.2504
    394288.74246    326535.25844  25039739.1254                   25039742.7934
        38.7504         27.5004
 -11012767.62146  -8556093.33644  22964452.4144                   22964452.7854
        41.0004         28.5004
 -21457863.47347 -16660948.34445  21228187.3444                   21228187.4184
        47.5004         34.7504
   8462684.24646   6631479.85943  24561467.9614                   24561469.4184
        40.0004         23.7504
 -15083774.80547 -11716508.51647  21841021.5314                   21841020.0634
        46.0004         42.0004
 -27452319.15248 -21371988.44148  19964887.0314                   19964888.7424
        50.0004         50.2504
 -20300652.79747 -15668105.05947  21495680.7584                   21495682.8094
        46.0004         43.2504
 25  7 15  1 42 30.0000000  0 10G02G16G09G06G01G04G28G31G03G26
  10326889.96546   8075589.46943  24942282.5084                   24942285.6174
        39.2504         19.2504
 -15378812.34047 -11144450.88344  22121290.2344                   22121289.4574
        46.0004         29.7504
  -5194978.12946  -4026661.81245  23682420.7584                   23682423.1454
        40.0004         32.7504
    331522.58646    277626.59044  25027795.3984                   25027799.5514
        37.7504         27.2504
 -10938128.40646  -8497932.98444  22978655.6804                   22978656.4264
        41.7504         27.2504
 -21512219.48047 -16703303.65245  21217843.7814                   21217843.9414
        47.2504         34.0004
   8549256.93046   6698939.01243  24577941.9144                   24577944.2194
        39.5004         22.7504
 -15010997.83247 -11659799.23447  21854870.7194                   21854869.4104
        46.2504         42.0004
 -27465674.23048 -21382395.01248  19962346.0944                   19962346.9924
        50.2504         50.2504
 -20317864.66847 -15681516.89547  21492405.3834                   21492407.5474
        47.0004         43.5004
 25  7 15  1 43  0.0000000  0 10G02G16G09G06G01G04G28G31G03G26
  10400073.68846   8132615.48043  24956208.4844                   24956212.5474
        38.0004         19.7504
 -15475420.10947 -11219729.60544  22102906.6174                   22102905.4224
        45.7504         29.5004
  -5284077.58646  -4096089.89145  23665465.7734                   23665468.6134
        39.2504         32.5004
    269241.52046    229095.90244  25015943.2114                   25015947.1174
        38.0004         28.5004
 -10863284.12547  -8439612.84044  22992898.1954                   22992898.4884
        42.2504         28.2504
 -21566424.75847 -16745541.51245  21207528.9384                   21207528.7974
        47.2504         34.5004
   8635850.00046   6766414.02043  24594421.1804                   24594421.7854
        39.0004         22.7504
 -14937967.36747 -11602892.40646  21868768.0164                   21868766.6954
        46.2504         41.2504
 -27478462.35548 -21392359.78548  19959912.3524                   19959913.3554
        49.0004         50.2504
 -20334450.89547 -15694441.21547  21489249.3674                   21489251.2664
        47.5004         43.5004
 25  7 15  1 43 30.0000000  0 10G02G16G09G06G01G04G28G31G03G26
  10473160.54746   8189565.92243  24970117.2424                   24970120.6294
        37.5004         18.5004
 -15571654.43047 -11294717.32444  22084593.6954                   22084592.6374
        44.7504         29.5004
  -5373143.17646  -4165491.56245  23648517.2034                   23648520.0394
        40.7504         33.5004
    207450.37946    180947.00044  25004184.0634                   25004188.8244
        37.0004         27.5004
 -10788234.40246  -8381132.62544  23007179.8754                   23007180.5984
        41.0004         27.0004
 -21620475.57047 -16787659.02045  21197243.2974                   21197243.4184
        47.2504         33.5004
   8722465.26246   6833906.31643  24610903.0394                   24610904.3524
        38.7504         21.7504
 -14864682.63347 -11545787.44146  21882713.7894                   21882711.9144
        45.7504         41.5004
 -27490679.25848 -21401879.46148  19957587.5634                   19957588.7704
        48.7504         50.5004
 -20350407.51247 -15706874.92647  21486212.3364                   21486214.6994
        45.7504         43.2504
 25  7 15  1 44  0.0000000  0 10G02G16G09G06G01G04G28G31G03G26
  10546149.26246   8246439.89543  24984006.2504                   24984009.9064
        37.5004         19.2504
 -15667510.52747 -11369410.33644  22066352.3204                   22066351.4384
        44.0004         29.2504
  -5462173.32446  -4234865.66045  23631575.3444                   23631577.9734
        40.5004         34.0004
    146151.91446    133181.97344  24992519.6024                   24992523.8204
        37.2504         27.7504
 -10712981.15647  -8322493.83644  23021499.4534                   23021500.5904
        42.0004         27.5004
 -21674370.21548 -16829654.83645  21186987.5084                   21186987.5004
        48.0004         34.5004
   8809102.31346   6901415.61343  24627389.7424                   24627391.3014
        38.2504         22.0004
 -14791144.55547 -11488485.07446  21896707.5704                   21896706.0204
        46.0004         41.5004
 -27502322.89148 -21410952.42248  19955372.1954                   19955373.1914
        50.2504         50.2504
 -20365732.80947 -15718816.71147  21483296.3594                   21483298.1054
        46.5004         43.0004
 25  7 15  1 44 30.0000000  0 10G02G16G09G06G01G04G28G31G03G26
  10619041.49645   8303238.70743  24997877.5864                   24997881.1844
        35.7504         19.0004
 -15762980.78947 -11443802.68044  22048185.2734                   22048184.1684
        44.5004         28.5004
  -5551163.71546  -4304208.77045  23614641.8444                   23614644.2424
        39.7504         33.5004
     85351.71746     85805.26044  24980950.2734                   24980954.2234
        38.2504         29.0004
 -10637523.25846  -8263695.56244  23035859.1644                   23035859.8054
        41.0004         26.2504
 -21728104.07447 -16871525.35945  21176762.1884                   21176762.3284
        47.5004         34.7504
   8895763.81646   6968943.96143  24643881.1724                   24643881.9964
        37.7504         21.5004
 -14717351.69947 -11430984.17246  21910749.7194                   21910748.2814
        44.7504         41.0004
 -27513388.21548 -21419574.77048  19953265.9144                   19953267.4694
        50.2504         50.2504
 -20380422.06647 -15730262.87147  21480501.3914                   21480503.1214
        45.0004         43.0004
 25  7 15  1 45  0.0000000  0 10G02G16G09G06G01G04G28G31G03G26
  10691832.30145   8359958.50043  25011728.3754                   25011733.6804
        33.0004         19.2504
 -15858064.56247 -11517893.87144  22030090.7814                   22030090.0824
        45.0004         29.0004
  -5640116.51246  -4373522.57845  23597714.7894                   23597716.4804
        41.5004         34.0004
     25048.68046     38815.88344  24969474.4454                   24969478.8594
        37.5004         29.2504
 -10561866.31247  -8204742.17644  23050256.0944                   23050257.1954
        42.2504         28.0004
 -21781679.23448 -16913272.20745  21166567.5634                   21166566.8914
        48.0004         34.2504
   8982445.61746   7036488.08243  24660375.2114                   24660377.6334
        36.0004         20.2504
 -14643309.23447 -11373288.77746  21924839.2584                   21924838.0944
        46.0004         40.7504
 -27523876.97348 -21427747.82048  19951270.0784                   19951270.8834
        48.2504         50.0004
 -20394477.36747 -15741215.04747  21477826.3834                   21477828.6564
        45.0004         43.2504
 25  7 15  1 45 30.0000000  0 10G02G16G09G06G01G04G28G31G03G26
  10764519.64145   8416597.61343  25025561.1484                   25025565.4924
        34.2504         18.2504
 -15952758.44947 -11591681.25044  22012071.1484                   22012070.7034
        45.0004         29.0004
  -5729031.67246  -4442807.03545  23580793.8594                   23580796.1374
        40.7504         33.0004
    -34756.04746     -7785.18044  24958093.8984                   24958098.4844
        39.0004         28.5004
 -10486013.69146  -8145636.31644  23064690.2974                   23064691.3244
        41.7504         27.5004
 -21835095.55547 -16954895.31645  21156402.5164                   21156402.3794
        47.0004         35.2504
   9069145.76246   7104046.59043  24676875.0004                   24676876.0664
        38.7504         20.5004
 -14569019.72747 -11315400.88346  21938976.2974                   21938974.9694
        45.7504         41.2504
 -27533788.68448 -21435471.23448  19949383.8914                   19949384.6134
        50.2504         50.2504
 -20407898.62147 -15751673.15647  21475272.7194                   21475274.2034
        45.2504         43.5004
 25  7 15  1 46  0.0000000  0 10G02G16G09G06G01G04G28G31G03G26
  10837101.68845   8473154.73042  25039372.4924                   25039378.4804
        33.7504         17.7504
 -16047057.99647 -11665161.34444  21994126.8364                   21994125.8834
        44.5004         28.5004
  -5817907.75846  -4512061.08645  23563881.4614                   23563883.9884
        40.5004         32.5004
    -94060.00446    -53995.99244  24946808.5704                   24946813.6374
        38.7504         29.0004
 -10409967.32846  -8086379.50444  23079161.7664                   23079162.3324
        41.2504         26.5004
 -21888351.44947 -16996393.38745  21146268.0234                   21146268.0044
        47.5004         34.5004
   9155863.91046   7171619.03943  24693376.1334                   24693378.3014
        36.7504         20.7504
 -14494484.31247 -11257321.35946  21953160.1094                   21953158.7624
        44.7504         41.0004
 -27543121.46948 -21442743.54348  19947608.2814                   19947609.0744
        48.0004         50.0004
 -20420684.25447 -15761635.96147  21472839.3914                   21472841.3524
        45.0004         42.7504
 25  7 15  1 46 30.0000000  0 11G02G16G09G06G01G04G28G31G07G03G26
  10909573.51245   8529625.97742  25053164.0554                   25053169.9494
        32.7504         16.7504
 -16140962.49647 -11738333.62544  21976256.9304                   21976256.6174
        44.7504         29.0004
  -5906747.32846  -4581286.63745  23546975.7114                   23546977.7584
        38.7504         31.0004
   -152864.44546    -99817.62145  24935619.7424                   24935623.4964
        40.0004         30.0004
 -10333733.08247  -8026976.28144  23093668.5234                   23093669.6884
        42.0004         27.2504
 -21941449.21547 -17037768.24645  21136164.1954                   21136163.7274
        47.2504         34.5004
   9242595.67246   7239202.11343  24709880.8204                   24709882.6994
        37.0004         19.5004
 -14419708.50047 -11199054.53546  21967389.4454                   21967387.5084
        46.2504         40.5004
   3016380.32056   2373917.77054  25255151.4694                   25255157.3054
        37.2504         27.7504
 -27551877.30948 -21449566.28148  19945941.9144                   19945943.0784
        49.0004         50.0004
 -20432836.68047 -15771105.39147  21470527.1334                   21470528.8554
        47.5004         43.5004
 25  7 15  1 47  0.0000000  0 11G02G16G09G06G01G04G28G31G07G03G26
  10981919.40645   8585999.05942  25066932.2814                   25066936.4924
        35.0004         17.7504
 -16234482.22347 -11811206.07045  21958460.8364                   21958460.0434
        44.5004         30.0004
  -5995563.34046  -4650493.87545  23530074.7584                   23530077.0594
        39.0004         32.2504
   -211181.55146   -145259.51644  24924521.2894                   24924525.2584
        39.2504         28.7504
 -10257327.43746  -7967439.48844  23108208.5864                   23108209.5594
        41.5004         26.7504
 -21994401.79747 -17079030.00045  21126086.9534                   21126087.2274
        47.5004         35.0004
   9329326.15646   7306784.21943  24726386.0394                   24726387.7034
        38.2504         19.5004
 -14344707.91047 -11140612.55146  21981661.7274                   21981659.8014
        45.0004         41.0004
   2918361.10946   2297539.57044  25236499.0784                   25236504.7464
        37.5004         28.5004
 -27560068.96948 -21455949.39548  19944383.0944                   19944384.1174
        48.5004         50.7504
 -20444368.96147 -15780091.57047  21468332.1094                   21468334.5124
        45.0004         43.5004
 25  7 15  1 47 30.0000000  0 11G02G16G09G06G01G04G28G31G07G03G26
  11054127.03146   8642264.52743  25080673.0164                   25080676.8054
        36.5004         18.5004
 -16327623.68447 -11883783.77744  21940736.5474                   21940735.4774
        45.5004         28.7504
  -6084365.65246  -4719690.39145  23513175.9304                   23513177.5274
        40.0004         32.0004
   -269019.99246   -190328.38744  24913516.0864                   24913519.2114
        39.0004         29.2504
 -10180763.53946  -7907779.38744  23122777.6724                   23122778.7154
        40.2504         27.0004
 -22047218.83647 -17120186.12545  21116036.7274                   21116036.4574
        47.5004         34.5004
   9416043.62946   7374356.22343  24742886.6564                   24742888.7234
        37.0004         18.5004
 -14269494.97747 -11082005.08646  21995973.6334                   21995972.7854
        44.5004         41.0004
   2820473.44545   2221263.83244  25217872.4304                   25217876.8484
        35.7504         27.0004
 -27567705.76248 -21461900.15248  19942930.0474                   19942930.8484
        49.0004         50.5004
 -20455290.85247 -15788602.13747  21466253.8834                   21466256.1334
        45.2504         43.0004
 25  7 15  1 48  0.0000000  0 11G02G16G09G06G01G04G28G31G07G03G26
  11126195.92645   8698421.83642  25094386.1024                   25094391.6174
        34.2504         17.2504
 -16420381.51247 -11956062.53545  21923084.7734                   21923083.9344
        44.5004         30.0004
  -6173151.85246  -4788874.36745  23496280.9064                   23496282.3284
        38.2504         30.5004
   -326376.44546   -235021.71544  24902601.1884                   24902604.7664
        38.5004         29.0004
 -10104042.36346  -7847996.73444  23137377.5394                   23137378.8874
        40.0004         26.7504
 -22099897.67647 -17161234.56245  21106012.3674                   21106012.2704
        47.2504         35.7504
   9502748.68846   7441918.46943  24759385.6954                   24759388.7584
        38.0004         19.5004
 -14194070.50847 -11023232.82046  22010327.2424                   22010325.7814
        46.0004         40.7504
   2722720.67645   2145093.20344  25199269.6804                   25199273.8874
        35.5004         26.5004
 -27574784.99648 -21467416.43748  19941582.8984                   19941583.8134
        50.5004         50.2504
 -20465599.97347 -15796635.20747  21464292.3914                   21464294.1994
        46.5004         43.2504
 25  7 15  1 48 30.0000000  0 11G02G16G09G06G01G04G28G31G07G03G26
  11198130.19546   8754474.18443  25108075.1644                   25108080.8874
        36.0004         19.0004
 -16512746.06247 -12028034.86745  21905509.2194                   21905507.9184
        44.5004         30.0004
  -6261915.16846  -4858040.50445  23479388.7194                   23479391.3244
        39.5004         31.7504
   -383243.18746   -279333.44144  24891779.3134                   24891783.1994
        38.7504         29.0004
 -10027160.66046  -7788089.02044  23152007.2734                   23152008.4804
        41.2504         26.0004
 -22152431.62947 -17202170.09845  21096015.0634                   21096015.1174
        47.5004         35.2504
   9589446.23846   7509474.94943  24775884.9224                   24775886.3984
        40.2504         19.5004
 -14118430.45747 -10964292.55946  22024721.0784                   22024719.2544
        46.0004         41.0004
   2625110.00046   2069033.34044  25180694.3054                   25180699.8244
        37.5004         27.7504
 -27581299.68048 -21472492.82448  19940343.0634                   19940344.0824
        50.0004         50.2504
 -20475289.75047 -15804185.66047  21462448.1644                   21462450.7304
        45.5004         43.2504
 25  7 15  1 49  0.0000000  0 11G02G16G09G06G01G04G28G31G07G03G26
  11269928.14546   8810420.34843  25121738.2344                   25121743.1174
        37.0004         18.5004
 -16604713.48447 -12099697.71945  21888008.7034                   21888007.0704
        45.5004         30.0004
  -6350654.79346  -4927188.18445  23462503.2974                   23462505.0824
        40.2504         33.0004
   -439618.42646   -323262.18444  24881051.3364                   24881055.9144
        38.0004         29.2504
  -9950120.96946  -7728058.17244  23166667.9844                   23166669.3874
        40.7504         26.2504
 -22204819.55147 -17242991.84045  21086046.3594                   21086046.3954
        47.7504         34.5004
   9676135.23056   7577024.76253  24792381.4064                   24792382.9304
        38.0004         19.5004
 -14042576.60547 -10905185.68446  22039156.3914                   22039154.4024
        46.2504         41.2504
   2527642.97745   1993085.37144  25162145.8444                   25162152.2974
        34.5004         25.5004
 -27587248.58248 -21477128.32448  19939210.6804                   19939212.3324
        48.7504         50.0004
 -20484359.32447 -15811252.87547  21460722.2814                   21460724.6764
        47.7504         43.2504
 25  7 15  1 49 30.0000000  0 11G02G16G09G06G01G04G28G31G07G03G26
  11341592.96146   8866262.83242  25135376.2894                   25135381.2544
        37.5004         17.2504
 -16696274.68747 -12171044.06244  21870584.2584                   21870583.1374
        44.2504         29.2504
  -6439364.86346  -4996312.84845  23445621.5164                   23445624.2934
        39.7504         32.5004
   -495495.37546   -366802.68044  24870419.0004                   24870421.9884
        39.7504         29.2504
  -9872920.85247  -7667902.33244  23181358.8054                   23181359.8794
        42.2504         27.0004
 -22257055.45347 -17283695.13745  21076105.6564                   21076105.5474
        47.2504         34.5004
   9762819.70346   7644571.04343  24808877.8444                   24808878.2974
        41.2504         19.0004
 -13966505.69147 -10845909.70346  22053631.4224                   22053629.6994
        46.0004         41.0004
   2430326.09045   1917254.36343  25143627.4224                   25143632.5664
        33.5004         22.5004
 -27592625.64848 -21481318.25448  19938187.9534                   19938189.0204
        50.0004         50.5004
 -20492803.07047 -15817832.40647  21459115.1254                   21459117.9614
        46.2504         43.2504
 25  7 15  1 50  0.0000000  0 11G02G16G09G06G01G04G28G31G07G03G26
  11413126.59846   8922003.07842  25148988.6414                   25148993.4574
        37.5004         17.2504
 -16787422.11747 -12242067.96944  21853239.9304                   21853239.1054
        44.5004         29.5004
  -6528041.01646  -5065411.06645  23428746.9144                   23428749.0394
        40.5004         32.5004
   -550868.82846   -409950.75845  24859881.5084                   24859885.8914
        38.7504         30.2504
  -9795559.34847  -7607620.70744  23196080.1174                   23196081.3914
        42.5004         25.7504
 -22309134.80547 -17324276.44145  21066195.7504                   21066195.4184
        47.5004         34.5004
   9849502.20346   7712115.75443  24825373.3204                   24825374.2234
        40.5004         20.2504
 -13890216.28947 -10786463.44546  22068148.9224                   22068147.8014
        46.0004         40.7504
   2333164.35555   1841544.28954  25125137.2034                   25125143.5394
        33.0004         26.0004
 -27597426.22748 -21485058.96148  19937274.0084                   19937275.3984
        49.7504         50.2504
 -20500616.72747 -15823920.96147  21457628.4224                   21457631.1564
        47.0004         43.5004
 25  7 15  1 50 30.0000000  0 11G02G16G09G06G01G04G28G31G07G03G26
  11484528.30946   8977640.52042  25162575.9774                   25162581.1804
        36.7504         15.5004
 -16878151.12147 -12312765.83245  21835974.5944                   21835972.8714
        44.7504         30.0004
  -6616681.42646  -5134481.44945  23411879.4694                   23411881.0634
        39.7504         31.5004
   -605736.02746   -452704.37944  24849440.6484                   24849443.7464
        37.7504         29.0004
  -9718038.02746  -7547214.54744  23210832.1334                   23210833.3284
        41.5004         24.7504
 -22361055.66847 -17364734.24645  21056315.0474                   21056315.1054
        47.7504         34.7504
   9936182.70746   7779658.96143  24841866.9064                   24841868.4924
        39.0004         19.0004
 -13813709.44547 -10726847.75846  22082707.6484                   22082706.2584
        46.5004         40.7504
   2236160.11745   1765956.95344  25106678.5864                   25106684.3674
        32.7504         24.5004
 -27601648.27348 -21488348.86748  19936470.9614                   19936472.1334
        49.0004         50.0004
 -20507798.68447 -15829517.29747  21456261.7504                   21456264.4454
        47.0004         43.5004
 25  7 15  1 51  0.0000000  0 10G16G09G06G01G04G28G31G07G03G26
 -16968458.57047 -12383135.23045  21818789.9774                   21818788.8874
        45.2504         31.0004
  -6705285.62146  -5203523.60245  23395018.0314                   23395020.2424
        39.5004         31.0004
   -660095.71146   -495062.52344  24839096.0784                   24839099.7854
        37.7504         27.2504
  -9640359.82846  -7486686.15644  23225613.9774                   23225615.2304
        40.7504         25.2504
 -22412817.40647 -17405068.06645  21046465.6884                   21046465.3834
        47.5004         35.0004
  10022859.84046   7847199.51643  24858361.5864                   24858362.1954
        39.2504         21.2504
 -13736987.16047 -10667064.19146  22097307.1724                   22097305.7504
        45.0004         40.5004
   2139314.41845   1690493.12144  25088249.6884                   25088254.2304
        34.2504         26.5004
 -27605291.19548 -21491187.51648  19935777.8204                   19935778.7814
        49.7504         50.2504
 -20514348.73047 -15834621.21947  21455015.6484                   21455017.9344
        47.0004         43.0004
 25  7 15  1 51 30.0000000  0 10G16G09G06G01G04G28G31G07G03G26
 -17058338.19947 -12453171.24645  21801685.5784                   21801685.0434
        45.0004         31.0004
  -6793850.37546  -5272535.03145  23378165.1644                   23378167.0314
        40.0004         31.0004
   -713943.80546   -537022.09444  24828849.3834                   24828852.6294
        37.7504         27.7504
  -9562525.03546  -7426035.76244  23240425.2194                   23240426.6334
        41.2504         25.5004
 -22464416.61347 -17445275.23445  21036646.5004                   21036646.0784
        47.7504         35.2504
  10109534.97746   7914738.48843  24874854.9844                   24874856.2234
        38.7504         19.5004
 -13660048.92247 -10607112.35246  22111948.1954                   22111947.1334
        45.7504         41.0004
   2042631.11745   1615155.85944  25069850.9774                   25069855.9344
        35.0004         27.2504
 -27608351.60248 -21493572.25048  19935195.3524                   19935196.6334
        49.5004         50.5004
 -20520263.93747 -15839230.47347  21453889.3834                   21453892.3404
        46.2504         43.5004
 25  7 15  1 52  0.0000000  0 10G16G09G06G01G04G28G31G07G03G26
 -17147773.93047 -12522861.35945  21784667.0164                   21784665.5514
        45.5004         31.0004
  -6882362.56646  -5341505.49645  23361322.0314                   23361323.6254
        40.0004         31.7504
   -767266.36346   -578572.11344  24818703.3134                   24818705.8524
        38.2504         27.2504
  -9484523.94147  -7365255.73044  23255268.9694                   23255269.3714
        43.2504         24.7504
 -22515839.97747 -17485345.37945  21026860.6954                   21026860.8134
        47.2504         35.2504
  10196219.46946   7982284.81643  24891351.0314                   24891351.9614
        36.5004         19.7504
 -13582884.90647 -10546984.59446  22126632.0314                   22126631.3444
        45.7504         41.0004
   1946123.71146   1539955.66044  25051485.1484                   25051491.0514
        37.0004         27.5004
 -27610816.23448 -21495492.75048  19934726.1644                   19934727.5864
        48.7504         50.0004
 -20525531.45747 -15843335.02347  21452887.2274                   21452890.0634
        46.5004         43.7504
 25  7 15  1 52 30.0000000  0 10G16G09G06G01G04G28G31G07G03G26
 -17236750.96947 -12592194.07045  21767734.9304                   21767733.8874
        46.0004         31.0004
  -6970810.28146  -5410425.76645  23344491.8134                   23344492.3094
        40.5004         32.7504
   -820050.89846   -619702.89144  24808657.7114                   24808661.8634
        36.5004         26.5004
  -9406348.09447  -7304339.55144  23270144.8134                   23270145.9104
        42.2504         25.0004
 -22567075.56247 -17525269.20345  21017111.1484                   21017110.8244
        47.5004         35.7504
  10282925.37116                  24907850.398
        37.500
 -13505485.50047 -10486673.41846  22141360.8134                   22141360.0664
        45.0004         40.5004
   1849804.97346   1464902.42644  25033156.6414                   25033161.5824
        37.2504         26.2504
 -27612673.17647 -21496939.71548  19934373.2504                   19934373.9804
        47.7504         50.0004
 -20530139.79347 -15846925.93447  21452010.8134                   21452012.6174
        45.2504         43.0004
 25  7 15  1 53  0.0000000  0 10G16G09G06G01G04G28G31G07G03G26
 -17325268.64547 -12661168.84045  21750890.8594                   21750889.7424
        45.5004         30.7504
  -7059195.96946  -5479297.68445  23327671.4384                   23327673.5164
        39.7504         33.5004
   -872298.94946   -660415.62544  24798715.0864                   24798718.8524
        37.0004         26.5004
  -9328003.32446  -7243291.76243  23285053.2974                   23285054.7664
        41.5004         21.7504
 -22618125.52047 -17565048.38745  21007396.6254                   21007396.3244
        47.2504         34.7504
  10369644.45746   8073725.47353  24924351.2974                   24924352.6724
        36.7504         19.5004
 -13427856.09047 -10426183.00846  22156133.0944                   22156131.5984
        44.5004         40.2504
   1753672.91046   1389994.66444  25014862.7814                   25014867.4104
        37.7504         27.0004
 -27613924.71147 -21497914.94948  19934134.7034                   19934136.2154
        47.7504         50.0004
 -20534091.66047 -15850005.30947  21451258.5164                   21451260.5314
        45.0004         43.2504
 25  7 15  1 53 30.0000000  0 10G16G09G06G01G04G28G31G07G03G26
 -17413330.18447 -12729788.16445  21734133.0784                   21734131.9384
        45.7504         31.5004
  -7147525.45746  -5548125.79745  23310862.2114                   23310864.6604
        39.0004         33.5004
   -924015.70746   -700714.38344  24788873.4924                   24788877.4534
        36.0004         26.5004
  -9249498.97346  -7182119.64543  23299992.5004                   23299993.5664
        41.0004         23.5004
 -22668995.62547 -17604687.41046  20997716.5864                   20997716.4734
        47.5004         36.2504
  10456370.99245   8141304.48443  24940856.0704                   24940857.6374
        33.7504         19.2504
 -13350005.25847 -10365520.04746  22170947.8914                   22170946.5314
        45.2504         40.5004
   1657721.77346   1315227.93044  24996602.8754                   24996608.5864
        37.5004         27.7504
 -27614576.65648 -21498422.97348  19934010.9614                   19934011.8284
        50.0004         50.2504
 -20537393.39847 -15852578.10247  21450630.5554                   21450632.3984
        46.2504         43.2504
 25  7 15  1 54  0.0000000  0 10G16G09G06G01G04G28G31G07G03G26
 -17500938.11747 -12798054.04345  21717462.1564                   21717460.7504
        46.2504         32.2504
  -7235804.30946  -5616914.41846  23294063.6884                   23294065.9694
        41.5004         36.2504
   -975205.95746   -740602.83244  24779132.7974                   24779135.8524
        37.5004         29.0004
  -9170844.00046  -7120830.10943  23314959.9774                   23314961.4734
        39.7504         22.5004
 -22719691.18047 -17644190.43045  20988069.2584                   20988069.3244
        46.2504         35.0004
  10543097.82845   8208883.73043  24957359.3134                   24957361.6994
        35.7504         19.5004
 -13271941.09047 -10304690.89546  22185803.1174                   22185801.7154
        45.7504         40.0004
   1561946.98846   1240598.53944  24978378.3754                   24978382.7854
        36.2504         25.0004
 -27614634.56648 -21498468.09448  19933999.6484                   19934000.7114
        48.2504         50.0004
 -20540050.89147 -15854648.87547  21450124.4304                   21450127.1524
        45.5004         43.5004
 25  7 15  1 54 30.0000000  0 10G16G09G06G01G04G28G31G07G03G26
 -17588092.68047 -12865966.62545  21700877.0554                   21700875.8714
        45.2504         31.0004
  -7324035.52746  -5685665.96546  23277274.1564                   23277276.1884
        40.7504         36.2504
  -1025872.19946   -780082.99244  24769491.2814                   24769495.0824
        37.0004         29.5004
  -9092044.90246  -7059428.33243  23329955.3984                   23329956.3594
        39.7504         23.0004
 -22770215.10247 -17683559.71945  20978454.8284                   20978454.6134
        47.0004         35.5004
  10629817.89815                  24973860.406
        34.250
 -13193669.49247 -10243700.06646  22200697.1174                   22200696.0704
        45.5004         39.0004
   1466345.94946   1166104.59844  24960185.2504                   24960189.7704
        37.5004         24.2504
 -27614101.52048 -21498052.75048  19934101.1024                   19934102.3594
        48.5004         50.0004
 -20542067.78147 -15856220.48047  21449741.2344                   21449743.4964
        47.7504         43.5004
 25  7 15  1 55  0.0000000  0 10G16G09G06G01G04G28G31G07G03G26
 -17674787.79747 -12933521.21145  21684379.5784                   21684378.0274
        45.2504         31.5004
  -7412215.89847  -5754377.87946  23260494.0084                   23260496.2734
        42.2504         37.5004
  -1076010.49646   -819151.78944  24759949.9224                   24759953.6094
        37.5004         29.2504
  -9013101.81646  -6997914.35243  23344977.1254                   23344979.0744
        39.0004         22.5004
 -22820563.94147 -17722792.56645  20968873.7344                   20968873.9804
        47.2504         34.7504
  10716536.84055   8330966.43052  24990364.4384                   24990365.5004
        34.5004         16.2504
 -13115190.07047 -10182547.31246  22215630.7734                   22215630.5864
        45.0004         39.2504
   1370922.30146   1091748.82444  24942027.1094                   24942031.3324
        39.7504         27.5004
 -27612974.27348 -21497174.37948  19934315.7034                   19934316.6174
        48.2504         50.0004
 -20543441.21947 -15857290.69547  21449479.4534                   21449482.3054
        45.5004         43.5004
 25  7 15  1 55 30.0000000  0 10G16G09G06G01G04G28G31G07G03G26
 -17761022.80147 -13000717.28545  21667969.2814                   21667968.3244
        44.2504         31.7504
  -7500347.61746  -5823051.87946  23243722.6954                   23243725.2384
        41.0004         37.0004
  -1125622.48846   -857810.44544  24750509.1334                   24750512.3364
        38.0004         28.5004
  -8934020.63346  -6936292.74643  23360025.7274                   23360027.5554
        39.0004         22.0004
 -22870739.88347 -17761890.70745  20959325.5004                   20959325.8404
        47.7504         35.5004
  10803248.50045   8398533.86342  25006864.3054                   25006866.9534
        31.5004         17.2504
 -13036507.61347 -10121236.35246  22230603.9924                   22230603.4384
        44.5004         39.2504
   1275674.17246   1017529.83644  24923902.0004                   24923906.1454
        40.0004         24.5004
 -27611255.21548 -21495834.85948  19934642.6724                   19934644.0664
        49.2504         49.7504
 -20544174.08247 -15857861.76647  21449339.7974                   21449342.7814
        46.5004         43.5004
 25  7 15  1 56  0.0000000  0 10G16G09G06G01G04G28G31G07G03G26
 -17846795.28547 -13067552.93045  21651647.6254                   21651646.7424
        45.5004         32.2504
  -7588430.81647  -5891688.10546  23226961.6174                   23226962.7974
        42.0004         36.5004
  -1174707.70346   -896058.62944  24741168.1884                   24741172.6604
        37.5004         29.2504
  -8854804.77046  -6874566.17243  23375099.9224                   23375102.2424
        40.5004         22.2504
 -22920742.78547 -17800853.99646  20949810.4924                   20949810.8134
        47.0004         36.5004
  10889950.90245   8466094.05143  25023362.7274                   25023366.1374
        33.0004         18.2504
 -12957625.16447 -10059769.54346  22245615.4844                   22245614.2304
        45.5004         39.5004
   1180601.91446    943447.86744  24905809.3594                   24905813.9384
        39.7504         24.0004
 -27608944.56248 -21494034.35948  19935082.5554                   19935083.9534
        49.0004         50.0004
 -20544267.03147 -15857934.18447  21449321.4844                   21449324.5204
        46.0004         42.7504
 25  7 15  1 56 30.0000000  0 10G16G09G06G01G04G28G31G07G03G26
 -17932107.09447 -13134029.60545  21635412.6254                   21635411.6174
        45.5004         31.7504
  -7676470.42646  -5960290.38746  23210207.9144                   23210209.8134
        40.0004         36.0004
  -1223270.63746   -933899.86344  24731927.5394                   24731931.0434
        37.7504         29.2504
  -8775462.75046  -6812741.35544  23390198.5164                   23390200.4654
        39.7504         25.2504
 -22970577.53547 -17839686.25846  20940326.9844                   20940327.5744
        46.7504         36.2504
  10976637.33645   8533641.91043  25039859.1564                   25039862.2894
        35.0004         19.0004
 -12878550.14547  -9998152.69946  22260662.9064                   22260662.1294
        44.5004         40.0004
   1085701.06346    869499.45744  24887750.3754                   24887754.7774
        40.5004         26.0004
 -27606047.39848 -21491776.84048  19935633.5474                   19935635.0904
        48.2504         50.2504
 -20543725.69147 -15857512.36747  21449425.2194                   21449427.7814
        45.0004         43.0004
 25  7 15  1 57  0.0000000  0 10G16G09G06G01G04G28G31G07G03G26
 -18016952.57447 -13200142.90645  21619267.1884                   21619266.4454
        44.7504         32.5004
  -7764463.57046  -6028856.40646  23193463.2424                   23193465.3984
        41.7504         36.0004
  -1271307.74246   -971331.38344  24722786.2974                   24722789.0234
        36.7504         27.0004
  -8695995.03546  -6750818.55544  23405320.8054                   23405323.0824
        40.0004         25.0004
 -23020240.94948 -17878385.00846  20930876.4304                   20930876.4264
        48.0004         36.5004
  11063308.98446   8601178.15243  25056352.5554                   25056355.0784
        37.0004         20.5004
 -12799282.88747  -9936386.05146  22275747.1644                   22275746.3984
        45.2504         39.5004
    990975.27046    795687.46144  24869724.3284                   24869728.5904
        40.7504         26.2504
 -27602560.93047 -21489060.12148  19936297.3754                   19936298.6804
        47.7504         50.0004
 -20542547.67647 -15856594.43047  21449649.3444                   21449651.9454
        45.0004         43.0004
 25  7 15  1 57 30.0000000  0 10G16G09G06G01G04G28G31G07G03G26
 -18101330.87547 -13265892.18045  21603210.6644                   21603209.7974
        45.0004         32.5004
  -7852411.88746  -6097387.52345  23176726.7344                   23176728.4694
        41.0004         35.0004
  -1318820.28545  -1008354.08244  24713743.4454                   24713748.0314
        34.7504         27.5004
  -8616406.81646  -6688801.86744  23420466.2814                   23420468.5784
        40.7504         24.7504
 -23069734.57447 -17916951.46546  20921458.2504                   20921458.2194
        46.2504         36.5004
  11149962.46146   8668700.25443  25072842.2194                   25072844.2194
        37.0004         20.5004
 -12719827.39147  -9874472.72746  22290867.1884                   22290865.9774
        45.0004         39.0004
    896422.56346    722010.35244  24851731.0634                   24851735.5554
        40.2504         26.7504
 -27598487.05148 -21485885.67248  19937072.2814                   19937073.8324
        49.5004         50.2504
 -20540735.41047 -15855182.28147  21449994.2194                   21449996.9494
        46.2504         43.0004
 25  7 15  1 58  0.0000000  0 10G16G09G06G01G04G28G31G07G03G26
 -18185235.89847 -13331272.68045  21587243.9224                   21587243.5594
        44.7504         32.2504
  -7940312.09046  -6165881.12945  23159999.8834                   23160001.4804
        40.7504         34.7504
  -1365804.46545  -1044965.11344  24704803.7814                   24704807.5474
        35.7504         28.7504
  -8536698.40246  -6626691.53544  23435633.9384                   23435636.5904
        40.7504         25.2504
 -23119055.00447 -17955382.95746  20912072.6644                   20912072.8674
        47.5004         36.2504
  11236599.19946   8736209.41043  25089327.9454                   25089330.1884
        39.5004         20.0004
 -12640183.32447  -9812412.45346  22306022.7344                   22306021.8134
        44.0004         39.5004
    802047.00446    648471.24244  24833772.4924                   24833775.5234
        40.2504         25.0004
 -27593822.76248 -21482251.17248  19937959.8444                   19937961.1684
        49.5004         50.0004
 -20538286.36747 -15853273.93747  21450460.5554                   21450462.4654
        47.0004         42.5004
 25  7 15  1 58 30.0000000  0 10G16G09G06G01G04G28G31G07G03G26
 -18268667.61347 -13396284.36345  21571367.4064                   21571366.6134
        45.0004         32.2504
  -8028166.65246  -6234339.18745  23143281.3674                   23143284.1454
        40.2504         35.0004
  -1412262.37546  -1081166.09444  24695963.8754                   24695967.3364
        36.7504         29.0004
  -8456875.55146  -6564492.00844  23450823.4454                   23450826.9064
        40.2504         25.5004
 -23168204.58247 -17993681.32046  20902720.2974                   20902720.1914
        47.5004         36.0004
  11323214.92246   8803702.13343  25105810.4534                   25105813.3134
        37.7504         20.7504
 -12560355.77347  -9750209.23046  22321213.7734                   22321212.5084
        45.0004         39.0004
    707846.52046    575068.56344  24815846.1644                   24815849.5704
        39.5004         25.5004
 -27588570.74248 -21478158.69548  19938959.5864                   19938960.9104
        48.2504         50.0004
 -20535203.71147 -15850871.86347  21451047.2504                   21451049.3554
        45.0004         43.0004
 25  7 15  1 59  0.0000000  0 10G16G09G06G01G04G28G31G07G03G26
 -18351621.81247 -13460923.96945  21555581.7584                   21555580.5434
        44.5004         31.2504
  -8115974.16846  -6302760.55545  23126571.9304                   23126574.7154
        40.0004         35.5004
  -1458192.19946  -1116955.54744  24687223.2664                   24687226.9184
        37.5004         29.5004
  -8376940.44546  -6502205.03544  23466035.0164                   23466037.5634
        40.5004         26.7504
 -23217181.59847 -18031845.22745  20893399.9304                   20893399.7274
        47.0004         35.5004
  11409809.28546   8871178.19143  25122289.9304                   25122291.7774
        39.2504         20.7504
 -12480345.68747  -9687863.74646  22336439.2974                   22336438.0234
        44.5004         39.5004
    613822.88346    501803.68843  24797953.5634                   24797957.4614
        37.7504         23.5004
 -27582729.87148 -21473607.35948  19940071.5704                   19940072.2234
        50.5004         50.2504
 -20531486.82447 -15847975.59447  21451754.3594                   21451757.1334
        46.2504         43.0004
 25  7 15  1 59 30.0000000  0 10G16G09G06G01G04G28G31G07G03G26
 -18434095.29747 -13525188.97345  21539887.3524                   21539886.0234
        45.0004         31.2504
  -8203734.10246  -6371144.88345  23109872.4534                   23109874.7894
        41.2504         35.5004
  -1503592.93446  -1152332.74245  24678583.8594                   24678587.1994
        37.5004         30.0004
  -8296896.03547  -6439832.86344  23481267.8134                   23481269.5554
        42.0004         26.0004
 -23265985.50447 -18069874.23445  20884112.7504                   20884112.8834
        46.2504         35.5004
  11496380.03556   8938635.55953  25138763.7274                   25138765.9384
        38.2504         19.5004
 -12400155.82047  -9625378.17246  22351698.6724                   22351697.8364
        44.2504         38.0004
    519976.79746    428677.20344  24780095.1954                   24780099.3554
        38.2504         24.7504
 -27576299.98048 -21468597.07448  19941294.5554                   19941296.1094
        49.7504         50.5004
 -20527136.07047 -15844585.39147  21452582.5234                   21452584.4884
        46.5004         43.0004
 25  7 15  2  0  0.0000000  0 10G16G09G06G01G04G28G31G07G03G26
 -18516084.87947 -13589076.91045  21524285.3984                   21524284.3914
        43.7504         31.5004
  -8291446.01646  -6439491.78545  23093181.9774                   23093183.6374
        40.7504         35.2504
  -1548463.92646  -1187297.12545  24670045.7194                   24670048.4614
        38.0004         30.0004
  -8216745.44147  -6377377.95344  23496520.0004                   23496521.9614
        42.7504         25.5004
 -23314615.70347 -18107767.89845  20874858.5704                   20874858.6524
        46.0004         35.7504
                                  25155233.492
        39.750
 -12319788.62147  -9562754.41846  22366991.7734                   22366990.3244
        44.7504         38.2504
    426309.25446    355689.80544  24762270.1804                   24762274.3364
        39.0004         25.2504
 -27569281.02348 -21463127.75848  19942630.5554                   19942631.4614
        49.7504         50.5004
 -20522151.83647 -15840701.56647  21453530.5394                   21453532.6764
        46.0004         42.7504
 25  7 15  2  0 30.0000000  0 10G16G09G06G01G04G28G31G07G03G26
 -18597584.45347 -13652583.02045  21508776.1884                   21508775.5124
        44.2504         31.2504
  -8379106.21946  -6507798.40645  23076499.9924                   23076502.6764
        41.2504         35.7504
  -1592801.10946  -1221845.60245  24661607.8674                   24661611.6994
        37.0004         30.7504
  -8136488.39147  -6314840.10944  23511792.5554                   23511794.6024
        42.0004         24.7504
 -23363068.31647 -18145523.18445  20865638.8054                   20865638.5164
        46.2504         35.0004
  11669453.67646   9060462.14153  25171697.6094                   25171699.9924
        39.7504         18.2504
 -12239242.95347  -9499991.60246  22382319.2504                   22382318.1954
        44.0004         38.2504
    332824.19146    282844.55544  24744481.1094                   24744484.2034
        38.5004         24.7504
 -27561669.64148 -21457196.82448  19944078.8594                   19944080.0664
        49.0004         50.5004
 -20516531.37547 -15836322.00047  21454599.7974                   21454602.4264
        44.7504         42.5004
 25  7 15  2  1  0.0000000  0 10G16G09G06G01G04G28G31G07G03G26
 -18678591.03947 -13715705.00045  21493361.5234                   21493359.8284
        44.5004         31.0004
  -8466714.72746  -6576064.72745  23059828.9144                   23059831.2504
        40.5004         34.7504
  -1636604.19946  -1255977.86345  24653272.5084                   24653275.7194
        37.5004         31.7504
  -8056128.43046  -6252222.06243  23527084.5004                   23527086.0824
        40.7504         23.7504
 -23411343.18047 -18183139.96145  20856452.2194                   20856452.3284
        46.0004         35.5004
  11755955.79756   9127866.34052  25188158.8754                   25188162.6954
        39.5004         17.2504
 -12158521.39147  -9437091.71946  22397680.2734                   22397679.2974
        45.0004         39.0004
    239522.00046    210141.83244  24726725.4384                   24726729.2734
        39.0004         26.5004
 -27553466.28148 -21450804.61348  19945639.8054                   19945641.1414
        50.2504         50.5004
 -20510275.55147 -15831447.33647  21455790.8754                   21455792.9654
        47.0004         43.0004
 25  7 15  2  1 30.0000000  0 10G16G09G06G01G04G28G31G07G03G26
 -18759105.18747 -13778443.25845  21478039.8444                   21478038.6914
        44.7504         31.0004
  -8554274.30946  -6644292.91445  23043167.1174                   23043169.7424
        41.0004         35.0004
  -1679875.75046  -1289695.89545  24645037.9224                   24645041.9534
        37.0004         31.7504
  -7975671.87546  -6189528.72343  23542395.2814                   23542397.1884
        41.2504         22.7504
 -23459442.98847 -18220620.33246  20847298.9924                   20847299.5864
        46.0004         36.0004
  11842429.57056   9174137.48853  25204614.3674                   25204615.9804
        39.2504         21.5004
 -12077629.59847  -9374059.19546  22413072.9694                   22413072.3164
        44.5004         38.5004
    146399.87946    137579.40244  24709004.7974                   24709008.2934
        38.5004         26.2504
 -27544674.12548 -21443953.60548  19947312.7894                   19947314.0514
        49.2504         50.0004
 -20503388.11347 -15826080.51247  21457101.4224                   21457103.7304
        46.5004         42.7504
 25  7 15  2  2  0.0000000  0 10G16G09G06G01G04G28G31G07G03G26
 -18839119.20747 -13840791.80945  21462813.2974                   21462812.9734
        44.0004         31.2504
  -8641779.57846  -6712478.79745  23026514.5084                   23026517.3834
        41.0004         35.0004
  -1722610.02346  -1322995.33245  24636906.3204                   24636910.1724
        37.5004         30.5004
  -7895116.71546  -6126758.57043  23557723.7894                   23557726.2814
        40.5004         22.7504
 -23507362.09447 -18257959.89546  20838179.9924                   20838180.5274
        45.5004         36.0004
  11928878.62546   9241500.34042  25221064.7274                   25221067.5984
        38.2504         16.7504
 -11996564.35247  -9310891.51246  22428499.2894                   22428498.1374
        44.5004         38.7504
     53463.75046     65161.92644  24691319.6094                   24691322.7304
        37.2504         25.7504
 -27535288.30548 -21436640.00048  19949098.9774                   19949100.1644
        48.7504         50.0004
 -20495864.66847 -15820218.08647  21458533.1254                   21458535.1524
        46.2504         42.7504
 25  7 15  2  2 30.0000000  0 10G16G09G06G01G04G28G31G07G03G26
 -18918632.57047 -13902750.23845  21447682.7034                   21447681.4224
        44.7504         31.7504
  -8729232.80946  -6780624.11345  23009873.0234                   23009875.4774
        41.5004         34.7504
  -1764809.27346  -1355877.82845  24628875.2274                   24628879.9104
        36.7504         30.7504
  -7814468.87546  -6063916.18743  23573071.1724                   23573073.2504
        40.5004         23.0004
 -23555102.73047 -18295160.39546  20829095.7664                   20829096.3204
        45.7504         36.5004
  12015299.03146   9308840.84042  25237512.6254                   25237514.3324
        39.5004         16.2504
 -11915331.28947  -9247593.08246  22443957.8594                   22443956.8794
        44.5004         39.5004
    -39288.46545     -7112.28544  24673668.8284                   24673672.8094
        34.7504         25.5004
 -27525311.59048 -21428865.96148  19950997.0084                   19950999.0514
        48.7504         50.0004
 -20487708.56647 -15813862.68047  21460084.7194                   21460087.2704
        46.0004         42.7504
 25  7 15  2  3  0.0000000  0 10G16G09G06G01G04G28G31G07G03G26
 -18997641.56647 -13964315.66045  21432648.0234                   21432646.8134
        45.5004         31.7504
  -8816632.91446  -6848728.04745  22993242.2664                   22993243.4774
        41.0004         34.5004
  -1806472.15246  -1388342.41845  24620948.3204                   24620951.5554
        37.0004         30.7504
  -7733730.79346  -6001003.50043  23588435.3914                   23588436.9144
        41.5004         22.2504
 -23602663.62547 -18332220.83645  20820045.0634                   20820045.4534
        46.0004         35.5004
  12101690.04746   9376158.45742  25253950.4844                   25253954.5554
        37.2504         15.5004
 -11833931.89847  -9184165.02746  22459447.9304                   22459446.0824
        45.2504         38.5004
   -131855.60545    -79242.19943  24656052.2814                   24656057.4104
        32.0004         21.7504
 -27514743.45748 -21420631.07848  19953008.6414                   19953009.9614
        50.0004         50.2504
 -20478919.78947 -15807014.28147  21461758.0164                   21461759.4104
        46.0004         42.2504
 25  7 15  2  3 30.0000000  0 10G16G09G06G01G04G28G31G07G03G26
 -19076142.44547 -14025485.13345  21417709.2344                   21417708.9064
        44.7504         32.0004
  -8903978.54746  -6916789.53145  22976620.5474                   22976622.0354
        41.5004         35.7504
  -1847597.19546  -1420387.89845  24613121.6564                   24613125.0904
        37.2504         30.5004
  -7652904.55946  -5938022.11743  23603816.1954                   23603818.1764
        40.2504         21.7504
 -23650043.20747 -18369139.99246  20811028.8754                   20811029.0594
        46.0004         36.2504
  12188052.29316                  25270383.594
        37.000
 -11752367.55147  -9120608.44146  22474968.4454                   22474967.4184
        44.0004         38.5004
   -224235.99255   -151226.64153  24638473.8524                   24638478.1214
        34.0004         22.5004
 -27503583.07848 -21411934.69548  19955132.5704                   19955133.7234
        48.2504         50.0004
 -20469498.07447 -15799672.68747  21463550.3984                   21463553.0634
        46.0004         43.2504
 25  7 15  2  4  0.0000000  0 10G16G09G06G01G04G28G31G07G03G26
 -19154132.17247 -14086256.30145  21402868.0784                   21402867.5164
        45.2504         32.0004
  -8991269.20746  -6984808.17245  22960008.8364                   22960010.8204
        41.7504         34.0004
  -1888183.70346  -1452013.72345  24605397.8754                   24605401.9884
        36.5004         30.0004
  -7571993.23446  -5874974.45743  23619212.1724                   23619214.9574
        37.2504         21.0004
 -23697240.94547 -18405917.44546  20802047.6564                   20802047.5164
        46.2504         36.0004
  12274381.49216                  25286812.563
        36.250
 -11670640.78547  -9056925.29746  22490520.9694                   22490520.1954
        44.2504         38.7504
   -316428.71146   -223064.90244  24620929.6724                   24620933.9774
        36.2504         27.5004
 -27491830.59048 -21402776.92648  19957368.8204                   19957370.0634
        48.7504         50.0004
 -20459444.06247 -15791838.39847  21465463.7664                   21465466.3554
        46.5004         43.0004
 25  7 15  2  4 30.0000000  0 10G16G09G06G01G04G28G31G07G03G26
 -19231611.94147 -14146630.12145  21388124.5164                   21388123.6454
        44.7504         31.7504
  -9078508.48446  -7052786.78945  22943408.3594                   22943410.1684
        41.5004         33.5004
  -1928235.23846  -1483222.69145  24597776.1954                   24597780.5314
        36.5004         31.7504
  -7491003.83646  -5811865.94143  23634624.5784                   23634626.9494
        37.5004         21.2504
 -23744260.14147 -18442555.78945  20793100.2344                   20793100.3954
        46.5004         35.7504
  12360674.44156   9417881.02053  25303235.1024                   25303238.3524
        38.2504         20.2504
 -11588757.09847  -8993119.87946  22506103.3444                   22506102.1954
        45.2504         38.5004
   -408437.29346   -294759.64545  24603421.7504                   24603425.4104
        39.5004         30.0004
 -27479490.14548 -21393161.02048  19959716.9304                   19959718.1054
        49.7504         49.7504
 -20448762.43447 -15783515.05547  21467495.8674                   21467498.4264
        45.7504         42.5004
 25  7 15  2  5  0.0000000  0 10G16G09G06G01G04G28G31G07G03G26
 -19308575.98447 -14206602.04745  21373479.0634                   21373477.4414
        46.0004         31.7504
  -9165692.90646  -7120722.64545  22926817.1644                   22926818.8524
        41.7504         34.5004
  -1967748.33245  -1514012.09845  24590257.7814                   24590261.8594
        35.7504         31.7504
  -7409936.52346  -5748696.77043  23650050.7034                   23650053.8484
        37.7504         21.5004
 -23791097.28147 -18479052.25845  20784187.5474                   20784187.0984
        46.5004         35.5004
  12446932.67615                  25319648.602
        34.250
 -11506716.66447  -8929192.33246  22521715.0704                   22521714.1024
        44.5004         38.2504
   -500258.20746   -366308.21945  24585948.7424                   24585951.7854
        40.7504         31.0004
 -27466559.00048 -21383084.80948  19962177.6414                   19962178.6884
        49.5004         49.7504
 -20437451.00847 -15774700.95747  21469648.1804                   21469651.2664
        45.0004         42.2504
 25  7 15  2  5 30.0000000  0 10G16G09G06G01G04G28G31G07G03G26
 -19385017.45347 -14266166.78545  21358933.0474                   21358930.9694
        45.7504         32.2504
  -9252818.08647  -7188612.34045  22910238.0634                   22910239.5634
        43.2504         35.7504
  -2006718.47746  -1544378.43745  24582841.8204                   24582845.3364
        36.7504         31.2504
  -7328790.40246  -5685466.16843  23665492.4844                   23665494.8244
        38.0004         21.2504
 -23837747.78547 -18515403.30146  20775309.9774                   20775309.9734
        47.0004         36.0004
  12533160.109 5                  25336057.070
        33.000
 -11424517.35547  -8865140.96946  22537356.7034                   22537355.8094
        44.5004         38.2504
   -591886.92246   -437706.98845  24568511.6254                   24568515.7114
        40.7504         31.5004
 -27453033.41448 -21372545.39848  19964751.4774                   19964753.2544
        49.2504         49.7504
 -20425506.58247 -15765393.61347  21471922.3524                   21471924.2894
        46.5004         43.0004
 25  7 15  2  6  0.0000000  0 10G16G09G06G01G04G28G31G07G03G26
 -19460938.44147 -14325325.94545  21344485.0234                   21344483.9224
        46.2504         32.7504
  -9339888.38747  -7256459.30945  22893669.4304                   22893670.6134
        42.0004         35.0004
  -2045150.10946  -1574325.14845  24575528.7584                   24575531.8324
        37.5004         30.5004
  -7247573.41446  -5622180.30143  23680948.6094                   23680950.1914
        39.7504         20.5004
 -23884215.88747 -18551612.20746  20766467.0864                   20766467.7854
        47.0004         36.0004
  12619349.50815                  25352458.383
        34.500
 -11342165.91447  -8800971.05946  22553027.7584                   22553026.7974
        44.5004         38.5004
   -683327.43746   -508959.09845  24551111.1564                   24551114.5704
        40.0004         30.7504
 -27438918.52048 -21361546.78548  19967437.4384                   19967439.2114
        48.0004         49.7504
 -20412934.85247 -15755597.46147  21474314.0704                   21474316.4534
        44.2504         42.7504
 25  7 15  2  6 30.0000000  0  9G16G09G06G01G04G31G07G03G26
 -19536332.93747 -14384074.88345  21330137.9144                   21330136.9104
        44.5004         32.5004
  -9426900.38347  -7324260.78945  22877111.4694                   22877112.7624
        42.0004         35.7504
  -2083039.75446  -1603849.53945  24568319.0314                   24568321.7234
        39.0004         32.5004
  -7166285.57846  -5558839.21943  23696416.4844                   23696418.4144
        39.0004         20.5004
 -23930497.93047 -18587676.13346  20757660.4534                   20757660.6724
        46.5004         36.5004
 -11259662.18447  -8736682.51246  22568727.6414                   22568727.3164
        43.7504         38.5004
   -774576.13346   -580061.73045  24533747.0864                   24533750.4804
        40.7504         32.0004
 -27424211.57048 -21350086.84048  19970236.3754                   19970237.6884
        48.5004         49.7504
 -20399733.55947 -15745310.75047  21476826.1644                   21476828.2974
        45.5004         42.5004
 25  7 15  2  7  0.0000000  0  9G16G09G06G01G04G31G07G03G26
 -19611201.84047 -14442414.25445  21315891.6644                   21315889.9534
        45.7504         32.5004
  -9513857.11747  -7392019.25445  22860563.6414                   22860565.3754
        42.0004         35.5004
  -2120390.65246  -1632954.13345  24561211.2034                   24561214.5124
        38.7504         31.5004
  -7084933.56246  -5495448.18443  23711897.3134                   23711899.5554
        38.7504         22.5004
 -23976596.97747 -18623597.45345  20748887.7584                   20748887.7464
        46.7504         35.5004
 -11177011.89547  -8672279.75046  22584454.9924                   22584455.0554
        42.5004         37.5004
   -865636.15646   -651017.36345  24516418.9534                   24516422.0314
        41.0004         31.5004
 -27408916.52047 -21338168.64548  19973146.9844                   19973147.7934
        47.7504         49.5004
 -20385907.28547 -15734537.03547  21479456.6174                   21479459.8284
        45.2504         42.7504
 25  7 15  2  7 30.0000000  0  9G16G09G06G01G04G31G07G03G26
 -19685525.68047 -14500328.88745  21301747.6884                   21301746.5664
        45.7504         32.5004
  -9600741.32447  -7459721.17645  22844029.9454                   22844031.5314
        42.0004         35.5004
  -2157185.53546  -1661625.45345  24554209.4224                   24554212.8554
        37.7504         32.0004
  -7003503.53546  -5431996.34043  23727393.8914                   23727395.5044
        41.2504         22.5004
 -24022495.44147 -18659362.49246  20740153.6804                   20740154.0784
        45.2504         36.0004
 -11094200.19147  -8607751.21546  22600214.2344                   22600213.5314
        44.0004         38.5004
   -956489.95747   -721812.30545  24499129.4144                   24499132.5314
        42.7504         31.7504
 -27393016.82048 -21325779.29748  19976172.4614                   19976173.4344
        48.2504         49.7504
 -20371440.00847 -15723263.84047  21482210.1804                   21482212.7934
        46.2504         42.7504
 25  7 15  2  8  0.0000000  0  9G16G09G06G01G04G31G07G03G26
 -19759290.84847 -14557808.19945  21287710.9144                   21287709.3834
        45.0004         32.5004
  -9687541.78547  -7527357.85946  22827512.4694                   22827514.7424
        42.0004         36.0004
  -2193413.31646  -1689854.89845  24547314.7114                   24547319.4104
        37.7504         31.5004
  -6921987.88746  -5368477.77044  23742905.5084                   23742907.8324
        40.5004         24.5004
 -24068182.09047 -18694962.46946  20731460.2274                   20731459.9024
        45.5004         36.5004
 -11011218.70347  -8543090.37546  22616004.8364                   22616004.2974
        43.7504         39.0004
  -1047126.63346   -792438.07445  24481881.8204                   24481885.0984
        41.7504         31.5004
 -27376502.09448 -21312910.69148  19979315.0704                   19979316.1764
        49.0004         49.7504
 -20356321.88347 -15711483.49647  21485087.1954                   21485089.6604
        44.7504         42.5004
 25  7 15  2  8 30.0000000  0  9G16G09G06G01G04G31G07G03G26
 -19832499.61347 -14614853.96545  21273779.6884                   21273778.2194
        45.0004         32.5004
  -9774263.07847  -7594932.86746  22811010.6804                   22811012.1724
        42.5004         36.5004
  -2229078.84046  -1717646.20345  24540528.6024                   24540531.7074
        38.2504         31.5004
  -6840394.77746  -5304898.85244  23758431.9774                   23758434.3834
        41.2504         26.2504
 -24113661.33647 -18730400.83646  20722805.6174                   20722805.4964
        46.0004         36.0004
 -10928074.72347  -8478302.91046  22631826.8914                   22631825.7584
        43.5004         37.5004
  -1137550.28546   -862897.85244  24464674.3204                   24464677.4414
        41.5004         29.7504
 -27359377.83648 -21299567.12548  19982573.7974                   19982575.1724
        48.2504         49.7504
 -20340559.04747 -15699200.76647  21488086.8054                   21488089.4144
        45.0004         42.5004
 25  7 15  2  9  0.0000000  0  9G16G09G06G01G04G31G07G03G26
 -19905152.89847 -14671466.87145  21259954.3914                   21259952.6764
        44.7504         32.0004
  -9860908.46947  -7662448.69546  22794522.2734                   22794524.0354
        42.2504         36.5004
  -2264185.35946  -1745001.93745  24533846.9844                   24533851.6684
        36.2504         31.0004
  -6758730.87146  -5241264.77344  23773972.8204                   23773974.4454
        40.0004         24.7504
 -24158936.25447 -18765679.97746  20714189.9224                   20714190.3164
        45.5004         36.5004
 -10844774.12147  -8413393.41846  22647679.2974                   22647677.5984
        45.0004         38.5004
  -1227764.25047   -933194.23044  24447507.4384                   24447510.3404
        42.2504         28.0004
 -27341648.18048 -21285751.84448  19985947.7584                   19985948.7854
        49.0004         50.0004
 -20324156.08647 -15686419.25047  21491208.4614                   21491210.7624
        44.5004         42.2504
 25  7 15  2  9 30.0000000  0  9G16G09G06G01G04G31G07G03G26
 -19977254.83247 -14727650.16045  21246233.7894                   21246232.2194
        45.0004         33.2504
  -9947483.82046  -7729909.96946  22778047.5554                   22778048.7194
        41.0004         36.2504
  -2298739.14546  -1771926.96945  24527271.9224                   24527275.8834
        38.0004         30.7504
  -6677005.71546  -5177582.96544  23789524.8364                   23789527.2584
        40.2504         25.5004
 -24204012.62547 -18800804.41446  20705612.0234                   20705612.0824
        45.5004         36.5004
 -10761325.48047  -8348368.54746  22663558.6174                   22663557.6174
        43.7504         37.7504
  -1317774.21946  -1003331.66844  24430378.4614                   24430381.8204
        39.7504         26.2504
 -27323319.95748 -21271470.12548  19989435.6414                   19989436.8094
        48.5004         50.0004
 -20307120.47347 -15673144.75047  21494449.3674                   21494452.3284
        44.5004         42.2504
 25  7 15  2 10  0.0000000  0  9G16G09G06G01G04G31G07G03G26
 -20048806.05947 -14783404.31245  21232617.1954                   21232616.4224
        45.0004         33.5004
 -10033992.37547  -7797319.20346  22761584.8364                   22761587.0434
        43.5004         37.5004
  -2332743.46146  -1798423.85245  24520801.5554                   24520805.2114
        38.0004         30.5004
  -6595226.02746  -5113858.67244  23805086.8524                   23805089.5274
        40.0004         26.0004
 -24248893.46547 -18835776.50046  20697071.5864                   20697071.5434
        46.5004         36.0004
 -10677734.60947  -8283232.85946  22679465.3134                   22679464.5944
        44.2504         37.5004
  -1407583.50046  -1073312.77044  24413288.8204                   24413291.1254
        41.2504         26.5004
 -27304397.30948 -21256725.23848  19993036.2584                   19993037.7934
        48.7504         50.0004
 -20289456.90247 -15659380.94147  21497811.3204                   21497813.4304
        45.5004         42.5004
 25  7 15  2 10 30.0000000  0  9G16G09G06G01G04G31G07G03G26
 -20119804.32847 -14838727.59045  21219107.7424                   21219105.6374
        45.5004         33.0004
 -10120433.69947  -7864676.04746  22745136.2194                   22745137.9454
        43.0004         37.2504
  -2366198.39846  -1824492.62545  24514434.6414                   24514438.6844
        38.2504         30.5004
  -6513394.98446  -5050094.35544  23820658.7504                   23820661.5984
        38.7504         26.0004
 -24293578.29347 -18870595.83646  20688568.6254                   20688568.5984
        46.0004         36.7504
 -10594004.18447  -8217988.41046  22695398.0864                   22695397.8484
        43.0004         37.0004
  -1497191.75046  -1143137.19544  24396237.0944                   24396239.1884
        40.2504         26.7504
 -27284880.91848 -21241517.66848  19996750.3284                   19996751.6414
        49.2504         50.0004
 -20271166.63347 -15645128.79347  21501291.6954                   21501293.5554
        45.0004         42.2504
