     2.11           OBSERVATION DATA    G (GPS)             RINEX VERSION / TYPE
teqc  2013Mar15     Lisa A Jose         20140613 00:30:45UTCPGM / RUN BY / DATE
OSX ker:10.8.0|Core 2 Duo|gcc 4.2 -m64|OSX ker:10.8.0+|=+   COMMENT
BIT 2 OF LLI FLAGS DATA COLLECTED UNDER A/S CONDITION       COMMENT
VERS                                                        MARKER NAME
                                                            MARKER NUMBER
G Funning/L Jose    University of California, Riverside     OBSERVER / AGENCY
0220413523          TRIMBLE R7          2.32                REC # / TYPE / VERS
1441038426          TRM57971.00     NONE                    ANT # / TYPE
 -2430816.0298 -4704719.7452  3543696.9495                  APPROX POSITION XYZ
        1.0327        0.0000        0.0000                  ANTENNA: DELTA H/E/N
     1     1                                                WAVELENGTH FACT L1/2
     7    L1    L2    C1    P2    D1    S1    S2            # / TYPES OF OBSERV
    30.0000                                                 INTERVAL
    16                                                      LEAP SECONDS
 SNR is mapped to RINEX snr flag value [0-9]                COMMENT
  L1 & L2: min(max(int(snr_dBHz/6), 0), 9)                  COMMENT
  2014     5    29    17    19   30.0000000     GPS         TIME OF FIRST OBS
  2014     5    29    23    59   30.0000000     GPS         TIME OF LAST OBS
  2014     5    29    23    59   30.0000000     GPS         TIME OF LAST OBS
                                                            END OF HEADER
 14  5 29 17 19 30.0000000  0  8G16G07G08G03G13G23G32G20
     20049.87958     12922.32856  21142889.2584   21142884.3324
        50.7504         38.5004
   -212828.20757   -135227.72355  22301391.9844   22301388.7584
        47.2504         35.7504
   -246411.98057   -157339.87154  24280915.8444   24280915.9844
        42.7504         25.7504
   -131611.63356    -87119.15654  23650249.5474   23650250.2194
        39.0004         25.5004
   -195690.83258   -127569.64156  20937030.8754   20937026.5474
        50.7504         40.0004
    -89560.23058    -58505.69557  20354288.7194   20354282.1054
        51.0004         42.5004
    101508.80156     70374.49253  24634417.1254   24634419.4844
        40.0004         21.2504
    112148.50057     72191.03955  21920447.0004   21920443.7504
        47.0004         35.7504
 14  5 29 17 20  0.0000000  0 10G16G07G08G10G03G13G23G32G27G20
     29956.62148     20641.83246  21144774.7114   21144769.6804       -330.2254
        50.2504         39.0004
   -304275.43448   -206485.32446  22283989.9694   22283986.9144       3048.2414
        49.0004         38.0004
   -353149.10946   -240511.55542  24260605.4144   24260604.3984       3557.9044
        36.7504         17.2504
   -203724.80957   -117412.53154  23351902.1414   23351899.7584
        42.0004         27.0004
   -256005.30946   -184049.17644  23626578.9924   23626579.4494       4146.4564
        40.0004         25.2504
   -281997.31248   -194821.44946  20920607.6174   20920603.3324       2876.8834
        50.5004         39.5004
   -129181.59848    -89379.52747  20346748.9144   20346742.7934       1320.7124
        48.2504         42.5004
    170587.29346    124201.61343  24647562.5474   24647564.7384      -2302.6164
        41.2504         22.2504
   -147495.56656    -88042.29754  24088612.3984   24088614.6414
        40.0004         26.0004
    166636.02047    114648.74245  21930816.0394   21930812.6484      -1816.2514
        47.0004         35.0004
 14  5 29 17 20 30.0000000  0 10G16G07G08G10G03G13G23G32G27G20
     40233.46948     28649.73046  21146729.9454   21146725.0164       -342.5624
        50.7504         39.0004
   -395724.94148   -277744.66846  22266587.7344   22266584.7274       3048.3174
        48.0004         36.5004
   -459940.18747   -323725.37143  24240283.5394   24240283.0164       3559.7034
        42.5004         22.0004
   -317068.02047   -205731.89144  23330333.4774   23330330.7704       3778.1074
        42.7504         28.0004
   -380504.00847   -281061.08644  23602887.3284   23602887.6914       4149.9574
        42.0004         26.5004
   -368305.25848   -262074.40246  20904183.5084   20904179.6024       2876.9324
        50.5004         40.2504
   -168666.43448   -120146.96947  20339235.0394   20339228.6094       1316.1614
        49.7504         42.7504
    239502.65246    177901.53943  24660677.8364   24660679.0944      -2297.1794
        41.0004         22.5004
   -248963.00846   -167107.72344  24069303.8054   24069306.3834       3382.2484
        40.2504         24.2504
    221208.96147    157172.96545  21941201.2664   21941197.5514      -1819.0984
        46.7504         35.7504
 14  5 29 17 21  0.0000000  0 10G16G07G08G10G03G13G23G32G27G20
     50927.47348     36982.68846  21148764.8204   21148760.5474       -356.4674
        50.0004         40.0004
   -487128.21947   -348967.96945  22249194.2814   22249191.2344       3046.7764
        47.0004         35.0004
   -566736.53947   -406943.23444  24219960.7734   24219960.3714       3559.8784
        42.5004         25.7504
   -430170.27346   -293863.51244  23308810.8524   23308808.2894       3770.0754
        41.7504         27.5004
   -505055.73047   -378114.25844  23579186.3204   23579186.1094       4151.7244
        42.5004         27.0004
   -454564.37548   -329289.30546  20887768.8754   20887764.8834       2875.3044
        51.0004         40.5004
   -207964.75448   -150769.07447  20331756.9924   20331750.6844       1309.9444
        51.5004         42.7504
    308301.35946    231510.73442  24673768.7114   24673772.1684      -2293.2904
        36.0004         16.7504
   -350380.54746   -246134.30143  24050004.6884   24050004.9184       3380.5854
        41.2504         22.7504
    275913.74247    199799.93046  21951610.7114   21951607.6374      -1823.4934
        47.2504         36.5004
 14  5 29 17 21 30.0000000  0 10G16G07G08G10G03G13G04G23G27G20
     62059.43448     45656.91846  21150883.7034   21150878.6884       -371.0654
        50.5004         39.2504
   -578462.87948   -420137.81645  22231813.7114   22231810.4104       3044.4894
        48.5004         35.5004
   -673515.18046   -490147.31243  24199641.9384   24199641.0634       3559.2884
        39.7504         22.2504
   -543006.14147   -381787.52744  23287338.5234   23287336.5434       3761.1964
        43.2504         27.5004
   -629634.53545   -475188.50443  23555478.8834   23555479.8404       4152.6274
        35.5004         21.2504
   -540750.30148   -396447.17646  20871368.2034   20871363.8524       2872.8644
        51.0004         40.5004
     16686.12156      9852.61753  25199680.0164   25199681.3244
        41.5004         22.2504
   -247052.48848   -181227.08647  20324318.9774   20324312.3984       1302.9244
        48.0004         42.5004
   -451722.28546   -325101.79344  24030719.3524   24030722.7034       3378.0584
        40.2504         26.5004
    330770.61347    242545.43046  21962050.1254   21962046.6054      -1828.5624
        46.0004         36.2504
 14  5 29 17 22  0.0000000  0 11G16G07G08G10G03G13G04G23G32G27G20
     73636.51648     54677.98046  21153086.5474   21153081.5904       -385.9034
        50.7504         39.5004
   -669719.69547   -491246.97745  22214448.0634   22214445.0434       3041.8944
        47.0004         35.7504
   -780266.69947   -573330.21544  24179327.5314   24179326.6214       3558.3844
        42.5004         25.0004
   -655564.04347   -469494.99644  23265919.8054   23265917.5274       3751.9304
        43.5004         28.5004
   -754227.62145   -572273.90643  23531769.5784   23531770.6764       4153.1034
        35.0004         19.5004
   -626852.09048   -463539.48046  20854983.8594   20854979.2814       2870.0604
        50.5004         39.5004
     28144.04746     18780.83243  25201861.0234   25201862.4064       -381.9314
        40.7504         20.2504
   -285918.89848   -211512.60946  20316923.2584   20316916.8914       1295.5474
        48.7504         41.0004
     57355.65656    307491.54352  24699900.6174   24699902.3284
        40.0004         17.7504
   -552975.934 6                  24011452.602                        3375.122
        36.500
    385785.59447    285414.16045  21972518.8204   21972515.4694      -1833.8334
        47.2504         34.5004
 14  5 29 17 22 30.0000000  0 11G16G07G08G10G03G13G04G23G32G27G20
     85658.94148     64046.07846  21155374.5554   21155369.2344       -400.7484
        50.2504         38.5004
   -760896.83647   -562294.12546  22197097.7194   22197094.4964       3039.2384
        46.2504         36.2504
   -886989.19547   -656490.51644  24159018.3674   24159018.0434       3557.4174
        42.7504         26.7504
   -767839.46546   -556982.28544  23244553.8204   23244552.1994       3742.5144
        41.7504         26.5004
   -878830.05146   -669366.69543  23508058.7584   23508059.8954       4153.4144
        38.2504         18.2504
   -712866.18448   -530563.45746  20838616.1644   20838611.4844       2867.1364
        50.0004         38.7504
     39758.84046     27831.26643  25204071.6024   25204072.1804       -387.1604
        40.0004         19.7504
   -324560.63347   -241623.10246  20309569.9144   20309563.1684       1288.0584
        47.2504         41.2504
    125881.21546    360887.83642  24712940.1334   24712942.7304      -2284.1854
        36.7504         16.7504
   -654136.23455   -468104.73052  23992202.1414   23992204.9144       3372.1854
        35.2504         17.2504
    440958.05147    328405.55145  21983018.1644   21983014.6254      -1839.0824
        46.7504         35.2504
 14  5 29 17 23  0.0000000  0 11G16G07G08G10G03G13G04G23G32G27G20
     98126.58648     73761.11746  21157746.9534   21157742.5274       -415.5884
        48.5004         37.7504
   -851992.80148   -633278.01646  22179762.7034   22179759.5354       3036.5324
        50.0004         38.7504
   -993680.41447   -739626.49243  24138715.2424   24138715.6374       3556.3744
        42.7504         23.7504
   -879827.96546   -644246.04743  23223244.1564   23223240.9574       3732.9504
        41.2504         22.5004
  -1003436.18456   -766462.22354  23484345.7814   23484347.5634       4153.7264
        37.7504         24.2504
   -798789.06248   -597516.35245  20822265.0234   20822260.5864       2864.0964
        48.5004         35.0004
     51529.79746     37003.37943  25206312.4384   25206312.1914       -392.3654
        40.5004         22.0004
   -362974.44148   -271555.97347  20302259.7504   20302253.1524       1280.4604
        53.0004         44.2504
    194317.87546    414214.76243  24725965.1334   24725966.1604      -2281.2224
        41.5004         19.5004
   -755198.45756   -546854.43754  23972970.4144   23972971.3054       3369.2494
        41.0004         26.5004
    496287.34447    371519.19145  21993546.9534   21993543.8204      -1844.3104
        46.0004         35.7504
 14  5 29 17 23 30.0000000  0 11G16G07G08G10G03G13G04G23G32G27G20
    111042.05148     83825.07446  21160204.4384   21160199.8594       -430.5154
        50.5004         38.7504
   -943002.71547   -704194.79746  22162444.1884   22162440.9654       3033.6644
        47.7504         37.5004
  -1100335.36346   -822734.12543  24118419.4924   24118419.4774       3555.1654
        41.0004         21.0004
   -991522.33247   -731280.58644  23201989.1884   23201986.7504       3723.1464
        44.0004         29.0004
  -1128037.76246   -863554.32444  23460635.6334   23460635.9064       4153.3864
        40.5004         27.0004
   -884613.86748   -664392.83646  20805933.2894   20805929.0904       2860.8274
        50.7504         41.0004
     63459.11346     46298.91843  25208582.4064   25208581.9574       -397.6444
        41.5004         19.7504
   -401154.03948   -301306.34047  20294994.6644   20294988.1914       1272.6534
        51.5004         43.0004
    262668.28156    467474.61753  24738970.3834   24738972.2704      -2278.2594
        38.5004         18.5004
   -856154.36346   -625521.29744  23953758.9224   23953761.3834       3365.1974
        41.7504         27.5004
    551775.97347    414756.94145  22004106.2194   22004103.1684      -1849.6214
        45.5004         35.0004
 14  5 29 17 24  0.0000000  0 11G16G07G08G10G03G13G04G23G32G27G20
    124407.53548     94239.71146  21162747.7504   21162743.2384       -445.5164
        49.7504         39.0004
  -1033922.39147   -775041.28946  22145142.6254   22145139.4384       3030.6564
        47.5004         37.0004
  -1206950.23446   -905810.58243  24098131.2974   24098130.9614       3553.8294
        41.5004         22.5004
  -1102915.84047   -818080.71544  23180791.7114   23180788.7194       3713.1174
        43.5004         27.0004
  -1252627.30546   -960636.96944  23436926.5474   23436927.0744       4152.9854
        40.5004         26.0004
   -970334.87948   -731188.44146  20789621.4384   20789616.9884       2857.3674
        51.0004         40.5004
     75548.67246     55719.31343  25210882.1564   25210883.0354       -402.9854
        39.0004         22.7504
   -439093.86748   -330869.87947  20287774.8984   20287768.3674       1264.6614
        51.0004         42.0004
    330933.80514                  24751960.406                       -2275.295
        29.500
   -956996.71946   -704099.69144  23934569.7734   23934571.1254       3361.4124
        41.0004         29.2504
    607425.24247    458119.91045  22014695.5004   22014692.8404      -1854.9764
        43.5004         33.5004
 14  5 29 17 24 30.0000000  0 11G16G07G08G10G03G13G04G23G32G27G20
    138222.75448    105004.79746  21165376.9224   21165372.3594       -460.5074
        50.5004         38.7504
  -1124750.55948   -845816.50046  22127858.6414   22127855.7114       3027.6064
        49.0004         38.5004
  -1313523.14146   -988854.30943  24077851.1484   24077850.9804       3552.4304
        37.0004         20.7504
  -1214004.55147   -904643.32044  23159652.1644   23159649.2544       3702.9574
        43.7504         28.0004
  -1377200.09046  -1057706.58244  23413221.4384   23413222.1524       4152.4264
        40.5004         26.7504
  -1055948.98048   -797900.72346  20773329.1024   20773324.8204       2853.8034
        51.5004         40.2504
     87797.47347     65263.79343  25213213.9224   25213213.5634       -408.2934
        42.2504         21.5004
   -476791.32448   -360244.55147  20280601.2664   20280595.2304       1256.5824
        50.0004         42.7504
    399115.65246    521347.39153  24764937.4454   24764936.4774      -2272.7284
        39.5004         21.5004
  -1057720.81247   -782585.92244  23915402.1414   23915403.8834       3357.4704
        42.0004         28.0004
    663234.09047    501607.21145  22025315.8134   22025312.7894      -1860.2954
        44.5004         33.7504
 14  5 29 17 25  0.0000000  0 11G16G07G08G10G03G13G04G23G32G27G20
    152486.55548    116119.42646  21168091.1724   21168086.5084       -475.4604
        50.5004         38.7504
  -1215486.63347   -916519.89145  22110591.6484   22110588.5904       3024.5364
        46.5004         35.2504
  -1420053.03946  -1071864.55143  24057579.5164   24057579.3364       3550.9974
        37.2504         20.2504
  -1324785.01647   -990965.73844  23138571.4614   23138568.6994       3692.6824
        43.0004         28.2504
  -1501751.74647  -1154759.72344  23389519.8984   23389520.0314       4151.7224
        42.0004         28.0004
  -1141453.28548   -864527.46146  20757058.2734   20757054.1214       2850.1434
        50.7504         40.2504
    100203.65446     74930.86243  25215573.9844   25215575.0704       -413.5394
        39.2504         22.5004
   -514243.87148   -389428.38747  20273474.5634   20273467.8054       1248.4184
        50.0004         43.5004
    467211.72346    574409.02043  24777894.0084   24777896.9144      -2269.8694
        37.0004         19.5004
  -1158322.63746   -860976.92243  23896257.7814   23896259.8634       3353.3944
        40.5004         21.2504
    719200.63347    545217.37145  22035965.9064   22035963.0554      -1865.5514
        45.7504         35.0004
 14  5 29 17 25 30.0000000  0 11G16G07G08G10G03G13G04G23G32G27G20
    167202.41448    127586.29746  21170891.4064   21170886.9064       -490.5294
        49.5004         39.0004
  -1306124.74647   -987146.96546  22093344.4144   22093340.9104       3021.2704
        47.7504         37.0004
  -1526534.16847  -1154836.82044  24037316.3204   24037315.8484       3549.3714
        43.0004         26.0004
  -1435248.98447  -1077041.55944  23117550.5554   23117547.7704       3682.1324
        43.7504         27.7504
  -1626272.91846  -1251789.10244  23365825.0554   23365824.4264       4150.7064
        41.0004         26.5004
  -1226840.52748   -931062.97746  20740809.7344   20740805.4924       2846.2414
        51.0004         40.2504
    112770.90246     84723.50443  25217966.0004   25217965.9734       -418.9084
        37.2504         21.5004
   -551444.21148   -418415.70347  20266395.4064   20266388.7114       1240.0114
        48.7504         43.0004
    535225.96946    627406.89543  24790837.9694   24790839.8714      -2267.1424
        40.5004         20.2504
  -1258793.14146   -939265.52744  23877139.1954   23877140.7384       3349.0174
        41.0004         28.0004
    775328.26247    588953.06345  22046646.9064   22046644.2584      -1870.9214
        44.5004         34.5004
 14  5 29 17 26  0.0000000  0 11G16G07G08G10G03G13G04G23G32G27G20
    182370.67648    139405.69546  21173778.2344   21173773.0004       -505.6094
        50.0004         39.0004
  -1396662.94547  -1057696.18446  22076115.2894   22076112.1844       3017.9404
        47.7504         37.0004
  -1632964.08646  -1237769.14544  24017063.9064   24017062.8754       3547.6644
        41.7504         26.0004
  -1545392.04747  -1162867.29344  23096590.9534   23096588.2114       3671.4354
        43.5004         27.7504
  -1750758.09846  -1348790.44544  23342136.0944   23342135.7154       4149.5064
        41.2504         27.5004
  -1312106.64848   -997504.12146  20724584.1334   20724579.4774       2842.2044
        50.7504         40.5004
    125498.36346     94640.94943  25220388.2584   25220388.3284       -424.2494
        38.7504         21.2504
   -588388.71148   -447203.65647  20259365.1024   20259358.7584       1231.4834
        50.0004         42.7504
    603158.48046    680340.96143  24803764.8674   24803768.4964      -2264.4174
        37.7504         19.0004
  -1359127.13347  -1017447.76244  23858045.8204   23858047.8554       3344.4664
        42.2504         28.5004
    831616.49247    632813.90645  22057358.0474   22057355.1914      -1876.2744
        45.5004         33.7504
 14  5 29 17 26 30.0000000  0 11G16G07G08G10G03G13G04G23G32G27G20
   1773414.75048   1379180.27046  21476543.5634   21476539.1844       -520.8024
        49.5004         39.0004
     88327.85948     99439.52746  22358699.7114   22358696.4344       3014.3074
        48.5004         37.7504
   -163913.33246    -93054.19944  24296614.6564   24296613.5664       3545.6424
        41.2504         25.0004
    -79781.91047    -20833.40244  23375487.7274   23375484.9494       3660.3294
        43.5004         28.5004
   -299773.45746   -218152.96544  23618249.0314   23618248.8014       4147.8454
        40.2504         26.7504
    178179.06348    163757.47346  21008176.0164   21008171.8244       2837.8104
        51.0004         40.5004
   1713809.37946   1332285.88743  25522633.5784   25522633.5314       -429.7014
        38.0004         20.0004
    950350.90248    751814.18847  20552177.7894   20552170.9884       1222.6804
        51.7504         42.5004
   2246431.00846   1960812.80243  25116468.2034   25116472.5664      -2261.7514
        38.0004         21.2504
    116108.02047    132086.17244  24138774.1724   24138775.6884       3339.4954
        43.0004         29.5004
   2463486.61347   1904400.90245  22367892.8594   22367889.9184      -1881.6714
        45.0004         33.5004
 14  5 29 17 27  0.0000000  0 11G16G07G08G10G03G13G04G23G32G27G20
   1789491.85948   1391707.85546  21479602.8364   21479598.0944       -535.9044
        49.5004         38.2504
     -2000.44547     29053.85946  22341510.5784   22341507.4064       3010.9434
        47.2504         37.5004
   -270230.35947   -175898.57044  24276383.1254   24276382.4104       3543.9014
        42.0004         26.0004
   -189265.16447   -106145.01244  23354653.0394   23354650.1994       3649.4424
        44.0004         28.5004
   -424165.63746   -315081.81644  23594577.3984   23594577.1024       4146.4064
        40.5004         27.2504
     93171.18448     97517.55546  20991999.7274   20991995.1804       2833.5964
        51.0004         40.2504
   1726860.44546   1342455.51243  25525116.3984   25525117.7304       -435.0364
        40.7504         19.7504
    913932.10248    723435.85947  20545247.4534   20545240.6024       1213.9604
        51.5004         42.5004
   2314204.54746   2013623.01643  25129368.2344   25129369.4184      -2259.1184
        39.2504         19.5004
     16067.20346     54132.36344  24119736.2664   24119737.4384       3334.6944
        40.7504         28.2504
   2520098.28947   1948513.77345  22378666.1414   22378662.8014      -1887.0564
        44.7504         34.2504
 14  5 29 17 27 30.0000000  0 11G16G07G08G10G03G13G04G23G32G27G20
   1806023.68848   1404589.76646  21482749.0314   21482744.0474       -551.0614
        49.5004         38.7504
    -92221.00847    -41247.84846  22324342.0784   22324338.9884       3007.3524
        47.5004         37.0004
   -376487.58646   -258696.33644  24256162.9534   24256162.2384       3541.9084
        41.2504         26.0004
   -298411.50847   -191194.09444  23333883.5634   23333880.9614       3638.2114
        43.7504         28.2504
   -548503.08646   -411968.01244  23570916.6804   23570916.8674       4144.5824
        41.2504         26.7504
      8298.08248     31382.65646  20975848.7194   20975844.4414       2829.1034
        51.2504         40.5004
   1740072.74646   1352750.80143  25527630.8984   25527631.3984       -440.4104
        40.5004         20.5004
    877781.42648    695266.46947  20538367.9064   20538361.5634       1205.0234
        49.5004         42.7504
   2381898.46546   2066371.29743  25142248.9224   25142251.1214      -2256.4644
        39.2504         19.7504
    -83819.22747    -23701.12144  24100729.1884   24100730.5984       3329.5484
        42.7504         29.5004
   2576870.95747   1992752.09445  22389469.5634   22389466.1374      -1892.4224
        45.5004         34.0004
 14  5 29 17 28  0.0000000  0 11G16G07G08G10G03G13G04G23G32G27G20
   1823004.72748   1417821.71946  21485979.7814   21485975.3594       -566.0354
        49.0004         38.5004
   -182336.73047   -111467.87146  22307193.5314   22307190.3754       3003.8574
        47.2504         37.0004
   -482687.70746   -341449.60244  24235953.6804   24235952.6374       3540.0044
        41.7504         26.2504
   -407221.70747   -275981.23044  23313177.8594   23313175.1214       3627.0074
        43.2504         28.2504
   -672785.08246   -508811.01244  23547266.5474   23547266.9064       4142.7334
        41.5004         27.5004
    -76441.32848    -34648.05946  20959723.1724   20959718.8444       2824.6474
        51.0004         40.7504
   1753440.80946   1363167.43043  25530175.0864   25530175.4694       -445.6024
        41.7504         21.2504
    841897.34848    667304.81647  20531539.4774   20531533.3094       1196.1364
        48.0004         42.7504
   2449508.10546   2119053.80543  25155115.9534   25155118.2154      -2253.6554
        38.7504         20.2504
   -183551.12546   -101414.19144  24081750.7424   24081751.2854       3324.3974
        41.5004         28.7504
   2633798.89147   2037111.39545  22400302.7114   22400299.3444      -1897.5984
        45.2504         33.7504
 14  5 29 17 28 30.0000000  0 11G16G07G08G10G03G13G04G23G32G27G20
   1840445.28548   1431411.72746  21489299.1334   21489294.1884       -581.3524
        49.2504         37.7504
   -272335.68747   -181596.89846  22290067.5474   22290064.1214       2999.9654
        47.7504         37.0004
   -588818.67247   -424148.97744  24215757.7424   24215756.7504       3537.6994
        42.5004         25.5004
   -515681.03947   -360494.96944  23292538.3364   23292535.4804       3615.3114
        44.2504         28.5004
   -796996.53147   -605599.04344  23523630.2664   23523629.1524       4140.3824
        42.0004         27.5004
   -161033.16048   -100563.78146  20943626.2034   20943621.5704       2819.7284
        51.5004         40.5004
   1766974.00446   1373712.71943  25532750.1564   25532750.2584       -451.1074
        41.0004         21.5004
    806293.52348    639561.53947  20524764.4064   20524758.0904       1186.7944
        48.2504         42.2504
   2517043.57446   2171678.53143  25167967.9694   25167969.5274      -2251.1824
        39.0004         19.7504
   -283113.03946   -178994.80544  24062803.6484   24062805.8754       3318.7304
        41.7504         29.0004
   2690891.92647   2081599.35945  22411167.1174   22411164.3594      -1903.1014
        45.0004         33.5004
 14  5 29 17 29  0.0000000  0 11G16G07G08G10G03G13G04G23G32G27G20
   1858345.01248   1445359.53146  21492705.4304   21492700.7774       -596.6584
        49.2504         38.7504
   -362216.28548   -251633.70346  22272963.6414   22272960.5004       2996.0204
        48.0004         37.2504
   -694878.53147   -506792.96944  24195574.4454   24195574.4104       3535.3294
        42.5004         25.7504
   -623785.36747   -444732.09444  23271966.2034   23271964.2814       3603.4784
        43.5004         28.0004
   -921131.62546   -702327.55144  23500007.7814   23500007.6804       4137.8364
        41.5004         28.5004
   -245473.86748   -166361.73846  20927557.6484   20927553.3204       2814.6904
        51.0004         40.7504
   1780671.59046   1384386.10543  25535356.8364   25535357.5394       -456.5864
        40.0004         20.0004
    770972.91848    612038.95747  20518043.1484   20518036.2304       1177.3544
        49.2504         42.7504
   2584504.48446   2224245.17643  25180805.4384   25180807.1374      -2248.6974
        40.5004         19.7504
   -382500.16047   -256439.23444  24043892.2034   24043892.1954       3312.9044
        42.7504         28.7504
   2748148.94147   2126215.09045  22422063.1644   22422060.0594      -1908.5674
        44.5004         34.5004
 14  5 29 17 29 30.0000000  0 11G16G07G08G10G03G13G04G23G32G27G20
   1876707.06648   1459667.58646  21496199.8134   21496194.4454       -612.0684
        49.2504         38.5004
   -451972.87147   -321573.85946  22255883.5554   22255880.2624       2991.8864
        47.2504         36.7504
   -800861.48047   -589377.01644  24175407.3674   24175405.8164       3532.7654
        43.2504         26.5004
   -731526.82447   -528686.44944  23251464.2584   23251461.5984       3591.3824
        44.2504         28.0004
  -1045181.53947   -798989.69544  23476401.8204   23476401.7424       4134.9974
        43.0004         27.0004
   -329756.09448   -232036.21146  20911519.3054   20911514.8244       2809.4084
        51.5004         40.7504
   1794536.84846   1395190.18843  25537994.3674   25537995.2814       -462.1754
        39.5004         20.5004
    735942.53948    584742.52347  20511377.2664   20511370.8054       1167.6794
        50.7504         42.7504
   2651894.69946   2276756.77343  25193627.4924   25193631.8914      -2246.3404
        37.2504         20.2504
   -481703.75047   -333740.58244  24025013.3594   24025014.8444       3306.7864
        42.5004         29.5004
   2805572.91847   2170960.91445  22432990.4224   22432987.6564      -1914.1334
        45.5004         35.2504
 14  5 29 17 30  0.0000000  0 12G19G16G07G08G10G03G13G04G23G32G27G20
    836303.82456    702903.34853  25011428.4224   25011429.2934
        37.5004         22.0004
   1895525.51248   1474331.27746  21499780.8674   21499776.1564       -627.2824
        48.5004         38.0004
   -541609.77347   -391420.76646  22238826.0554   22238822.8954       2987.8974
        47.7504         36.5004
   -906771.53147   -671904.27744  24155252.9064   24155252.2464       3530.3354
        42.2504         25.5004
   -838907.08647   -612359.35244  23231030.0164   23231027.4534       3579.3424
        44.2504         28.5004
  -1169146.73047   -895585.82844  23452811.7814   23452811.1644       4132.1734
        43.0004         26.5004
   -413881.98048   -297588.85946  20895510.4224   20895506.1804       2804.1964
        51.0004         40.5004
   1808562.85946   1406119.49643  25540664.0944   25540664.4104       -467.5344
        41.2504         20.5004
    701199.68448    557670.14547  20504765.8754   20504759.3984       1158.0954
        49.7504         43.0004
   2719207.96146   2329208.39143  25206438.9224   25206440.4384      -2243.7754
        39.7504         19.2504
   -580724.66046   -410899.63344  24006170.6254   24006171.5314       3300.6974
        40.7504         29.2504
   2863156.92647   2215831.44945  22443948.4844   22443945.4964      -1919.4674
        45.0004         33.5004
 14  5 29 17 30 30.0000000  0 12G19G16G07G08G10G03G13G04G23G32G27G20
    713579.66446    607274.37943  24988074.4224   24988075.3484       4090.8054
        37.2504         22.7504
   1914804.24248   1489353.61346  21503449.9454   21503444.4574       -642.6244
        49.0004         38.0004
   -631121.07047   -461169.79346  22221792.5314   22221789.3874       2983.7104
        47.7504         37.0004
  -1012602.43747   -754369.84444  24135113.8444   24135112.9024       3527.6974
        42.5004         25.2504
   -945917.27747   -695743.89144  23210667.1414   23210664.2384       3567.0064
        44.2504         28.7504
  -1293017.23047   -992108.15644  23429240.4534   23429239.3594       4129.0174
        44.0004         28.0004
   -497843.28948   -363013.25046  20879533.0474   20879528.8014       2798.7104
        51.0004         40.7504
   1822753.68046   1417177.23043  25543364.3444   25543365.1564       -473.0274
        41.0004         20.7504
    666752.13748    530827.86747  20498210.5474   20498204.0274       1148.2524
        51.0004         42.5004
   2786448.64545   2381603.52743  25219231.6334   25219235.7304      -2241.3564
        35.5004         18.5004
   -679553.43446   -487908.93444  23987363.7504   23987364.5784       3294.2924
        41.7504         27.7504
   2920905.19947   2260829.99645  22454937.5314   22454934.6054      -1924.9424
        45.2504         32.7504
 14  5 29 17 31  0.0000000  0 12G19G16G07G08G10G03G13G04G23G32G27G20
    590727.98846    511546.06643  24964696.0864   24964697.2584       4095.0564
        36.5004         22.7504
   1934537.80148   1504730.39146  21507204.5784   21507199.6484       -657.7854
        48.0004         38.0004
   -720510.07848   -530823.53546  22204782.4224   22204779.0824       2979.6344
        48.0004         37.5004
  -1118357.62947   -836776.44144  24114989.8054   24114988.6374       3525.1734
        43.5004         27.2504
  -1052558.59047   -778841.00844  23190374.0234   23190370.9694       3554.7104
        44.7504         28.2504
  -1416793.45747  -1088557.02744  23405686.8134   23405685.7974       4125.8744
        44.2504         28.0004
   -581641.49248   -428310.55946  20863586.9064   20863582.5554       2793.2734
        51.0004         41.0004
   1837103.27046   1428358.69543  25546095.1174   25546095.5044       -478.3204
        40.2504         19.7504
    632597.57848    504213.89847  20491711.2664   20491704.9224       1138.4854
        50.0004         42.5004
   2853611.43446   2433937.83643  25232014.6804   25232017.3134      -2238.7604
        38.7504         19.5004
   -778190.38346   -564768.75844  23968593.2894   23968595.5704       3287.8984
        41.2504         29.2504
   2978811.54347   2305951.69545  22465956.5704   22465954.0474      -1930.2114
        43.5004         33.5004
 14  5 29 17 31 30.0000000  0 11G19G16G07G08G10G03G13G23G32G27G20
    467755.26646    415723.41043  24941294.8834   24941295.8134       4099.0914
        39.5004         22.0004
   1954727.07048   1520462.25046  21511046.2274   21511041.6884       -672.9764
        49.7504         38.2504
   -809773.52347   -600379.42646  22187796.5084   22187793.1604       2975.4484
        47.5004         37.0004
  -1224033.68447   -919121.37144  24094879.9304   24094878.7584       3522.5354
        43.5004         25.7504
  -1158825.36747   -861646.27044  23170151.7584   23170149.3714       3542.2264
        44.5004         28.5004
  -1540468.54347  -1184927.10244  23382151.7814   23382151.2114       4122.5034
        44.2504         28.5004
   -665271.75448   -493476.99646  20847672.8204   20847668.1954       2787.6754
        51.0004         41.0004
    598740.60948    477831.82047  20485268.3134   20485262.3284       1128.5664
        50.0004         42.0004
   2920697.44946   2486212.33243  25244781.1414   25244783.5394      -2236.2014
        40.7504         19.7504
   -876629.13746   -641474.14544  23949861.1334   23949861.4344       3281.2924
        39.7504         28.7504
   3036876.37147   2351196.89145  22477006.5314   22477002.9344      -1935.4944
        44.0004         33.5004
 14  5 29 17 32  0.0000000  0 11G19G16G07G08G10G03G13G23G32G27G20
    344665.02346    319809.19543  24917871.3444   24917872.4384       4103.0084
        38.2504         22.7504
   1975370.35948   1536547.89546  21514974.8134   21514969.6214       -688.1104
        49.5004         38.2504
   -898911.26247   -669837.36346  22170833.9774   22170830.5984       2971.2584
        47.5004         37.7504
  -1329630.00847  -1001404.15244  24074784.9454   24074784.5044       3519.8774
        44.0004         26.7504
  -1264714.72747   -944157.43744  23150001.7504   23149998.9654       3529.6454
        44.2504         29.0004
  -1664038.54347  -1281215.30544  23358636.5474   23358636.1914       4119.0004
        44.5004         28.5004
   -748731.56648   -558510.61346  20831790.7504   20831786.4534       2781.9944
        51.0004         40.5004
    565183.30548    451683.24646  20478882.8524   20478876.7424       1118.5774
        50.7504         41.7504
   2987705.35946   2538425.96843  25257532.9224   25257535.6914      -2233.5974
        39.5004         20.2504
   -974866.19946   -718022.32444  23931167.2194   23931169.0824       3274.5694
        40.5004         27.5004
   3095097.57047   2396563.93845  22488085.6254   22488082.8204      -1940.7074
        44.0004         32.5004
 14  5 29 17 32 30.0000000  0 11G19G16G07G08G10G03G13G23G32G27G20
    221464.72746    223809.24243  24894426.1094   24894428.1564       4106.6774
        40.2504         23.0004
   1996469.60948   1552988.83246  21518989.8594   21518985.4734       -703.3084
        49.7504         38.2504
   -987919.23847   -739194.19146  22153896.2584   22153892.8594       2966.9334
        47.2504         37.5004
  -1435142.37947  -1083621.54744  24054707.1954   24054706.0434       3517.0794
        44.0004         25.7504
  -1370219.98447  -1026369.31644  23129924.4844   23129922.0904       3516.8424
        44.0004         29.2504
  -1787495.55947  -1377415.43444  23335143.7584   23335142.5124       4115.2344
        43.5004         28.5004
   -832014.97348   -623406.77746  20815942.6254   20815938.0704       2776.1144
        51.0004         41.2504
    531931.12948    425772.43847  20472555.0234   20472549.0944       1108.4064
        50.2504         42.0004
   3054637.41846   2590580.58243  25270268.1334   25270273.2234      -2231.0694
        37.0004         20.0004
  -1072894.04746   -794407.54344  23912513.2894   23912513.6914       3267.5954
        41.0004         27.7504
   3153476.85247   2442054.17645  22499194.8364   22499192.0744      -1945.9764
        44.5004         33.5004
 14  5 29 17 33  0.0000000  0 11G19G16G07G08G10G03G13G23G32G27G20
     98159.03946    127727.12543  24870961.9614   24870963.5704       4110.1904
        39.0004         22.7504
   2018024.14548   1569784.54746  21523091.5164   21523086.2384       -718.4854
        49.7504         38.0004
  -1076796.20748   -808448.94146  22136983.6884   22136980.1134       2962.5664
        48.0004         37.5004
  -1540569.37947  -1165772.42244  24034645.0704   24034644.2464       3514.2334
        43.5004         26.5004
  -1475337.62947  -1108279.13744  23109921.8754   23109919.1334       3503.9214
        44.2504         29.5004
  -1910834.68047  -1473523.70344  23311673.2034   23311671.8594       4111.3044
        43.7504         27.7504
   -915118.74648   -688162.96146  20800128.3754   20800124.0314       2770.1264
        51.0004         41.0004
    498986.70348    400101.42247  20466285.9614   20466279.7344       1098.1484
        50.5004         42.7504
   3121492.93046   2642675.52343  25282991.4454   25282995.6094      -2228.5174
        39.0004         20.7504
  -1170708.16846   -870626.18744  23893899.2974   23893900.7934       3260.4714
        41.5004         28.2504
   3212012.83647   2487666.50445  22510334.5314   22510331.3484      -1951.1994
        44.5004         33.2504
 14  5 29 17 33 30.0000000  0 11G19G16G07G08G10G03G13G23G32G27G20
    -25241.52046     31571.08643  24847480.1024   24847480.6564       4113.3524
        38.7504         21.7504
   2040039.51648   1586939.34446  21527281.0704   21527276.0124       -733.8464
        49.0004         37.7504
  -1165534.64847   -877595.74646  22120097.3054   22120093.7194       2957.9484
        47.0004         37.5004
  -1645903.18047  -1247850.66444  24014600.8134   24014599.5784       3511.1274
        44.0004         27.0004
  -1580057.58647  -1189879.08644  23089993.9384   23089991.5704       3490.6654
        44.2504         29.5004
  -2034044.66047  -1569531.37544  23288226.7814   23288226.1484       4106.9994
        43.0004         28.5004
   -998033.34048   -752771.73846  20784350.3364   20784345.5864       2763.8204
        51.5004         41.5004
    466358.94148    374677.16447  20460077.2584   20460070.3674       1087.5924
        51.0004         42.5004
   3188277.83246   2694715.38343  25295699.2734   25295704.6524      -2226.1634
        38.5004         20.5004
  -1268297.94546   -946670.02344  23875329.0164   23875330.2114       3252.9934
        41.0004         28.2504
   3270710.41847   2533404.75845  22521503.5164   22521501.2274      -1956.5864
        44.5004         33.7504
 14  5 29 17 34  0.0000000  0 11G19G16G07G08G10G03G13G23G32G27G20
   -148736.57446    -64658.59443  24823979.5084   24823980.9694       4116.5024
        38.2504         22.7504
   2062509.98848   1604448.77346  21531556.5084   21531552.1804       -749.0164
        48.0004         37.7504
  -1254137.65648   -946637.00846  22103237.0164   22103233.2424       2953.4344
        48.0004         37.5004
  -1751146.72747  -1329858.57444  23994573.4774   23994572.6684       3508.1184
        43.5004         27.2504
  -1684380.38347  -1271169.55144  23070142.1414   23070139.4104       3477.4274
        45.0004         29.5004
  -2157124.89147  -1665437.91844  23264805.2814   23264804.2584       4102.6744
        43.5004         27.7504
  -1080759.70348   -817233.83646  20768607.9304   20768603.5314       2757.5454
        51.5004         41.0004
    434046.51648    349498.62547  20453928.4304   20453922.0634       1077.0814
        50.5004         42.5004
   3254987.00246   2746696.38043  25308395.3444   25308398.8714      -2223.6394
        38.7504         18.5004
  -1365663.08647  -1022538.80144  23856801.1094   23856801.8284       3245.5054
        42.5004         29.2504
   3329564.42247   2579264.88745  22532703.5314   22532700.6454      -1961.8004
        45.0004         32.5004
 14  5 29 17 34 30.0000000  0 11G19G16G07G08G10G03G13G23G32G27G20
   -272320.46146   -160957.49643  24800462.0944   24800463.2734       4119.4634
        37.7504         22.2504
   2085435.90248   1622313.08246  21535919.9694   21535914.7734       -764.1974
        48.5004         38.2504
  -1342602.96947  -1015570.98446  22086401.9304   22086398.8674       2948.8444
        47.5004         37.5004
  -1856297.45347  -1411794.16044  23974564.3754   23974562.8594       3505.0244
        43.5004         27.5004
  -1788301.40647  -1352146.94544  23050366.5704   23050363.9264       3464.0344
        44.0004         29.5004
  -2280069.76247  -1761238.99644  23241409.9534   23241409.0314       4098.1624
        42.7504         28.5004
  -1163293.78148   -881546.10946  20752902.5474   20752897.8524       2751.1364
        51.2504         41.0004
    402052.55548    324568.24247  20447840.1724   20447833.6094       1066.4654
        49.7504         42.0004
   3321620.94146   2798618.59843  25321075.0704   25321078.7194      -2221.1314
        37.5004         20.0004
  -1462798.19946  -1098228.34844  23838316.2584   23838317.7584       3237.8374
        41.5004         29.7504
   3388574.33247   2625246.50445  22543932.8674   22543929.8714      -1966.9974
        45.0004         32.5004
 14  5 29 17 35  0.0000000  0 11G19G16G07G08G10G03G13G23G32G27G20
   -395994.92246   -257327.00443  24776926.7664   24776928.3794       4122.4824
        36.5004         22.2504
   2108809.76248   1640526.43446  21540367.5944   21540362.5744       -779.1294
        48.0004         38.0004
  -1430935.89547  -1084401.80146  22069592.9614   22069589.3914       2944.4314
        47.2504         37.5004
  -1961360.62947  -1493661.52044  23954571.1174   23954569.7544       3502.1064
        44.5004         28.0004
  -1891823.67247  -1432813.62544  23030667.2114   23030664.1994       3450.7424
        45.0004         29.5004
  -2402880.64547  -1856935.66444  23218038.9224   23218038.1684       4093.6964
        42.5004         28.7504
  -1245638.80148   -945711.06246  20737232.6804   20737227.9414       2744.8344
        50.7504         41.0004
    370373.73448    299883.41847  20441811.8594   20441805.3674       1055.9614
        51.7504         42.5004
   3388172.46946   2850476.68843  25333740.0314   25333743.4104      -2218.3844
        40.0004         19.5004
  -1559705.18046  -1173740.15644  23819874.9534   23819876.4304       3230.2334
        40.2504         28.0004
   3447732.51247   2671343.63745  22555190.6564   22555187.8284      -1971.9394
        44.7504         33.0004
 14  5 29 17 35 30.0000000  0 11G19G16G07G08G10G03G13G23G32G27G20
   -519755.25846   -353763.41444  24753375.9224   24753377.3244       4125.3454
        38.0004         25.0004
   2132631.33247   1659088.66446  21544900.7974   21544895.8364       -794.0524
        47.5004         38.0004
  -1519134.66047  -1153128.07046  22052809.2034   22052805.7584       2939.9594
        47.5004         37.5004
  -2066334.27747  -1575459.09844  23934594.9924   23934594.0784       3499.1224
        44.0004         26.0004
  -1994942.96947  -1513166.30145  23011043.4694   23011041.2974       3437.3104
        43.2504         30.0004
  -2525552.43447  -1952523.94544  23194695.2814   23194695.1254       4089.0604
        42.7504         28.0004
  -1327791.08248  -1009725.82446  20721599.7504   20721594.7774       2738.4094
        51.2504         40.5004
    339012.93848    275446.40247  20435844.2344   20435837.7504       1045.3604
        50.7504         42.5004
   3454641.59946   2902270.53243  25346388.9454   25346392.8984      -2215.6384
        38.2504         19.0004
  -1656379.24246  -1249070.46145  23801478.6334   23801480.1334       3222.4694
        41.5004         30.7504
   3507037.89547   2717555.49645  22566476.2114   22566472.9534      -1976.8464
        44.7504         32.2504
 14  5 29 17 36  0.0000000  0 11G19G16G07G08G10G03G13G23G32G27G20
   -643600.44946   -450265.95743  24729809.2814   24729810.8794       4128.1734
        38.5004         22.0004
   2156895.47748   1677995.74646  21549517.6804   21549513.1454       -808.8054
        48.5004         37.7504
  -1607202.04747  -1221751.97346  22036050.5084   22036046.8874       2935.5804
        47.0004         37.7504
  -2171220.62547  -1657188.66044  23914636.3364   23914635.0314       3496.2124
        44.5004         28.5004
  -2097659.33647  -1593205.00844  22991497.3594   22991495.1094       3423.8794
        44.7504         29.7504
  -2648083.73047  -2048002.75844  23171378.5864   23171377.7664       4084.3774
        43.0004         28.5004
  -1409750.74648  -1073590.48846  20706003.3444   20705998.2854       2731.9894
        50.7504         41.0004
    307969.33248    251256.54747  20429936.9454   20429930.3324       1034.7874
        50.2504         42.0004
   3521024.06646   2953996.82843  25359021.4064   25359025.0204      -2212.7494
        38.7504         19.0004
  -1752819.54346  -1324218.60544  23783126.0164   23783127.2074       3214.6774
        40.2504         28.0004
   3566485.73847   2763878.35945  22577788.9144   22577786.1804      -1981.5954
        44.5004         33.0004
 14  5 29 17 36 30.0000000  0 11G19G16G07G08G10G03G13G23G32G27G20
   -767522.42246   -546828.37543  24706227.6564   24706228.5234       4130.7324
        39.2504         23.7504
   2181604.80548   1697249.72746  21554219.7114   21554215.4574       -823.6444
        48.0004         37.5004
  -1695133.07847  -1290269.61346  22019317.6254   22019314.2344       2931.0344
        47.0004         37.0004
  -2276014.95747  -1738846.53544  23894694.2894   23894693.0704       3493.1444
        43.7504         28.0004
  -2199965.84047  -1672924.34444  22972029.6174   22972026.9844       3410.2174
        43.0004         29.7504
  -2770466.16046  -2143365.59444  23148089.7274   23148089.3984       4079.4144
        41.7504         29.2504
  -1491511.34848  -1137300.03946  20690444.6254   20690439.9574       2725.3534
        51.0004         40.7504
    277248.89848    227318.52047  20424090.7814   20424084.2894       1024.0144
        50.0004         42.0004
   3587322.75846   3005657.93042  25371636.9534   25371640.9224      -2209.9564
        36.5004         17.7504
  -1849018.21946  -1399178.46544  23764820.4064   23764822.1484       3206.6234
        41.5004         29.5004
   3626078.17247   2810313.87545  22589127.9304   22589125.9494      -1986.4144
        43.7504         32.0004
 14  5 29 17 37  0.0000000  0 11G19G16G07G08G10G03G13G23G32G27G20
   -891520.12546   -643449.76643  24682631.2974   24682632.3164       4133.2574
        39.0004         22.0004
   2206754.76248   1716847.05946  21559006.1094   21559001.2504       -838.3324
        48.2504         37.5004
  -1782930.43747  -1358683.09846  22002610.0634   22002606.5124       2926.5794
        47.0004         37.0004
  -2380719.48447  -1820434.42244  23874769.8674   23874768.3444       3490.1514
        44.2504         28.0004
  -2301862.62147  -1752324.42244  22952638.8284   22952636.1684       3396.5594
        43.5004         29.5004
  -2892698.74647  -2238611.65244  23124829.8834   23124828.6604       4074.4204
        43.0004         29.5004
  -1573073.33248  -1200854.82446  20674923.8134   20674919.2344       2718.7334
        50.5004         40.7504
    246850.50848    203631.43047  20418306.2034   20418299.6414       1013.2804
        50.5004         42.5004
   3653533.23846   3057250.22743  25384237.5004   25384241.0864      -2207.0164
        36.7504         19.5004
  -1944974.66846  -1473949.59044  23746560.3984   23746562.0084       3198.5484
        41.7504         29.0004
   3685810.24247   2856858.20345  22600495.5474   22600492.7304      -1991.0694
        45.0004         32.7504
 14  5 29 17 37 30.0000000  0 11G19G16G07G08G10G03G13G23G32G27G20
  -1015590.61746   -740127.91043  24659021.1174   24659022.4064       4135.6834
        38.7504         22.5004
   2232342.54748   1736785.54746  21563875.1024   21563870.6764       -852.9264
        48.0004         37.5004
  -1870593.72347  -1426992.12146  21985928.6644   21985925.0634       2922.1104
        47.0004         37.2504
  -2485334.58247  -1901952.62544  23854862.0704   23854860.9104       3487.1704
        44.0004         27.7504
  -2403347.65247  -1831403.65644  22933327.3754   22933324.3014       3382.8344
        45.2504         29.7504
  -3014778.17647  -2333738.38744  23101598.9534   23101597.9024       4069.3144
        42.5004         28.5004
  -1654435.18048  -1264253.65646  20659440.6884   20659436.4264       2712.0624
        50.5004         40.7504
    216774.97348    180195.91447  20412583.1954   20412576.5274       1002.5184
        50.5004         42.0004
   3719653.11745   3108771.94943  25396817.8674   25396823.8754      -2203.9964
        35.5004         19.5004
  -2040686.07047  -1548529.80144  23728347.2584   23728348.8674       3190.3804
        42.5004         28.5004
   3745678.87147   2903508.94145  22611888.2664   22611885.1884      -1995.6214
        43.0004         33.0004
 14  5 29 17 38  0.0000000  0 11G19G16G07G08G10G03G13G23G32G27G20
  -1139732.48046   -836861.66844  24635398.5004   24635398.5314       4138.0624
        39.7504         24.2504
   2258364.33248   1757062.22746  21568827.2274   21568822.3284       -867.3934
        48.0004         37.5004
  -1958125.92647  -1495198.98846  21969271.8914   21969268.3674       2917.7404
        47.5004         37.2504
  -2589861.69547  -1983402.27344  23834971.0234   23834970.0084       3484.2374
        43.7504         28.2504
  -2504420.28547  -1910161.54345  22914093.4144   22914090.5984       3369.0884
        43.7504         30.7504
  -3136702.19547  -2428744.01244  23078397.1954   23078396.0044       4064.1344
        42.2504         29.2504
  -1735596.82048  -1327496.47746  20643996.7974   20643992.0124       2705.3884
        50.5004         40.5004
    187022.19948    157011.90247  20406921.3914   20406915.2704        991.7594
        50.5004         43.0004
   3785679.28946   3160220.66843  25409385.8134   25409388.4414      -2200.8724
        38.2504         19.0004
  -2136150.89147  -1622917.84845  23710180.8134   23710182.2304       3182.1614
        43.0004         30.0004
   3805680.05547   2950262.96545  22623306.0004   22623303.6174      -2000.0394
        44.5004         32.7504
 14  5 29 17 38 30.0000000  0 11G19G16G07G08G10G03G13G23G32G27G20
  -1263935.55946   -933643.15643  24611763.5164   24611763.3054       4140.1034
        40.2504         22.7504
   2284824.28548   1777680.31646  21573862.0634   21573857.1054       -881.9984
        48.7504         37.0004
  -2045520.49647  -1563298.61346  21952640.8834   21952637.5704       2913.1524
        46.7504         37.2504
  -2694294.25047  -2064778.22344  23815097.9844   23815097.1524       3481.0854
        43.7504         27.5004
  -2605071.76247  -1988591.26645  22894940.0004   22894937.1054       3355.0494
        44.5004         30.7504
  -3258460.83247  -2523620.78144  23055227.3754   23055226.1524       4058.6214
        42.0004         29.7504
  -1816549.06248  -1390576.13346  20628591.6334   20628587.2624       2698.4084
        51.2504         40.7504
    157600.11748    134085.57447  20401322.5164   20401316.3634        980.7364
        50.2504         42.0004
   3851616.26245   3211599.96142  25421930.6254   25421935.9694      -2197.8994
        35.0004         16.7504
  -2231359.39546  -1697106.18744  23692062.4844   23692063.5704       3173.6174
        41.2504         28.7504
   3865817.61747   2997123.25845  22634750.0944   22634747.0164      -2004.5854
        43.5004         32.0004
 14  5 29 17 39  0.0000000  0 11G19G16G07G08G10G03G13G23G32G27G20
  -1388199.37546  -1030471.96143  24588116.2424   24588116.3754       4142.1274
        39.5004         22.5004
   2311717.36748   1798635.91446  21578979.8444   21578975.1914       -896.4364
        48.0004         37.2504
  -2132779.77347  -1631292.82846  21936036.1174   21936033.1914       2908.6434
        47.7504         37.2504
  -2798634.65647  -2146082.37544  23795243.3754   23795241.7544       3478.0144
        44.2504         27.7504
  -2705302.34447  -2066693.00445  22875866.9774   22875864.0314       3341.0194
        45.0004         30.0004
  -3380053.27347  -2618368.05144  23032089.1024   23032088.1254       4053.0814
        42.5004         29.7504
  -1897293.03148  -1453493.49646  20613227.1564   20613222.3284       2691.4664
        50.5004         40.7504
    128507.35248    111415.85247  20395786.4144   20395780.0704        969.7594
        50.7504         42.5004
   3917459.73045   3262906.21543  25434460.1804   25434465.5594      -2194.7824
        34.2504         18.5004
  -2326311.19147  -1771094.47744  23673994.2194   23673995.2934       3165.0604
        42.0004         28.2504
   3926086.47347   3044085.85545  22646218.1484   22646216.8594      -2008.9624
        44.5004         32.0004
 14  5 29 17 39 30.0000000  0 11G19G16G07G08G10G03G13G23G32G27G20
  -1512517.29746  -1127342.93444  24564459.4694   24564459.6524       4143.9314
        40.0004         24.7504
   2339044.34848   1819929.62546  21584179.9454   21584175.5594       -910.8994
        48.0004         37.0004
  -2219900.54348  -1699179.09846  21919457.7814   21919453.9414       2904.0264
        48.2504         37.7504
  -2902879.97347  -2227312.43044  23775405.6644   23775404.4734       3474.8444
        43.7504         28.0004
  -2805106.88347  -2144462.77045  22856875.0704   22856872.3754       3326.8184
        45.0004         30.7504
  -3501472.98847  -2712980.71144  23008983.5394   23008982.3524       4047.3244
        43.0004         29.5004
  -1977823.39148  -1516244.41446  20597902.5004   20597897.9264       2684.3454
        50.7504         40.7504
     99747.94948     89005.89847  20390313.8204   20390307.4774        958.6474
        51.0004         42.0004
   3983210.66045   3314140.50442  25446972.8674   25446977.9924      -2191.6984
        35.2504         17.2504
  -2421000.04746  -1844877.88344  23655975.6094   23655976.3324       3156.2954
        41.5004         29.2504
   3986487.25047   3091151.23845  22657712.3284   22657710.6254      -2013.3594
        44.2504         31.5004
 14  5 29 17 40  0.0000000  0 11G19G16G07G08G10G03G13G23G32G27G20
  -1636891.59446  -1224257.81243  24540791.6564   24540791.8094       4145.8104
        39.7504         22.7504
   2366797.16848   1841555.15646  21589461.4304   21589457.0554       -925.0944
        48.0004         37.7504
  -2306888.84847  -1766962.15646  21902904.3134   21902900.6454       2899.6104
        47.5004         37.5004
  -3007035.66447  -2308472.63344  23755585.6334   23755584.6214       3471.8564
        44.2504         28.5004
  -2904488.55547  -2221903.02345  22837963.0394   22837960.2814       3312.7224
        45.0004         31.0004
  -3622721.53946  -2807459.98845  22985910.1254   22985909.3244       4041.6184
        40.5004         30.2504
  -2058143.84848  -1578831.77346  20582617.9774   20582613.2584       2677.3494
        50.5004         40.7504
     71317.99648     66852.64847  20384903.6484   20384897.2584        947.6654
        50.7504         42.7504
   4048861.74646   3365296.96942  25459468.4844   25459471.5944      -2188.3704
        37.7504         15.5004
  -2515428.47747  -1918458.36344  23638006.6884   23638007.0354       3147.6144
        42.0004         28.0004
   4047011.51647   3138312.83245  22669230.7274   22669227.6454      -2017.4764
        44.0004         31.7504
 14  5 29 17 40 30.0000000  0 11G19G16G07G08G10G03G13G23G32G27G20
  -1761313.82846  -1321210.09843  24517114.2274   24517114.7504       4147.4084
        38.7504         23.7504
   2394978.37548   1863514.49646  21594824.0864   21594819.3054       -939.3744
        48.2504         37.0004
  -2393739.71947  -1834638.11746  21886377.1484   21886373.0514       2895.0294
        47.7504         38.0004
  -3111096.98447  -2389559.31644  23735783.3594   23735782.0204       3468.7114
        43.7504         28.2504
  -3003440.52747  -2299008.44545  22819133.2344   22819130.1294       3298.3994
        45.0004         30.2504
  -3743790.63347  -2901799.43044  22962871.4384   22962870.5164       4035.6364
        42.2504         29.5004
  -2138247.68748  -1641250.34446  20567374.4224   20567370.1094       2670.1284
        50.7504         41.0004
     43223.74248     44960.98847  20379557.5394   20379550.9384        936.4754
        50.2504         42.0004
   4114416.02046   3416377.86742  25471942.0704   25471946.3204      -2185.1424
        36.7504         17.2504
  -2609588.44947  -1991829.68444  23620088.2584   23620089.0314       3138.6664
        42.5004         27.5004
   4107661.46947   3185572.37945  22680771.9534   22680769.6294      -2021.6654
        44.0004         31.0004
 14  5 29 17 41  0.0000000  0 10G19G16G07G08G10G03G13G23G27G20
  -1885787.44146  -1418202.38744  24493427.6414   24493427.7504       4149.1204
        39.5004         25.5004
   2423578.92648   1885800.59446  21600266.5634   21600261.5664       -953.3524
        48.0004         37.5004
  -2480460.08648  -1902212.39546  21869874.8524   21869870.8444       2890.6794
        48.0004         37.7504
  -3215070.35247  -2470577.44544  23715997.6804   23715995.7154       3465.7794
        44.5004         27.0004
  -3101967.21947  -2375782.47345  22800384.2974   22800381.6334       3284.2234
        44.5004         31.5004
  -3864683.35947  -2996001.44544  22939866.6804   22939865.4884       4029.7584
        42.5004         29.5004
  -2218139.60948  -1703503.77046  20552171.6884   20552167.3874       2663.0644
        51.0004         41.7504
     15459.40248     23326.41047  20374274.3594   20374268.0704        925.4784
        50.0004         42.0004
  -2703483.62947  -2064994.66844  23602219.9064   23602220.4454       3129.8394
        42.5004         29.0004
   4168428.19547   3232922.92245  22692335.7114   22692333.3164      -2025.5584
        42.5004         30.7504
 14  5 29 17 41 30.0000000  0 10G19G16G07G08G10G03G13G23G27G20
  -2010303.28946  -1515227.57844  24469732.9144   24469733.5984       4150.5284
        40.5004         24.2504
   2452602.35547   1908416.21546  21605789.7034   21605784.8634       -967.4484
        47.0004         37.0004
  -2567044.19148  -1969680.48846  21853398.4304   21853394.5664       2886.1374
        48.0004         38.0004
  -3318949.87147  -2551522.45344  23696230.0314   23696228.6844       3462.6514
        44.0004         28.2504
  -3200060.77747  -2452218.98845  22781717.6024   22781715.0124       3269.7854
        44.2504         31.0004
  -3985390.56247  -3090058.89844  22916896.2734   22916895.2154       4023.5734
        42.2504         29.2504
  -2297811.52348  -1765585.78146  20537010.7504   20537006.1954       2655.7304
        51.7504         41.5004
    -11967.71548      1954.59447  20369054.9454   20369048.4534        914.2374
        50.2504         42.2504
  -2797105.20346  -2137946.43044  23584404.9534   23584404.6294       3120.7194
        41.2504         28.5004
   4229314.48847   3280366.62545  22703922.2114   22703919.5664      -2029.5434
        42.5004         31.5004
 14  5 29 17 42  0.0000000  0 10G19G16G07G08G10G03G13G23G27G20
  -2134860.03546  -1612284.70344  24446030.6954   24446030.8204       4151.8924
        40.7504         24.7504
   2482044.19947   1931357.86346  21611391.8444   21611387.5004       -981.3954
        47.7504         37.2504
  -2653494.28548  -2037044.16446  21836947.2194   21836943.6884       2881.6704
        48.2504         38.5004
  -3422737.46147  -2632395.84044  23676480.0554   23676478.6214       3459.5864
        44.0004         29.0004
  -3297721.03147  -2528317.87145  22763132.8284   22763130.2734       3255.3424
        44.7504         31.5004
  -4105910.18747  -3183970.19944  22893962.6254   22893961.3914       4017.3214
        43.5004         29.2504
  -2377263.85248  -1827496.68046  20521891.6644   20521886.2854       2648.4114
        51.0004         41.7504
    -39058.87148    -19155.42647  20363899.8284   20363892.9384        903.0394
        50.2504         42.2504
  -2890452.08246  -2210684.14544  23566641.4064   23566641.2624       3111.5634
        41.0004         27.5004
   4290316.32847   3327900.37545  22715529.7424   22715528.1844      -2033.3954
        43.5004         31.5004
 14  5 29 17 42 30.0000000  0 10G19G16G07G08G10G03G13G23G27G20
  -2259451.66846  -1709368.90644  24422321.7274   24422322.0434       4153.0544
        40.5004         25.5004
   2511904.37947   1954625.49246  21617074.0784   21617069.4654       -995.3394
        47.7504         37.0004
  -2739807.85247  -2104301.44946  21820522.5634   21820518.6954       2877.1194
        47.5004         38.0004
  -3526430.56247  -2713195.57044  23656747.4614   23656745.9884       3456.4374
        43.5004         27.7504
  -3394943.35247  -2604075.49645  22744632.5474   22744629.9024       3240.7444
        44.5004         31.7504
  -4226236.45747  -3277730.83244  22871064.2424   22871063.9614       4010.8764
        42.5004         29.2504
  -2456491.81648  -1889232.75846  20506814.8134   20506810.0004       2640.9324
        51.0004         41.5004
    -65809.90248    -40000.40246  20358809.2814   20358802.7584        891.7014
        50.2504         41.7504
  -2983518.60947  -2283203.41844  23548931.2344   23548931.6374       3102.2184
        44.0004         29.5004
   4351433.35947   3375523.88745  22727160.2894   22727158.1804      -2037.2344
        43.0004         30.7504
 14  5 29 17 43  0.0000000  0 10G19G16G07G08G10G03G13G23G27G20
  -2384075.75046  -1806478.41844  24398606.0864   24398606.3164       4154.1364
        40.5004         24.2504
   2542179.63748   1978216.55946  21622835.7274   21622830.9024      -1009.1754
        48.5004         36.7504
  -2825985.99647  -2171453.21546  21804123.1804   21804119.4694       2872.6054
        47.7504         38.0004
  -3630030.21147  -2793922.50844  23637033.5164   23637031.9614       3453.3224
        43.7504         27.5004
  -3491726.91447  -2679491.24245  22726215.1254   22726212.5234       3226.1194
        44.2504         31.7504
  -4346366.69547  -3371338.72745  22848204.4614   22848203.8794       4004.3414
        43.0004         30.2504
  -2535494.44948  -1950793.25046  20491781.5084   20491776.4964       2633.4214
        51.0004         41.2504
    -92220.39848    -60580.03147  20353783.5784   20353777.1334        880.3504
        50.0004         42.5004
  -3076302.89847  -2355502.77344  23531274.6954   23531275.4804       3092.8104
        42.0004         29.7504
   4412662.10547   3423234.42245  22738812.1334   22738809.8134      -2040.9584
        43.0004         31.0004
 14  5 29 17 43 30.0000000  0 10G19G16G07G08G10G03G13G23G27G20
  -2508724.85946  -1903607.46544  24374885.9384   24374885.8594       4154.9704
        40.7504         25.0004
   2572871.51647   2002132.25446  21628676.2274   21628671.5944      -1023.0634
        47.5004         37.0004
  -2912024.53547  -2238496.19146  21787750.3364   21787746.6174       2867.9514
        47.5004         38.0004
  -3733532.26247  -2874573.38344  23617337.3594   23617335.8164       3450.0684
        44.5004         28.5004
  -3588064.91847  -2754559.80545  22707883.3754   22707880.0594       3211.2674
        45.5004         31.2504
  -4466293.00047  -3464787.71944  22825383.6644   22825382.6724       3997.5434
        43.2504         29.7504
  -2614265.51648  -2012173.30146  20476791.5474   20476786.4414       2625.7024
        51.0004         41.5004
   -118285.23048    -80890.31647  20348823.6724   20348817.2344        868.8284
        50.5004         42.0004
  -3168797.63347  -2427576.46544  23513673.4304   23513673.5274       3083.1584
        42.0004         28.7504
   4474003.97347   3471033.11745  22750485.4384   22750483.0514      -2044.7294
        43.0004         30.5004
 14  5 29 17 44  0.0000000  0 10G19G16G07G08G10G03G13G23G27G20
  -2633397.26246  -2000754.63344  24351161.5164   24351162.1564       4155.7474
        40.0004         25.7504
   2603975.93047   2026369.42246  21634594.9384   21634590.5204      -1036.8144
        46.0004         37.2504
  -2997925.26247  -2305431.78146  21771404.0784   21771400.1884       2863.3584
        47.5004         38.2504
  -3836938.40647  -2955149.52344  23597659.6724   23597658.2034       3446.8714
        44.0004         28.5004
  -3683956.94147  -2829280.84045  22689635.2504   22689631.9694       3196.4014
        45.0004         31.7504
  -4586013.49647  -3558076.32445  22802601.5944   22802600.1134       3990.6834
        44.0004         30.7504
  -2692804.70348  -2073372.66046  20461846.1804   20461841.3984       2617.9734
        51.0004         41.5004
   -144004.75848   -100931.52747  20343929.0394   20343922.8164        857.3184
        50.0004         42.5004
  -3261001.52747  -2499423.55145  23496127.7584   23496127.9304       3073.4634
        43.0004         30.0004
   4535454.94147   3518916.81645  22762179.2504   22762177.1844      -2048.3664
        43.7504         30.7504
 14  5 29 17 44 30.0000000  0 10G19G16G07G08G10G03G13G23G27G20
  -2758085.90246  -2097914.44944  24327434.2584   24327434.0314       4156.2884
        40.5004         25.5004
   2635493.70347   2050928.68446  21640592.7274   21640588.2974      -1050.5924
        47.5004         37.2504
  -3083685.20748  -2372257.66846  21755084.4774   21755080.8444       2858.6654
        48.0004         38.5004
  -3940245.16047  -3035648.22344  23578001.1804   23577999.5004       3443.5584
        43.2504         28.0004
  -3779397.75847  -2903650.29345  22671473.3674   22671470.3914       3181.3614
        45.7504         31.7504
  -4705521.36347  -3651199.25445  22779859.1954   22779858.5314       3983.5964
        43.5004         30.5004
  -2771106.94548  -2134387.39846  20446945.7734   20446940.8794       2610.0754
        51.2504         41.0004
   -169374.56648   -120700.23447  20339101.7894   20339095.2384        845.6604
        50.5004         42.5004
  -3352908.27047  -2571039.11744  23478638.4534   23478638.3094       3063.5584
        42.5004         29.7504
   4597015.45347   3566885.88345  22773893.6884   22773891.7934      -2052.0174
        43.7504         31.0004
 14  5 29 17 45  0.0000000  0 10G19G16G07G08G10G03G13G23G27G20
  -2882796.92646  -2195091.70743  24303702.3524   24303701.9884       4157.0344
        40.5004         23.5004
   2667412.92247   2075800.74646  21646666.7664   21646662.1914      -1063.9744
        47.5004         37.0004
  -3169313.84847  -2438981.25046  21738790.1024   21738786.2934       2854.2884
        47.2504         38.0004
  -4043462.18047  -3116076.98844  23558359.5004   23558357.9144       3440.5674
        43.0004         28.2504
  -3874394.87547  -2977674.00445  22653396.0314   22653393.2624       3166.5714
        46.0004         30.7504
  -4824822.56647  -3744161.16845  22757157.7194   22757156.3444       3976.7074
        43.7504         30.5004
  -2849179.94548  -2195223.49246  20432088.6644   20432083.7274       2602.4334
        50.5004         41.7504
   -194402.97748   -140202.91447  20334338.9454   20334332.1994        834.2804
        50.7504         42.5004
  -3444524.36746  -2642428.13744  23461204.3204   23461204.7424       3053.8704
        41.7504         29.2504
   4658673.66047   3614931.07845  22785627.2344   22785625.0044      -2055.2744
        43.2504         30.7504
 14  5 29 17 45 30.0000000  0 10G19G16G07G08G10G03G13G23G27G20
  -3007525.68446  -2292282.78944  24279967.2734   24279967.4264       4157.6254
        41.2504         24.2504
   2699732.47747   2100984.77046  21652817.1254   21652812.6954      -1077.3184
        46.5004         36.7504
  -3254809.95348  -2505601.56246  21722520.6414   21722516.7154       2849.8704
        48.0004         38.5004
  -4146587.84847  -3196434.59044  23538735.3054   23538733.7034       3437.5224
        43.7504         29.0004
  -3968944.78547  -3051349.23445  22635403.4774   22635400.8834       3151.6644
        46.0004         31.7504
  -4943912.06647  -3836958.09445  22734495.7894   22734494.2664       3969.6504
        43.7504         30.2504
  -2927019.82048  -2255877.94147  20417276.2734   20417271.6884       2594.6634
        50.5004         42.0004
   -219087.61748   -159437.72346  20329641.4384   20329635.3204        822.8214
        50.5004         41.7504
  -3535845.45747  -2713587.31644  23443826.9064   23443827.3874       3044.0364
        43.5004         29.5004
   4720428.34847   3663051.44945  22797378.5004   22797376.6454      -2058.4904
        43.7504         32.0004
 14  5 29 17 46  0.0000000  0 10G19G16G07G08G10G03G13G23G27G20
  -3132268.81646  -2389485.07043  24256230.0634   24256228.9964       4158.1044
        41.5004         22.7504
   2732449.64547   2126478.61346  21659042.7034   21659038.2734      -1090.5724
        47.0004         37.5004
  -3340173.80547  -2572118.81246  21706276.3834   21706272.5514       2845.4624
        47.0004         38.2504
  -4249622.64147  -3276721.37545  23519128.3674   23519126.7234       3434.4934
        43.7504         30.0004
  -4063045.64847  -3124674.57045  22617496.7344   22617494.0044       3136.6954
        45.2504         32.0004
  -5062786.40247  -3929587.38345  22711874.2974   22711873.1994       3962.4784
        43.0004         30.0004
  -3004624.93048  -2316349.44946  20402508.4064   20402503.9614       2586.8374
        51.0004         41.7504
   -243427.20748   -178403.66447  20325009.8054   20325003.6134        811.3204
        50.0004         42.0004
  -3626868.59846  -2784514.36345  23426505.0394   23426505.9884       3034.1054
        41.7504         30.0004
   4782276.77047   3711244.83245  22809148.5554   22809146.6334      -2061.6144
        44.5004         31.2504
 14  5 29 17 46 30.0000000  0 10G19G16G07G08G10G03G13G23G27G20
  -3257018.81246  -2486692.69944  24232490.2344   24232489.2544       4158.3334
        40.7504         24.0004
   2765566.52747   2152283.93446  21665344.8754   21665340.3874      -1103.8964
        47.0004         37.0004
  -3425401.44947  -2638529.91446  21690057.8984   21690054.1134       2840.9214
        47.0004         38.0004
  -4352562.08247  -3356933.85244  23499539.2974   23499537.9924       3431.3154
        42.5004         29.0004
  -4156691.51247  -3197645.36345  22599676.7664   22599673.7664       3121.5294
        46.0004         32.2504
  -5181438.23847  -4022043.27045  22689295.2664   22689294.3094       3955.0614
        44.0004         30.5004
  -3081989.06248  -2376633.19146  20387786.5704   20387781.7934       2578.8044
        50.5004         41.2504
   -267416.29748   -197096.49247  20320444.7974   20320438.8594        799.6364
        50.0004         42.0004
  -3717586.76647  -2855203.72745  23409242.1564   23409243.4494       3023.9394
        42.0004         30.2504
   4844220.59447   3759512.57445  22820936.1484   22820933.9344      -2064.7944
        43.7504         30.2504
 14  5 29 17 47  0.0000000  0 10G19G16G07G08G10G03G13G23G27G20
  -1806348.75846  -1356300.27343  24508542.8364   24508542.5164       4158.3324
        41.0004         22.7504
   4374498.04347   3405996.75046  21971514.4224   21971509.7774      -1117.0514
        47.7504         36.7504
  -1935070.94947  -1477233.39146  21973658.6724   21973654.4104       2836.3174
        47.5004         39.0004
  -2879983.86347  -2209470.24644  23779761.3524   23779760.4734       3428.0594
        43.2504         29.2504
  -2674458.22747  -2042658.37145  22881736.4064   22881733.1024       3106.2244
        45.0004         31.7504
  -3724440.43047  -2886720.22745  22966552.7504   22966551.8554       3947.4064
        44.0004         30.2504
  -1583688.62548  -1209126.35546  20672903.9614   20672899.0474       2570.6524
        51.0004         41.7504
   1284365.88348   1012084.40246  20615738.9924   20615732.9104        787.9274
        50.7504         41.7504
  -2232574.86347  -1698051.51245  23691830.9224   23691831.3244       3013.6034
        43.0004         30.2504
   6481674.07847   5035450.17645  23132533.2584   23132531.2234      -2067.7834
        43.7504         30.7504
 14  5 29 17 47 30.0000000  0 10G19G16G07G08G10G03G13G23G27G20
  -1931103.98046  -1453511.96544  24484802.9224   24484802.6214       4158.5074
        40.0004         24.5004
   4408403.46147   3432416.51646  21977966.5704   21977961.8364      -1130.1814
        47.2504         36.5004
  -2020028.55547  -1543434.07846  21957491.5944   21957487.6994       2831.9204
        46.2504         38.2504
  -2982735.06247  -2289536.04744  23760208.4454   23760207.3204       3425.0404
        43.0004         29.0004
  -2767190.13747  -2114916.99245  22864089.6724   22864087.2894       3091.0644
        46.5004         31.7504
  -3842637.75447  -2978821.96545  22944060.9304   22944059.6094       3939.9114
        43.7504         30.0004
  -1660567.07048  -1269031.63746  20658274.4614   20658269.4304       2562.6154
        50.5004         41.5004
   1261078.37148    993938.26247  20611307.6254   20611301.4414        776.2504
        49.0004         42.0004
  -2322676.44947  -1768260.45744  23674683.9144   23674685.4534       3003.3864
        42.2504         28.7504
   6543798.46947   5083858.60545  23144355.5314   23144353.7154      -2070.8134
        43.5004         31.0004
 14  5 29 17 48  0.0000000  0 10G19G16G07G08G10G03G13G23G27G20
  -2055857.82046  -1550722.56644  24461063.0164   24461062.7274       4158.4614
        41.2504         24.5004
   4442698.20347   3459139.64846  21984492.8754   21984488.3244      -1143.1584
        46.5004         36.0004
  -2104852.60247  -1609530.68746  21941349.7974   21941346.1564       2827.4684
        47.5004         38.2504
  -3085393.23847  -2369529.36345  23740673.2424   23740671.6334       3421.9394
        43.0004         30.0004
  -2859463.15247  -2186818.03545  22846530.4304   22846527.8674       3075.7674
        46.2504         33.2504
  -3960604.11347  -3070743.71945  22921612.9614   22921611.6484       3932.2124
        43.0004         30.0004
  -1737200.91848  -1328746.32846  20643691.1174   20643686.4224       2554.4624
        50.5004         41.2504
   1238142.19948    976065.89546  20606942.9614   20606936.6524        764.5394
        49.7504         41.5004
  -2412466.51247  -1838226.64544  23657598.3284   23657598.8164       2993.0024
        43.0004         29.5004
   6606008.33647   5132333.65645  23156193.7274   23156192.1454      -2073.6624
        43.2504         30.5004
 14  5 29 17 48 30.0000000  0 10G19G16G07G08G10G03G13G23G27G20
  -2180606.70346  -1647929.35244  24437323.5394   24437323.3204       4158.2964
        41.2504         24.7504
   4477380.12147   3486164.47346  21991092.1954   21991087.7154      -1156.0644
        46.7504         36.2504
  -2189542.94547  -1675523.12546  21925233.9384   21925230.0594       2823.0114
        47.5004         37.7504
  -3187958.39547  -2449450.19544  23721155.5554   23721154.0514       3418.8394
        43.0004         29.0004
  -2951275.28547  -2258359.94145  22829059.6884   22829056.7624       3060.4044
        46.0004         32.0004
  -4078335.21147  -3162482.16845  22899208.3444   22899207.7544       3924.3704
        44.0004         30.2504
  -1813587.89148  -1388268.64146  20629155.1884   20629150.3204       2546.2324
        50.5004         41.5004
   1215558.35948    958468.05946  20602645.6884   20602639.8324        752.7954
        49.5004         41.5004
  -2501941.90247  -1907947.65244  23640571.2664   23640571.6214       2982.5134
        43.7504         29.7504
   6668301.05946   5180873.25845  23168047.5474   23168045.9494      -2076.4244
        41.7504         30.5004
 14  5 29 17 49  0.0000000  0 10G19G16G07G08G10G03G13G23G27G20
  -2305352.17646  -1745133.47744  24413585.0314   24413584.9654       4158.1824
        41.0004         24.7504
   4512441.82047   3513485.23046  21997764.1804   21997759.8164      -1168.7234
        47.5004         36.5004
  -2274104.84047  -1741415.47746  21909142.1724   21909138.9064       2818.7304
        47.0004         38.0004
  -3290435.20347  -2529302.18444  23701654.9224   23701653.8524       3415.8944
        43.5004         29.7504
  -3042629.65647  -2329545.15245  22811675.2664   22811672.7074       3045.1464
        46.0004         32.5004
  -4195832.66447  -3254038.53545  22876850.0474   22876848.3094       3916.5824
        44.5004         30.2504
  -1889730.86348  -1447600.83246  20614665.5394   20614661.0904       2538.0994
        51.0004         41.2504
   1193323.80548    941142.39846  20598414.4534   20598408.2424        741.1524
        50.0004         41.7504
  -2591104.61747  -1977424.98444  23623604.4534   23623604.6954       2972.0904
        43.5004         29.2504
   6730669.47347   5229471.83644  23179915.8284   23179914.0124      -2078.9474
        43.0004         29.2504
 14  5 29 17 49 30.0000000  0 10G19G16G07G08G10G03G13G23G27G20
  -2430086.10546  -1842328.58244  24389849.0784   24389848.7734       4157.7984
        41.7504         24.7504
   4547884.90247   3541103.18046  22004509.1094   22004504.4734      -1181.4364
        47.5004         36.5004
  -2358533.74648  -1807204.20346  21893075.8914   21893072.3054       2814.2974
        48.0004         38.5004
  -3392819.48447  -2609082.07844  23682172.0234   23682170.5434       3412.8094
        42.2504         29.5004
  -3133520.11747  -2400368.87545  22794379.5864   22794376.4344       3029.6824
        45.7504         32.5004
  -4313088.44947  -3345406.59845  22854536.6564   22854535.3524       3908.5264
        45.0004         30.7504
  -1965623.60248  -1506738.02346  20600223.9694   20600218.9534       2529.7584
        50.0004         41.0004
   1171443.50048    924092.77347  20594250.9224   20594244.7504        729.3434
        50.5004         42.0004
  -2679947.48847  -2046653.14544  23606697.7274   23606698.1994       2961.4294
        44.5004         29.2504
   6793115.05547   5278130.55144  23191798.6024   23191797.5434      -2081.5194
        43.5004         29.0004
 14  5 29 17 50  0.0000000  0 10G19G16G07G08G10G03G13G23G27G20
  -2554811.09447  -1939516.74244  24366114.3204   24366114.1844       4157.5004
        42.5004         24.2504
   4583700.90647   3569011.70746  22011324.6254   22011320.2504      -1193.8674
        47.7504         36.0004
  -2442835.60947  -1872893.92646  21877033.9064   21877030.3364       2810.0624
        47.5004         38.5004
  -3495117.04347  -2688794.39845  23662705.6484   23662703.7154       3409.9194
        43.7504         30.7504
  -3223950.33647  -2470833.97345  22777171.3754   22777168.3134       3014.3414
        46.0004         32.7504
  -4430104.89547  -3436588.17245  22832269.5394   22832267.8094       3900.5484
        44.0004         30.5004
  -2041269.67648  -1565683.01646  20585829.0474   20585823.9774       2521.5364
        50.5004         41.5004
   1149912.73848    907315.52346  20590153.7734   20590147.7234        717.6924
        50.5004         41.5004
  -2768473.44947  -2115634.35944  23589851.6484   23589852.2344       2950.8654
        42.7504         29.7504
   6855629.62547   5326843.02044  23203695.0634   23203693.7664      -2083.8194
        43.0004         29.5004
 14  5 29 17 50 30.0000000  0 10G19G16G07G08G10G03G13G23G27G20
  -2679521.07047  -2036693.22344  24342383.6254   24342382.7194       4156.9994
        43.0004         26.5004
   4619889.81647   3597210.82045  22018211.4064   22018206.6414      -1206.2974
        46.7504         35.7504
  -2527008.30947  -1938483.01646  21861016.3524   21861012.6644       2805.7574
        47.2504         39.0004
  -3597325.45347  -2768437.24245  23643256.0784   23643253.9734       3406.9474
        43.5004         30.5004
  -3313916.32047  -2540937.31645  22760050.7114   22760048.4694       2998.8664
        45.0004         32.5004
  -4546876.09447  -3527578.63745  22810048.6254   22810046.6914       3892.3734
        44.7504         30.7504
  -2116665.09448  -1624432.69546  20571481.3204   20571476.7734       2513.1814
        50.2504         41.2504
   1128734.80948    890813.20347  20586123.6804   20586117.7304        705.9314
        50.0004         42.0004
  -2856677.21147  -2184364.48444  23573067.5004   23573067.5124       2940.1254
        44.2504         29.2504
   6918212.65647   5375608.81344  23215604.0864   23215603.2504      -2086.1014
        43.2504         29.5004
 14  5 29 17 51  0.0000000  0 10G19G16G07G08G10G03G13G23G27G20
  -2804213.47347  -2133855.98444  24318654.9304   24318654.3204       4156.4134
        42.7504         25.2504
   4656448.03947   3625697.71146  22025167.9774   22025163.7234      -1218.6074
        47.5004         36.5004
  -2611053.01248  -2003972.36746  21845023.2034   21845019.5004       2801.4904
        48.0004         39.2504
  -3699445.77347  -2848011.46145  23623822.9694   23623821.3164       3404.0114
        43.0004         30.7504
  -3403417.08247  -2610678.15645  22743019.7814   22743017.0234       2983.3594
        45.5004         32.7504
  -4663399.46547  -3618376.00045  22787874.4694   22787873.0864       3884.1124
        44.7504         30.5004
  -2191808.66048  -1682986.12146  20557182.5784   20557178.0124       2504.7864
        50.0004         41.5004
   1107909.96948    874586.01646  20582161.0864   20582154.7504        694.1614
        50.5004         41.7504
  -2944556.81247  -2252842.03945  23556344.5944   23556344.5394       2929.3204
        43.5004         30.0004
   6980861.13747   5424425.61344  23227525.7274   23227525.0474      -2088.2834
        43.5004         29.0004
 14  5 29 17 51 30.0000000  0 10G19G16G07G08G10G03G13G23G27G20
  -2928883.25447  -2231001.12544  24294930.6724   24294930.4064       4155.6594
        42.2504         25.7504
   4693374.79747   3654471.77346  22032194.9064   22032190.4344      -1230.8924
        46.7504         36.0004
  -2694967.98447  -2069360.62146  21829054.5944   21829051.0744       2797.1664
        47.0004         39.0004
  -3801476.30947  -2927515.71545  23604407.5394   23604405.3874       3401.0184
        43.2504         31.2504
  -3492449.06247  -2680053.71145  22726077.6484   22726074.5044       2967.7334
        46.2504         32.5004
  -4779669.57447  -3708976.00045  22765749.2894   22765747.3484       3875.6704
        44.5004         30.7504
  -2266696.37148  -1741340.19146  20542931.3834   20542926.9344       2496.2574
        49.5004         40.7504
   1087441.09048    858636.21147  20578266.0164   20578260.1604        682.2964
        50.0004         42.2504
  -3032107.66847  -2321063.39545  23539684.1644   23539683.8954       2918.3624
        43.2504         30.0004
   7043574.18847   5473292.73444  23239460.3134   23239459.4384      -2090.4354
        44.0004         29.0004
 14  5 29 17 52  0.0000000  0 10G19G16G07G08G10G03G13G23G27G20
  -3053526.16847  -2328125.34444  24271211.7894   24271210.5704       4154.7644
        42.5004         25.2504
   4730667.78147   3683531.19145  22039292.0164   22039287.0394      -1243.0994
        46.7504         35.5004
  -2778752.97747  -2134647.59846  21813111.0784   21813107.1094       2792.8334
        47.0004         39.5004
  -3903416.66847  -3006949.70745  23585008.3594   23585006.8444       3398.0124
        43.5004         30.2504
  -3581010.05147  -2749062.26245  22709224.8444   22709222.1484       2952.0334
        46.2504         32.7504
  -4895682.24647  -3799375.39845  22743672.3674   22743670.6884       3867.0894
        44.7504         30.0004
  -2341326.02748  -1799493.16846  20528729.8524   20528725.1844       2487.6554
        49.5004         41.5004
   1067329.59848    842964.87947  20574438.7114   20574432.7274        670.3834
        51.0004         42.0004
  -3119326.52747  -2389026.08244  23523086.2034   23523086.7384       2907.2954
        44.5004         29.2504
   7106349.33247   5522208.23044  23251405.7034   23251405.3594      -2092.5054
        44.0004         29.0004
 14  5 29 17 52 30.0000000  0 10G19G16G07G08G10G03G13G23G27G20
  -3178143.37547  -2425229.50844  24247498.0234   24247497.7114       4153.9074
        42.2504         25.0004
   4768320.03147   3712870.58645  22046456.3284   22046451.8054      -1255.0754
        47.0004         35.5004
  -2862412.51647  -2199836.82046  21797190.9614   21797187.0004       2788.6514
        47.5004         39.5004
  -4005271.47347  -3086317.03145  23565626.1884   23565624.6374       3395.1604
        42.7504         30.5004
  -3669102.80147  -2817705.95745  22692461.2664   22692458.7034       2936.4254
        45.5004         32.0004
  -5011439.16847  -3889575.53145  22721645.0164   22721642.6684       3858.5644
        44.0004         30.0004
  -2415700.30548  -1857447.15647  20514577.4454   20514572.4344       2479.1434
        49.5004         42.0004
   1047571.48848    827568.90646  20570679.2274   20570673.1764        658.6044
        50.7504         41.5004
  -3206215.16847  -2456731.44945  23506552.3134   23506552.5044       2896.2884
        45.0004         30.5004
   7169179.46547   5571166.58244  23263362.1724   23263361.2774      -2094.3384
        43.5004         28.5004
 14  5 29 17 53  0.0000000  0 10G19G16G07G08G10G03G13G23G27G20
  -3302737.32046  -2522315.55944  24223787.9614   24223787.5984       4153.1324
        41.5004         26.0004
   4806322.87947   3742483.14846  22053688.7734   22053684.0354      -1266.7624
        47.0004         36.0004
  -2945952.91048  -2264933.20346  21781293.9614   21781290.2114       2784.6804
        48.0004         39.5004
  -4107046.73447  -3165622.37145  23546259.0004   23546257.4534       3392.5094
        44.2504         30.5004
  -3756731.58647  -2885988.11745  22675786.3204   22675783.3954       2920.9604
        46.2504         32.2504
  -5126942.37947  -3979577.95345  22699664.9454   22699663.1914       3850.1074
        43.7504         30.5004
  -2489822.93748  -1915205.04346  20500471.9844   20500467.6254       2470.7544
        50.0004         41.5004
   1028162.34048    812444.85547  20566985.5944   20566979.5594        646.9724
        50.5004         42.0004
  -3292776.70747  -2524181.91845  23490079.7974   23490080.3674       2885.3854
        44.5004         30.5004
   7232056.35947   5620161.35544  23275327.5784   23275326.4574      -2095.8964
        43.0004         28.5004
 14  5 29 17 53 30.0000000  0 10G19G16G07G08G10G03G13G23G27G20
  -3427299.02046  -2619376.46944  24200084.8754   24200084.6724       4152.0574
        40.2504         25.7504
   4844679.05147   3772371.04345  22060987.7894   22060982.6764      -1278.5394
        45.5004         35.0004
  -3029368.88347  -2329932.63346  21765420.0634   21765416.5664       2780.5324
        46.7504         38.5004
  -4208737.03547  -3244861.49645  23526907.9224   23526905.9694       3389.6774
        43.0004         30.5004
  -3843889.03547  -2953903.00845  22659200.4064   22659197.6884       2905.2484
        43.2504         32.7504
  -5242182.94947  -4069375.71545  22677735.6884   22677733.8134       3841.3524
        43.5004         30.7504
  -2563686.38348  -1972760.97746  20486416.2814   20486411.7194       2462.1154
        50.0004         41.7504
   1009108.64548    797597.78946  20563359.8284   20563353.6024        635.1234
        49.7504         41.7504
  -3379002.84447  -2591371.08244  23473671.3364   23473671.6094       2874.2054
        43.7504         29.5004
   7294982.80147   5669194.75044  23287302.3914   23287300.8874      -2097.5484
        43.0004         27.7504
 14  5 29 17 54  0.0000000  0 10G19G16G07G08G10G03G13G23G27G20
  -3551830.65246  -2716413.92244  24176386.8364   24176386.4414       4151.0544
        41.5004         26.0004
   4883380.66847   3802528.11745  22068352.0944   22068347.4534      -1290.0544
        46.0004         35.5004
  -3112666.05947  -2394839.50046  21749569.2114   21749565.4844       2776.5734
        47.5004         39.2504
  -4310347.86347  -3324038.69944  23507571.4304   23507569.7544       3387.0284
        44.2504         29.7504
  -3930578.94147  -3021453.58645  22642703.5704   22642701.4574       2889.6644
        45.2504         32.0004
  -5357162.91847  -4158970.41445  22655855.1414   22655853.5944       3832.6664
        45.5004         31.0004
  -2637294.60548  -2030118.03147  20472409.4064   20472404.3054       2453.6074
        49.0004         42.0004
    990405.51648    783023.88347  20559800.9614   20559794.5474        623.4384
        50.0004         42.2504
  -3464896.39547  -2658301.02745  23457326.6414   23457326.7304       2863.1184
        43.0004         30.2504
   7357950.79347   5718260.49644  23299285.2734   23299283.4384      -2098.9334
        43.7504         28.5004
 14  5 29 17 54 30.0000000  0 10G19G16G07G08G10G03G13G23G27G20
  -3676324.97747  -2813422.27044  24152696.6414   24152696.5704       4149.8114
        42.0004         26.0004
   4922428.09847   3832954.64545  22075782.5944   22075778.2544      -1301.5814
        47.0004         35.5004
  -3195841.24647  -2459651.30946  21733741.5314   21733737.8284       2772.5064
        46.7504         40.5004
  -4411875.97347  -3403151.45744  23488251.3984   23488249.9384       3384.2704
        45.0004         29.5004
  -4016796.60947  -3088636.19145  22626297.3364   22626294.6884       2873.9224
        43.5004         32.5004
  -5471875.33647  -4248356.65245  22634026.5784   22634024.5704       3823.7474
        45.0004         31.2504
  -2710641.93748  -2087271.79347  20458451.8054   20458447.0434       2444.9114
        49.5004         42.0004
    972057.37148    768726.58247  20556309.4614   20556303.2934        611.6054
        50.5004         42.0004
  -3550451.25047  -2724967.10245  23441045.7894   23441046.0944       2851.8294
        43.0004         30.7504
   7420961.10547   5767359.25844  23311275.7194   23311274.1334      -2100.3444
        43.2504         27.7504
 14  5 29 17 55  0.0000000  0 10G19G16G07G08G10G03G13G23G27G20
  -3800777.89547  -2910398.40244  24129013.2114   24129012.3444       4148.4314
        42.0004         26.5004
   4961820.00447   3863649.59845  22083278.2664   22083274.0664      -1313.0644
        47.0004         35.5004
  -3278893.02748  -2524366.96546  21717937.2504   21717933.5944       2768.3934
        48.2504         39.0004
  -4513320.30547  -3482198.92245  23468947.5554   23468945.8714       3381.4784
        43.5004         31.0004
  -4102539.38347  -3155448.73845  22609981.3204   22609978.6174       2858.0924
        45.5004         33.5004
  -5586315.89847  -4337531.03945  22612248.9384   22612246.9924       3814.6854
        44.2504         31.7504
  -2783725.53548  -2144220.03947  20444544.3444   20444539.7624       2436.1204
        48.7504         42.0004
    954066.44148    754707.63346  20552885.4614   20552879.6804        599.6984
        49.7504         41.5004
  -3635663.69947  -2791366.32445  23424830.8674   23424830.9184       2840.4154
        42.5004         30.7504
   7484012.22347   5816489.77744  23323273.9844   23323272.4304      -2101.7044
        42.7504         27.2504
 14  5 29 17 55 30.0000000  0 10G19G16G07G08G10G03G13G23G27G20
  -3925182.57447  -3007336.89144  24105339.9774   24105339.9614       4146.8234
        42.2504         25.2504
   5001556.64847   3894613.18846  22090840.3284   22090836.0084      -1324.5554
        47.0004         36.0004
  -3361819.23847  -2588984.75846  21702156.6484   21702152.9184       2764.2074
        47.7504         39.5004
  -4614678.28547  -3561179.10945  23449659.9534   23449657.6764       3378.5994
        42.5004         30.0004
  -4187802.34447  -3221887.41045  22593756.0554   22593753.2974       2842.0994
        46.5004         33.2504
  -5700477.91847  -4426488.39145  22590524.5474   22590523.1684       3805.4014
        45.0004         31.7504
  -2856540.15648  -2200958.70747  20430687.9304   20430683.4264       2427.1544
        48.5004         42.0004
    936436.00448    740969.58646  20549530.6024   20549524.6724        587.6814
        51.0004         41.2504
  -3720527.89547  -2857494.21145  23408681.3204   23408681.6024       2828.8074
        42.5004         31.0004
   7547104.50847   5865652.40244  23335280.0554   23335278.5004      -2103.0764
        42.7504         27.5004
 14  5 29 17 56  0.0000000  0 10G19G16G07G08G10G03G13G23G27G20
  -4049543.19947  -3104241.10544  24081675.1094   24081674.1214       4145.3544
        43.0004         27.0004
   5041627.80547   3925837.42245  22098466.0084   22098461.3674      -1335.7054
        47.0004         35.5004
  -3444627.27747  -2653510.48046  21686399.1484   21686395.3634       2760.2684
        46.0004         38.7504
  -4715957.38747  -3640097.83244  23430386.7194   23430384.8244       3375.9704
        44.7504         29.7504
  -4272591.36347  -3287956.77745  22577621.0554   22577618.6684       2826.3014
        44.5004         33.0004
  -5814365.48847  -4515231.85945  22568852.5474   22568850.6644       3796.2524
        45.2504         31.7504
  -2929091.60948  -2257492.30946  20416882.1094   20416877.3094       2418.3824
        50.7504         41.2504
    919159.78548    727507.56346  20546242.9384   20546237.1804        575.8744
        51.0004         41.5004
  -3805048.73046  -2923354.55545  23392597.5784   23392597.2074       2817.3614
        41.2504         31.5004
   7610227.94947   5914839.29344  23347292.2424   23347290.8714      -2104.1154
        43.0004         27.2504
 14  5 29 17 56 30.0000000  0 10G19G16G07G08G10G03G13G23G27G20
  -4173848.15246  -3201101.91044  24058020.4144   24058019.6454       4143.4984
        41.7504         25.7504
   5082038.67247   3957326.37945  22106155.7344   22106151.6054      -1347.0294
        45.5004         35.7504
  -3527309.41047  -2717938.08646  21670665.1024   21670661.4414       2756.0714
        46.5004         39.2504
  -4817149.69547  -3718948.91045  23411130.5234   23411128.9574       3373.0774
        45.2504         30.0004
  -4356896.89147  -3353649.39545  22561578.6024   22561576.0864       2810.1844
        46.7504         33.5004
  -5927967.10247  -4603752.53945  22547234.5864   22547233.1604       3786.7204
        45.5004         32.0004
  -3001369.88748  -2313813.04346  20403127.8364   20403123.1094       2409.2764
        50.0004         41.7504
    902246.59448    714328.41046  20543024.6644   20543018.5354        563.7734
        50.0004         41.5004
  -3889215.54746  -2988939.02344  23376580.8054   23376580.7074       2805.5614
        40.7504         29.7504
   7673387.73847   5964054.49644  23359311.3054   23359310.2424      -2105.3264
        43.5004         27.0004
 14  5 29 17 57  0.0000000  0 10G19G16G07G08G10G03G13G23G27G20
  -4298098.41447  -3297920.12144  24034376.1174   24034374.9264       4141.6754
        43.5004         26.5004
   5122782.09047   3989074.44945  22113908.7734   22113904.5554      -1358.1144
        46.5004         35.2504
  -3609870.25448  -2782271.18046  21654954.2344   21654950.5044       2752.0284
        48.0004         39.2504
  -4918259.81247  -3797735.96144  23391889.8834   23391887.6724       3370.3374
        45.0004         29.5004
  -4440722.22747  -3418967.84445  22545627.2734   22545624.4494       2794.1784
        46.7504         33.2504
  -6041283.89147  -4692051.23045  22525671.4924   22525669.1764       3777.2264
        45.7504         31.5004
  -3073377.39848  -2369922.77747  20389425.6094   20389420.7774       2400.2504
        50.0004         42.0004
    885693.13748    701429.57047  20539874.8674   20539869.0354        551.7824
        50.0004         42.0004
  -3973030.25447  -3054249.10544  23360632.3984   23360631.7194       2793.8244
        44.0004         29.7504
   7736576.93847   6013292.61744  23371336.5474   23371335.0634      -2106.3074
        43.7504         27.0004
 14  5 29 17 57 30.0000000  0 10G19G16G07G08G10G03G13G23G27G20
  -4422288.14547  -3394691.12144  24010744.4304   24010742.7704       4139.6584
        44.0004         25.5004
   5163857.77047   4021081.44545  22121725.1644   22121720.7814      -1369.1894
        47.0004         35.2504
  -3692307.90248  -2846508.27746  21639267.2974   21639263.1254       2747.9224
        48.7504         39.2504
  -5019285.79347  -3876457.47744  23372665.1094   23372663.2154       3367.5334
        45.7504         29.5004
  -4524063.52747  -3483909.10545  22529767.4224   22529765.0204       2778.0434
        46.5004         33.5004
  -6154310.05147  -4780123.50445  22504163.1564   22504161.1684       3767.5394
        47.5004         31.7504
  -3145110.27748  -2425818.52346  20375774.7424   20375770.5204       2391.0964
        49.5004         41.7504
    869502.18848    688813.20746  20536793.9454   20536787.8834        539.6984
        50.0004         41.0004
  -4056487.93747  -3119281.02045  23344750.2974   23344749.5274       2781.9234
        45.2504         30.7504
   7799795.31347   6062553.49644  23383365.9614   23383365.5204      -2107.2794
        43.5004         27.0004
 14  5 29 17 58  0.0000000  0 10G19G16G07G08G10G03G13G23G27G20
  -4546423.52347  -3491419.83244  23987121.6334   23987119.9264       4137.8464
        43.7504         27.0004
   5205253.18447   4053337.57045  22129602.1954   22129597.9104      -1379.8474
        46.5004         35.2504
  -3774632.14148  -2910657.00446  21623600.7424   21623597.2854       2744.1414
        48.5004         38.7504
  -5120237.09447  -3955120.78144  23353454.8914   23353452.9224       3365.0434
        45.2504         29.5004
  -4606928.92247  -3548479.54345  22513999.1094   22513996.3914       2762.1804
        46.0004         33.0004
  -6267052.09047  -4867974.37145  22482708.7114   22482707.1294       3758.0684
        46.7504         32.0004
  -3216575.93448  -2481506.04746  20362175.7584   20362170.7154       2382.1894
        49.2504         41.5004
    853664.75448    676472.30946  20533780.0634   20533774.1374        527.9144
        50.5004         41.7504
  -4139595.49647  -3184040.09845  23328934.9534   23328935.7074       2770.2524
        44.0004         30.7504
   7863030.78147   6111827.66844  23395398.8984   23395398.5124      -2107.8494
        43.0004         27.5004
 14  5 29 17 58 30.0000000  0 10G19G16G07G08G10G03G13G23G27G20
  -4670496.31647  -3588099.75044  23963511.2274   23963509.1804       4135.7604
        42.7504         26.2504
   5246970.46547   4085844.50045  22137541.2194   22137536.8674      -1390.5764
        45.7504         35.5004
  -3856838.40248  -2974713.79746  21607957.8834   21607954.2774       2740.2094
        49.0004         39.0004
  -5221109.17647  -4033722.38345  23334259.5164   23334257.2814       3362.4034
        45.5004         30.0004
  -4689312.03547  -3612674.18045  22498321.6094   22498319.3404       2746.1044
        46.0004         33.5004
  -6379501.64147  -4955597.32845  22461310.6954   22461308.4654       3748.3184
        47.0004         32.2504
  -3287767.88348  -2536980.28546  20348628.0704   20348623.4144       2373.0654
        50.0004         41.2504
    838186.68448    664411.44147  20530835.0944   20530828.8754        515.9364
        50.0004         42.0004
  -4222345.55147  -3248520.61745  23313188.3674   23313188.2974       2758.3354
        44.5004         30.5004
   7926285.29747   6161116.69144  23407437.3444   23407435.6844      -2108.4844
        44.5004         27.0004
 14  5 29 17 59  0.0000000  0 10G19G16G07G08G10G03G13G23G27G20
  -4794504.84847  -3684729.60244  23939913.1804   23939911.6214       4133.6184
        43.2504         27.0004
   5289005.33247   4118598.89545  22145540.2274   22145535.8014      -1401.1624
        46.7504         35.5004
  -3938928.33648  -3038679.96146  21592336.4144   21592332.6914       2736.3314
        49.2504         40.0004
  -5321903.97347  -4112263.74645  23315078.2664   23315076.5164       3359.8274
        44.7504         30.0004
  -4771212.91447  -3676493.03945  22482736.5864   22482734.3914       2730.0294
        45.7504         33.7504
  -6491656.91048  -5042990.97345  22439968.2584   22439966.0044       3738.5094
        48.0004         32.2504
  -3358685.49648  -2592240.75446  20335132.9304   20335128.1024       2363.9204
        49.7504         41.5004
    823067.08248    652629.89546  20527957.8444   20527951.3754        503.9874
        50.5004         41.0004
  -4304737.30547  -3312721.93445  23297509.4774   23297509.4104       2746.3924
        44.0004         30.5004
   7989554.75047   6210417.33644  23419477.3834   23419475.9534      -2108.9824
        44.0004         26.7504
 14  5 29 17 59 30.0000000  0 10G19G16G07G08G10G03G13G23G27G20
  -4918439.59447  -3781301.95344  23916329.2274   23916326.9734       4131.1584
        43.7504         27.5004
   5331360.44147   4151602.83645  22153600.2894   22153595.9534      -1411.8374
        46.5004         34.7504
  -4020896.41448  -3102551.16846  21576738.3594   21576734.7114       2732.2694
        49.0004         40.2504
  -5422615.82847  -4190740.47744  23295913.5944   23295911.5314       3357.0624
        45.0004         29.5004
  -4852624.68447  -3739930.77345  22467244.5634   22467241.6644       2713.7264
        45.5004         33.7504
  -6603508.97747  -5130148.35245  22418682.7114   22418681.3054       3728.4024
        46.0004         32.2504
  -3429321.44548  -2647281.74646  20321691.6804   20321686.4574       2354.5324
        49.2504         41.5004
    808312.47348    641132.76646  20525150.1174   20525143.4734        491.8204
        50.0004         41.2504
  -4386762.42647  -3376637.56245  23281901.0084   23281900.3284       2734.1714
        44.5004         30.5004
   8052841.98447   6259731.87944  23431520.5474   23431518.7704      -2109.5744
        43.5004         26.7504
 14  5 29 18  0  0.0000000  0 10G19G16G07G08G10G03G13G23G27G20
  -5042301.55147  -3877817.55544  23892758.6954   23892756.9734       4128.7324
        44.0004         26.0004
   5374029.06647   4184851.06345  22161719.9694   22161715.3404      -1422.2874
        47.0004         35.2504
  -4102747.19548  -3166330.96546  21561162.9384   21561159.0124       2728.3594
        50.0004         39.5004
  -5523249.24247  -4269156.08644  23276763.3984   23276761.8674       3354.4474
        45.5004         29.5004
  -4933550.21547  -3802989.62545  22451845.3984   22451842.1454       2697.5184
        46.0004         33.0004
  -6715058.55147  -5217070.00845  22397456.1954   22397453.7974       3718.3194
        47.0004         33.0004
  -3499678.14848  -2702105.13746  20308303.0084   20308298.4224       2345.2234
        48.7504         41.7504
    793919.36348    629917.32446  20522410.9924   20522404.7384        479.7704
        49.0004         41.5004
  -4468422.61747  -3440268.83645  23266361.2424   23266361.3794       2722.0064
        44.5004         30.7504
   8116140.50447   6309055.18444  23443564.8444   23443564.4144      -2109.9514
        43.7504         28.2504
 14  5 29 18  0 30.0000000  0 10G19G16G07G08G10G03G13G23G27G20
  -5166083.65647  -3974271.01244  23869203.3834   23869201.6174       4126.0704
        44.0004         27.0004
   5417011.91047   4218344.14845  22169898.9304   22169894.9224      -1432.7614
        46.7504         34.2504
  -4184477.60948  -3230016.98446  21545610.0474   21545606.2814       2724.3474
        50.5004         40.0004
  -5623800.92247  -4347508.00844  23257629.5394   23257627.1564       3351.7234
        44.0004         29.7504
  -5013984.59047  -3865665.75845  22436538.8834   22436536.2304       2681.1464
        46.0004         32.7504
  -6826298.85947  -5303750.70745  22376287.6884   22376285.4694       3708.0104
        47.0004         31.5004
  -3569750.08248  -2756706.63346  20294968.6024   20294963.9454       2335.7314
        48.5004         41.7504
    779891.64148    618986.59846  20519742.0084   20519735.6374        467.5914
        48.5004         41.5004
  -4549711.96547  -3503611.13345  23250892.4614   23250891.9304       2709.6454
        43.5004         31.5004
   8179450.93447   6358387.77044  23455614.3914   23455612.6724      -2110.3484
        44.2504         26.5004
 14  5 29 18  1  0.0000000  0 10G19G16G07G08G10G03G13G23G27G20
  -5289790.68747  -4070665.92644  23845662.3754   23845661.0704       4123.5684
        43.0004         27.7504
   5460297.92247   4252073.46145  22178135.5944   22178131.8834      -1442.8674
        46.5004         34.7504
  -4266096.00047  -3293615.70746  21530078.7194   21530074.3984       2720.6134
        47.5004         39.7504
  -5724279.13747  -4425802.68045  23238509.4144   23238506.9614       3349.2744
        43.7504         31.0004
  -5093934.87147  -3927964.66845  22421324.7114   22421321.7274       2665.0094
        43.7504         33.0004
  -6937234.91447  -5390194.31645  22355176.9454   22355174.8674       3697.8684
        46.0004         32.0004
  -3639543.48848  -2811091.09447  20281687.4694   20281682.7464       2326.4474
        48.5004         42.0004
    766222.02048    608334.91046  20517140.4224   20517134.8714        455.6544
        48.7504         40.7504
  -4630636.14847  -3566668.90245  23235493.3444   23235492.6724       2697.4734
        45.2504         30.5004
   8242762.87147   6407721.54744  23467660.7894   23467660.1724      -2110.3984
        43.5004         27.0004
 14  5 29 18  1 30.0000000  0 10G19G16G07G08G10G03G13G23G27G20
  -5413414.80947  -4166996.23444  23822137.6174   23822136.1604       4120.8044
        43.5004         26.7504
   5503888.26247   4286039.90645  22186430.8834   22186426.6684      -1453.0114
        46.0004         34.2504
  -4347598.26248  -3357123.94546  21514569.3674   21514565.3714       2716.7424
        49.2504         39.0004
  -5824680.10947  -4504037.17645  23219403.4304   23219401.6994       3346.6994
        43.5004         31.0004
  -5173395.42647  -3989881.99245  22406203.6484   22406201.1484       2648.6854
        46.2504         32.7504
  -7047859.46947  -5476395.20345  22334125.9454   22334123.5744       3687.4854
        46.7504         32.2504
  -3709052.46948  -2865253.93446  20268460.2034   20268455.5004       2316.9664
        48.0004         41.5004
    752915.52748    597966.18046  20514608.5234   20514602.4064        443.5504
        48.5004         41.2504
  -4711188.68047  -3629437.05544  23220163.9304   23220164.3484       2685.0844
        45.0004         29.5004
   8306077.54747   6457057.44544  23479710.1644   23479709.1764      -2110.4894
        44.7504         27.2504
 14  5 29 18  2  0.0000000  0 10G19G16G07G08G10G03G13G23G27G20
  -5536957.38347  -4263262.99644  23798627.6644   23798626.1414       4118.0864
        42.5004         27.2504
   5547775.98847   4320238.07445  22194783.0864   22194778.6214      -1462.9244
        46.0004         33.7504
  -4428989.23048  -3420545.46546  21499080.8054   21499076.8594       2713.0324
        48.0004         39.0004
  -5925008.42647  -4582215.04345  23200311.6334   23200309.2974       3344.2774
        44.2504         31.5004
  -5252369.41047  -4051420.16445  22391175.6804   22391172.4574       2632.4664
        45.5004         32.7504
  -7158173.40247  -5562354.05545  22313134.1804   22313131.9144       3677.1314
        46.0004         31.7504
  -3778279.89148  -2919197.37146  20255286.6484   20255282.0514       2307.5814
        48.5004         41.5004
    739967.84448    587877.05546  20512144.3834   20512138.1994        431.5894
        49.0004         41.5004
  -4791371.48046  -3691917.11745  23204905.6484   23204905.6724       2672.7604
        41.5004         30.0004
   8369387.39547   6506389.58244  23491757.5704   23491756.4844      -2110.3284
        43.2504         26.7504
 14  5 29 18  2 30.0000000  0 10G19G16G07G08G10G03G13G23G27G20
  -5660417.10547  -4359465.20344  23775134.1724   23775133.2074       4115.3244
        42.5004         28.0004
   5591955.75847   4354663.81645  22203190.1024   22203185.8634      -1472.6594
        46.0004         33.7504
  -4510271.57047  -3483882.32846  21483613.3834   21483609.2464       2709.4114
        46.5004         38.7504
  -6025266.79747  -4660338.39845  23181233.0084   23181231.1174       3341.9464
        43.7504         31.7504
  -5330858.25847  -4112580.30945  22376240.2584   22376237.1254       2616.2954
        43.5004         32.7504
  -7268175.77347  -5648070.11745  22292201.2814   22292198.5824       3666.7464
        46.5004         32.7504
  -3847226.10548  -2972921.69546  20242166.8134   20242162.0234       2298.2074
        48.5004         41.7504
    727377.40648    578066.28546  20509748.6414   20509742.7274        419.6814
        49.5004         41.0004
  -4871184.57046  -3754109.09045  23189717.7504   23189717.7624       2660.4364
        41.5004         30.5004
   8432688.03947   6555714.54744  23503803.2504   23503802.8754      -2110.0214
        43.5004         25.7504
 14  5 29 18  3  0.0000000  0 10G19G16G07G08G10G03G13G23G27G20
  -5783789.35947  -4455599.26244  23751656.6644   23751655.7424       4112.4084
        42.7504         26.5004
   5636425.96947   4389315.87145  22211652.1724   22211647.7734      -1482.3404
        46.0004         34.0004
  -4591444.48847  -3547133.93446  21468166.6484   21468162.7074       2705.7644
        46.7504         39.2504
  -6125454.30547  -4738406.54345  23162168.2194   23162166.3524       3339.5844
        43.2504         30.7504
  -5408859.37947  -4173360.40645  22361397.0394   22361393.8134       2600.0374
        43.7504         33.0004
  -7377862.02347  -5733539.85245  22271328.4064   22271326.4774       3656.2084
        45.0004         32.0004
  -3915888.00048  -3026424.46946  20229100.6564   20229096.2154       2288.7304
        48.5004         41.7504
    715146.04748    568535.32846  20507421.1254   20507414.9574        407.7124
        50.2504         41.5004
  -4950624.37147  -3816010.16845  23174601.8834   23174601.2074       2647.9934
        42.0004         31.0004
   8495978.09447   6605031.25444  23515847.3054   23515846.2734      -2109.6684
        43.2504         25.2504
 14  5 29 18  3 30.0000000  0 10G19G16G07G08G10G03G13G23G27G20
  -5907064.03547  -4551657.27044  23728198.8284   23728197.4844       4109.1564
        43.0004         27.2504
   5681190.05147   4424196.92245  22220170.9384   22220166.5124      -1492.1364
        45.2504         34.7504
  -4672501.57448  -3610295.28546  21452741.7114   21452737.8954       2701.9034
        48.0004         39.0004
  -6225564.64547  -4816414.56645  23143117.5314   23143115.8834       3337.0114
        43.7504         31.0004
  -5486365.21947  -4233754.56245  22346647.8444   22346644.9884       2583.5284
        44.0004         33.0004
  -7487222.39847  -5818755.67245  22250517.8364   22250515.4144       3645.3464
        45.2504         32.2504
  -3984257.36748  -3079699.28946  20216090.2504   20216085.8674       2278.9794
        49.0004         41.2504
    703280.96548    559289.78546  20505163.5164   20505157.4694        395.5034
        49.7504         41.0004
  -5029682.02347  -3877613.48445  23159556.9694   23159557.1884       2635.2554
        44.0004         30.5004
   8559261.31347   6654342.64844  23527889.9304   23527889.1994      -2109.4414
        43.0004         26.5004
 14  5 29 18  4  0.0000000  0 10G19G16G07G08G10G03G13G23G27G20
  -6030241.38347  -4647639.45344  23704759.2034   23704757.3404       4105.9124
        43.7504         28.5004
   5726241.70347   4459302.04745  22228744.2974   22228739.6254      -1501.7224
        46.2504         34.5004
  -4753446.68748  -3673369.38346  21437338.8284   21437334.4804       2698.1704
        49.0004         39.0004
  -6325601.47347  -4894365.29745  23124081.1644   23124078.8874       3334.5614
        43.0004         31.7504
  -5563378.14147  -4293764.63745  22331992.6024   22331990.0864       2567.0974
        44.0004         33.0004
  -7596257.57847  -5903718.10245  22229768.9614   22229767.0474       3634.5064
        45.0004         32.5004
  -4052336.04348  -3132747.60246  20203135.8284   20203130.9804       2269.2894
        48.5004         41.0004
    691778.93848    550327.13746  20502974.7344   20502968.4414        383.4014
        50.0004         41.2504
  -5108358.84847  -3938920.04745  23144585.3284   23144584.8594       2622.5614
        43.0004         30.5004
   8622531.41447   6703643.82844  23539929.8054   23539929.1604      -2109.0034
        43.5004         27.0004
 14  5 29 18  4 30.0000000  0 10G19G16G07G08G10G03G13G23G27G20
  -6153315.05147  -4743540.85944  23681338.5234   23681337.0124       4102.4564
        43.5004         28.7504
   5771581.19147   4494631.46145  22237372.0004   22237367.4494      -1511.3164
        46.2504         34.0004
  -4834277.30147  -3736354.25846  21421957.0784   21421952.6454       2694.3544
        47.0004         39.2504
  -6425562.16047  -4972256.70345  23105059.8204   23105057.1414       3332.0234
        43.2504         31.7504
  -5639894.07847  -4353387.44945  22317432.5944   22317429.5164       2550.5314
        44.5004         32.2504
  -7704960.99247  -5988422.00845  22209083.5474   22209081.1684       3623.4474
        44.7504         32.5004
  -4120119.02048  -3185565.50446  20190236.8754   20190231.9734       2259.4334
        48.0004         41.7504
    680643.77348    541650.35246  20500855.4224   20500849.5354        371.1724
        49.0004         41.0004
  -5186649.36747  -3999925.59045  23129686.9304   23129687.0634       2609.6844
        42.2504         30.7504
   8685788.71147   6752935.01244  23551966.9064   23551966.7974      -2108.5774
        43.0004         25.2504
 14  5 29 18  5  0.0000000  0 10G19G16G07G08G10G03G13G23G27G20
  -6276284.49647  -4839361.02744  23657937.9614   23657936.2234       4098.9824
        44.0004         28.2504
   5817202.95347   4530180.83245  22246053.6724   22246048.8244      -1520.7254
        45.5004         34.0004
  -4914996.48448  -3799252.31246  21406596.8444   21406592.8634       2690.6394
        48.5004         39.5004
  -6525449.79747  -5050091.17645  23086051.1174   23086049.1604       3329.5884
        44.0004         30.7504
  -5715914.66447  -4412624.27745  22302966.0314   22302963.0354       2534.0204
        44.5004         32.5004
  -7813332.73047  -6072867.46545  22188461.2814   22188458.8204       3612.3914
        45.2504         32.5004
  -4187607.57048  -3238153.98846  20177394.3134   20177389.6454       2249.6184
        48.2504         41.5004
    669873.43848    533257.85246  20498806.4304   20498800.2344        359.0114
        50.2504         41.0004
  -5264554.31247  -4060630.68045  23114862.0784   23114861.6484       2596.8324
        44.5004         30.7504
   8749027.64847   6802211.91044  23564000.9304   23564001.0354      -2107.9654
        42.0004         25.5004
 14  5 29 18  5 30.0000000  0 10G19G16G07G08G10G03G13G23G27G20
  -6399144.03947  -4935095.59445  23634558.6644   23634557.0744       4095.3184
        44.5004         30.0004
   5863106.09447   4565949.45345  22254788.1174   22254784.2734      -1530.1054
        46.0004         34.0004
  -4995602.07848  -3862061.84046  21391257.7974   21391253.7504       2686.8534
        49.2504         39.2504
  -6625262.75847  -5127867.47345  23067057.8524   23067055.5124       3327.0994
        43.2504         31.0004
  -5791436.96147  -4471472.82445  22288594.2734   22288591.3984       2517.4104
        45.2504         32.0004
  -7921367.31247  -6157050.19945  22167902.7734   22167900.2464       3601.1534
        45.2504         32.5004
  -4254797.84448  -3290510.04746  20164608.3134   20164603.6334       2239.6764
        48.7504         41.5004
    659469.69948    525151.00046  20496826.3754   20496820.3754        346.7914
        50.2504         41.0004
  -5342069.25847  -4121031.87145  23100112.0164   23100112.1414       2583.8324
        43.7504         30.7504
   8812248.08647   6851474.35243  23576033.4534   23576031.7154      -2107.3484
        43.0004         23.0004
 14  5 29 18  6  0.0000000  0 10G19G16G07G08G10G03G13G23G27G20
  -4946470.68747  -3803142.20744  23910993.2114   23910990.9924       4091.5554
        44.2504         29.0004
   7484701.61347   5829530.32445  22563367.9694   22563363.1254      -1539.1844
        45.2504         34.0004
  -3500676.35548  -2697184.64146  21675732.8754   21675728.3794       2683.1434
        49.5004         39.5004
  -5149582.27047  -3977986.52745  23347870.2344   23347867.8594       3324.6504
        43.0004         31.2504
  -4291041.69547  -3302333.66445  22574110.6564   22574107.2854       2500.8244
        44.5004         31.5004
  -6453642.60547  -5013368.56645  22447201.0084   22447199.2154       3589.8434
        45.0004         32.7504
  -2746270.03148  -2115033.82846  20451671.6884   20451666.8244       2229.7404
        49.2504         41.5004
   2224849.35548   1744927.33246  20794708.1254   20794702.2664        334.6784
        48.7504         40.5004
  -3843773.77747  -2953528.85945  23385227.7034   23385227.2034       2570.8174
        44.2504         31.2504
  10450860.49247   8128314.99244  23887849.2504   23887849.4694      -2106.4144
        42.5004         24.7504
 14  5 29 18  6 30.0000000  0 10G19G16G07G08G10G03G13G23G27G20
  -5069109.69547  -3898704.93744  23887655.0164   23887653.6564       4087.9674
        43.5004         28.5004
   7531149.39847   5865723.34445  22572206.2424   22572202.1414      -1548.2604
        45.7504         33.5004
  -3581065.62548  -2759825.60946  21660435.5394   21660431.2664       2679.6424
        48.5004         39.2504
  -5249255.80147  -4055654.16845  23328902.7034   23328900.7544       3322.4514
        43.2504         31.0004
  -4365573.27047  -3360410.22345  22559927.6254   22559924.2034       2484.3864
        43.7504         31.5004
  -6561002.80947  -5097025.82045  22426771.2584   22426769.1174       3578.6734
        45.0004         33.0004
  -2812867.37548  -2166927.86347  20438998.8054   20438993.9064       2219.9114
        48.5004         42.0004
   2215171.70748   1737386.27046  20792866.6804   20792860.6214        322.5884
        49.5004         41.0004
  -3920511.42247  -3013324.35545  23370624.9614   23370625.0164       2557.9214
        42.5004         31.0004
  10514025.91447   8177534.58644  23899869.6804   23899869.7034      -2105.5144
        42.7504         24.7504
 14  5 29 18  7  0.0000000  0 10G19G16G07G08G10G03G13G23G27G20
  -5191630.73847  -3994175.74244  23864341.0164   23864339.0044       4084.0354
        43.7504         29.2504
   7577867.56647   5902127.05545  22581096.8594   22581092.5394      -1557.2724
        45.7504         34.2504
  -3661344.66848  -2822380.69546  21645158.6414   21645154.4534       2675.9684
        48.2504         39.5004
  -5348857.85947  -4133266.11745  23309948.7814   23309947.0904       3320.0694
        43.5004         30.2504
  -4439605.72747  -3418097.84045  22545839.1564   22545836.5274       2467.7494
        44.5004         32.5004
  -6668018.64147  -5180414.75045  22406407.0554   22406404.2664       3567.1944
        45.0004         33.0004
  -2879163.38348  -2218587.10546  20426383.0234   20426377.8754       2209.8674
        48.2504         41.5004
   2205860.27748   1730130.57046  20791094.9534   20791088.7894        310.3814
        50.5004         41.5004
  -3996854.61347  -3072812.51245  23356096.6094   23356096.8834       2544.7734
        42.0004         31.2504
  10577162.37547   8226731.60244  23911884.8134   23911884.6294      -2104.5494
        43.0004         24.5004
 14  5 29 18  7 30.0000000  0 10G19G16G07G08G10G03G13G23G27G20
  -5314032.26647  -4089553.42644  23841047.9924   23841045.9344       4080.0514
        43.5004         27.7504
   7624851.39147   5938737.77745  22590038.1954   22590033.4104      -1566.1274
        45.5004         33.5004
  -3741515.38748  -2884851.37146  21629902.6484   21629898.6414       2672.3574
        48.7504         39.5004
  -5448390.33647  -4210823.82845  23291008.8134   23291006.2424       3317.7494
        43.5004         30.5004
  -4513139.77347  -3475397.11345  22531846.4144   22531843.3364       2451.1354
        44.7504         32.0004
  -6774688.61347  -5263534.17245  22386108.2734   22386105.5474       3555.6664
        46.2504         33.0004
  -2945157.85548  -2270011.37546  20413824.7664   20413819.7504       2199.8164
        48.5004         41.7504
   2196913.53548   1723159.04346  20789392.4534   20789386.2464        298.2254
        49.7504         40.7504
  -4072803.00047  -3131993.00845  23341644.8754   23341644.2624       2531.6134
        42.5004         30.7504
  10640265.50847   8275902.63744  23923893.0634   23923892.7934      -2103.4384
        42.7504         25.7504
 14  5 29 18  8  0.0000000  0 10G19G16G07G08G10G03G13G23G27G20
  -5436309.48446  -4184834.26244  23817779.5474   23817777.3204       4075.9074
        41.5004         28.2504
   7672099.71547   5975554.58245  22599029.1334   22599024.6294      -1574.9444
        45.7504         33.5004
  -3821576.93748  -2947236.97746  21614667.7734   21614663.4574       2668.7184
        49.2504         39.5004
  -5547852.00847  -4288326.38745  23272081.0704   23272079.2934       3315.3894
        42.5004         31.2504
  -4586173.11747  -3532306.20345  22517948.7664   22517945.4414       2434.4454
        46.0004         32.2504
  -6881008.41847  -5346380.74645  22365875.9064   22365873.8054       3543.9934
        45.0004         34.0004
  -3010847.92648  -2321198.45346  20401324.3984   20401319.3754       2189.6694
        48.2504         41.7504
   2188333.44148   1716473.21146  20787759.8134   20787753.4964        286.0034
        49.0004         40.7504
  -4148352.98047  -3190863.06645  23327268.0394   23327267.2624       2518.3334
        42.7504         31.0004
  10703334.16046   8325046.78944  23935893.9224   23935895.1844      -2102.2884
        41.0004         26.0004
 14  5 29 18  8 30.0000000  0 11G19G16G07G08G10G03G13G28G23G27G20
  -5558461.34846  -4280017.40244  23794534.1024   23794532.2584       4071.7294
        41.5004         29.0004
   7719606.95747   6012573.16445  22608068.9304   22608064.9264      -1583.5754
        45.0004         33.2504
  -3901532.14148  -3009539.70746  21599452.4384   21599448.3594       2665.1734
        49.0004         39.7504
  -5647245.91047  -4365776.13745  23253167.5864   23253165.5944       3313.1304
        43.0004         31.0004
  -4658707.50047  -3588826.51245  22504145.8204   22504143.1564       2417.8134
        45.0004         32.5004
  -6986977.16047  -5428953.76245  22345710.8914   22345708.7774       3532.2914
        44.5004         33.2504
  -3076234.10248  -2372148.71947  20388881.8674   20388876.9964       2179.5394
        49.7504         42.2504
   4562633.46556   3585859.32853  24942025.8524   24942027.7584
        39.0004         18.5004
   2180117.89548   1710071.45346  20786196.2424   20786190.0234        273.8524
        49.5004         40.5004
  -4223504.89846  -3249422.96145  23312967.0944   23312966.6804       2505.0644
        41.5004         30.5004
  10766363.23847   8374160.12144  23947889.6644   23947888.5984      -2100.9694
        43.2504         26.0004
 14  5 29 18  9  0.0000000  0 11G19G16G07G08G10G03G13G28G23G27G20
  -5680496.22747  -4375109.38344  23771311.8134   23771310.0744       4067.8294
        42.7504         28.5004
   7767358.21547   6049781.87945  22617155.4614   22617151.3404      -1591.7094
        45.0004         33.0004
  -3981392.98848  -3071768.91846  21584255.4774   21584251.1254       2662.0284
        48.5004         39.7504
  -5746584.23047  -4443182.58245  23234264.1884   23234262.2704       3311.2774
        42.2504         30.7504
  -4730753.84047  -3644966.52345  22490435.5474   22490432.8404       2401.5454
        45.5004         32.5004
  -7092603.85247  -5511260.26645  22325610.2664   22325608.1454       3520.8904
        44.5004         32.5004
  -3141326.64848  -2422870.18447  20376495.0164   20376490.1414       2169.7524
        48.7504         42.0004
   4415607.93046   3471293.95343  24914047.9774   24914049.6294       4900.8514
        39.7504         19.2504
   2172255.30948   1703944.71946  20784700.2424   20784694.0164        262.0864
        49.5004         41.0004
  -4298268.48847  -3307680.26245  23298740.5554   23298739.3954       2492.1204
        42.2504         31.0004
  10829338.30947   8423231.35944  23959873.1334   23959873.0394      -2099.1694
        42.7504         25.0004
 14  5 29 18  9 30.0000000  0 11G19G16G07G08G10G03G13G28G23G27G20
  -5802409.96947  -4470106.96944  23748111.7974   23748110.3284       4063.7914
        43.5004         27.5004
   7815351.91847   6087179.51645  22626288.6564   22626284.4694      -1599.7904
        45.0004         33.5004
  -4061158.80548  -3133924.07446  21569076.8204   21569072.2584       2658.8614
        49.5004         39.7504
  -5845866.12547  -4520545.04745  23215370.9534   23215369.0124       3309.3964
        42.0004         30.5004
  -4802310.60947  -3700725.05945  22476818.7734   22476816.2344       2385.2264
        44.5004         32.2504
  -7197884.68447  -5593297.27045  22305576.2664   22305574.0314       3509.3614
        44.5004         33.0004
  -3206122.82048  -2473360.70747  20364164.7194   20364159.5434       2159.8724
        49.0004         42.0004
   4268616.34446   3356755.00443  24886075.9844   24886077.9734       4899.7204
        39.7504         18.5004
   2164747.27048   1698094.25846  20783271.5394   20783265.1094        250.2684
        49.5004         40.2504
  -4372640.75447  -3365632.64145  23284587.1174   23284586.7624       2479.0764
        42.5004         30.5004
  10892257.46947   8472259.02044  23971847.7034   23971846.4924      -2097.3054
        43.2504         24.7504
 14  5 29 18 10  0.0000000  0 11G19G16G07G08G10G03G13G28G23G27G20
  -5924204.67647  -4565011.80944  23724935.5394   23724933.4104       4059.8244
        42.2504         27.0004
   7863579.43847   6124759.33645  22635466.3524   22635461.9224      -1607.5844
        45.7504         32.5004
  -4140835.52348  -3196009.80546  21553914.4844   21553910.4614       2655.8914
        49.5004         39.7504
  -5945097.68047  -4597868.29745  23196487.9304   23196486.2624       3307.7184
        43.0004         31.0004
  -4873381.95347  -3756105.33245  22463294.9384   22463291.7774       2369.0454
        43.7504         33.2504
  -7302821.67247  -5675066.32445  22285607.6024   22285604.9574       3497.9004
        43.2504         32.7504
  -3270626.47348  -2523623.28947  20351890.4224   20351885.2274       2150.1224
        49.0004         42.2504
   4121654.97746   3242239.62143  24858110.7814   24858112.2734       4898.7124
        40.2504         19.7504
   2157588.55948   1692515.99646  20781909.0634   20781903.1454        238.6244
        49.5004         40.5004
  -4446625.11347  -3423282.75845  23270508.3134   23270508.1724       2466.1454
        43.2504         30.0004
  10955112.57447   8521236.78143  23983807.8834   23983807.1134      -2095.1704
        43.5004         22.7504
 14  5 29 18 10 30.0000000  0 11G19G16G07G08G10G03G13G28G23G27G20
  -6045866.52747  -4659813.10244  23701783.7584   23701781.7304       4055.3954
        42.7504         28.5004
   7912047.90647   6162526.92645  22644689.4304   22644685.5744      -1615.6164
        44.5004         33.2504
  -4220413.49648  -3258018.59846  21538771.4924   21538767.2584       2652.5994
        48.7504         39.5004
  -6044269.02047  -4675144.63745  23177616.4224   23177614.0904       3305.7114
        43.5004         31.5004
  -4943957.18747  -3811099.03945  22449864.9694   22449861.7894       2352.5084
        44.0004         33.0004
  -7407401.63747  -5756557.19145  22265706.4844   22265704.3444       3485.9994
        44.0004         32.5004
  -3334825.81248  -2573648.75047  20339673.3054   20339668.1994       2139.9784
        48.0004         42.5004
   3974735.95746   3127757.30143  24830152.4844   24830154.9774       4897.3014
        39.7504         19.5004
   2150789.72348   1687218.16446  20780615.1254   20780609.4534        226.6284
        49.5004         40.5004
  -4520209.41047  -3480621.12545  23256505.7584   23256505.6294       2452.8104
        42.7504         30.5004
  11017911.31647   8570170.62543  23995757.9144   23995757.9064      -2093.2914
        43.0004         22.7504
 14  5 29 18 11  0.0000000  0 11G19G16G07G08G10G03G13G28G23G27G20
  -6167395.18447  -4754510.62544  23678658.0164   23678655.8834       4050.9554
        42.5004         29.5004
   7960751.80147   6200477.96145  22653957.7584   22653953.1914      -1623.4634
        44.7504         32.2504
  -4299895.50448  -3319952.62146  21523646.5554   21523641.9964       2649.4004
        49.2504         39.7504
  -6143383.31247  -4752376.52745  23158755.7274   23158753.5314       3303.8104
        44.5004         31.5004
  -5014038.37547  -3865707.76245  22436528.6484   22436525.9964       2336.0404
        46.0004         33.2504
  -7511624.77047  -5837770.01245  22245873.2974   22245871.1764       3474.1044
        45.0004         32.5004
  -3398721.83248  -2623437.85947  20327514.2194   20327509.6454       2129.8674
        48.5004         42.0004
   3827858.51246   3013307.37943  24802202.6644   24802204.8794       4895.9154
        40.0004         18.5004
   2144347.84048   1682198.46546  20779389.6024   20779383.5204        214.7294
        49.0004         40.7504
  -4593394.46147  -3537648.39545  23242579.1094   23242578.4454       2439.5024
        44.2504         30.2504
  11080648.29747   8619056.30543  24007696.6484   24007696.4734      -2091.2334
        42.2504         22.7504
 14  5 29 18 11 30.0000000  0 11G19G16G07G08G10G03G13G28G23G27G20
  -6288784.36746  -4849099.47744  23655557.6644   23655555.6844       4046.3064
        41.2504         28.7504
   8009690.87547   6238612.26245  22663270.5314   22663266.0514      -1631.3024
        45.0004         32.5004
  -4379279.05948  -3381809.91846  21508540.1024   21508535.9344       2646.1184
        49.7504         39.5004
  -6242438.24247  -4829562.17245  23139906.1174   23139903.6454       3301.8314
        44.5004         31.2504
  -5083622.11347  -3919928.87145  22423287.4694   22423284.4884       2319.4584
        45.2504         33.2504
  -7615485.03947  -5918700.09045  22226109.7734   22226107.4924       3462.0094
        45.5004         33.0004
  -3462310.23048  -2672987.26247  20315413.7814   20315408.9774       2119.6134
        49.5004         42.5004
   3681027.87946   2898893.90643  24774262.0084   24774264.1134       4894.3544
        39.0004         18.5004
   2138266.07448   1677459.37946  20778232.1094   20778226.0904        202.7264
        50.0004         40.5004
  -4666175.46147  -3594360.84445  23228729.0784   23228729.2704       2426.0334
        43.7504         31.7504
  11143323.37147   8667893.74643  24019623.6804   24019623.7384      -2089.1694
        42.5004         23.0004
 14  5 29 18 12  0.0000000  0 11G19G16G07G08G10G03G13G28G23G27G20
  -6410032.68047  -4943578.55144  23632484.5784   23632483.1724       4041.6104
        42.5004         29.2504
   8058860.28547   6276926.02345  22672627.3594   22672622.8914      -1638.9804
        44.5004         32.5004
  -4458566.68748  -3443592.47346  21493452.0864   21493447.9304       2642.9214
        49.5004         39.5004
  -6341435.94547  -4906703.21945  23121067.3054   23121065.0044       3299.9234
        44.2504         31.7504
  -5152709.66047  -3973763.34045  22410140.7974   22410137.6724       2302.9184
        45.5004         33.0004
  -7718981.62547  -5999346.77345  22206414.7344   22206412.6564       3449.8864
        45.0004         31.7504
  -3525591.28948  -2722297.18047  20303371.7274   20303366.8134       2109.3694
        48.7504         42.5004
   3534244.59846   2784517.34842  24746330.1334   24746331.9574       4892.7764
        39.5004         17.7504
   2132543.03148   1672999.82446  20777143.4694   20777137.2154        190.7684
        49.0004         40.0004
  -4738552.34847  -3650758.37545  23214956.5944   23214955.9774       2412.5634
        43.0004         31.2504
  11205932.14847   8716679.52044  24031538.0634   24031538.1094      -2086.9594
        42.5004         25.5004
 14  5 29 18 12 30.0000000  0 11G19G16G07G08G10G03G13G28G23G27G20
  -6531133.71146  -5037942.86744  23609440.2274   23609438.1174       4036.7014
        41.2504         28.7504
   8108260.00447   6315419.26645  22682027.6564   22682023.5944      -1646.6574
        44.0004         32.5004
  -4537755.78948  -3505298.25046  21478383.0084   21478378.9884       2639.6374
        49.2504         40.2504
  -6440373.82847  -4983797.64845  23102240.0004   23102238.0044       3297.9294
        45.7504         32.2504
  -5221297.34047  -4027208.29345  22397088.8984   22397085.3634       2286.2564
        46.0004         33.2504
  -7822108.32847  -6079705.22745  22186790.4534   22186788.1214       3437.5574
        46.5004         33.0004
  -3588560.57448  -2771364.15647  20291389.1804   20291384.5594       2098.9764
        48.0004         42.0004
   3387512.71146   2670180.88743  24718408.1804   24718409.4064       4891.0634
        39.5004         18.2504
   2127181.79748   1668822.19946  20776123.1724   20776116.6724        178.7084
        49.0004         40.5004
  -4810520.14847  -3706837.16045  23201261.5474   23201261.3954       2398.9274
        43.2504         31.0004
  11268474.91846   8765413.88744  24043438.1414   24043439.6684      -2084.7594
        41.2504         25.0004
 14  5 29 18 13  0.0000000  0 11G19G16G07G08G10G03G13G28G23G27G20
  -6652089.21547  -5132193.79344  23586423.2034   23586421.0044       4031.8504
        42.7504         28.7504
   8157881.91447   6354085.62945  22691470.5084   22691466.1374      -1654.0644
        44.0004         33.0004
  -4616851.42248  -3566931.19946  21463331.7814   21463327.6094       2636.5214
        49.5004         40.0004
  -6539257.38747  -5060849.75845  23083423.1334   23083421.0434       3296.1194
        46.0004         32.5004
  -5289389.51647  -4080267.14845  22384131.3284   22384128.2274       2269.7394
        45.2504         33.0004
  -7924867.42247  -6159777.24645  22167236.2734   22167233.8594       3425.3034
        46.5004         33.0004
  -3651220.90648  -2820190.39547  20279465.5474   20279460.6844       2088.6784
        48.5004         42.0004
   3240829.62546   2555882.43843  24690495.3204   24690497.0864       4889.4364
        40.7504         18.5004
   2122177.06648   1664922.36746  20775170.8204   20775164.5944        166.8244
        50.5004         41.0004
  -4882082.07847  -3762599.66445  23187643.0634   23187643.0124       2385.3984
        42.7504         31.5004
  11330943.85547   8814090.68844  24055326.8444   24055327.6024      -2082.2984
        42.5004         24.7504
 14  5 29 18 13 30.0000000  0 11G19G16G07G08G10G03G13G28G23G27G20
  -6772887.72347  -5226322.39144  23563435.9454   23563433.2664       4026.6174
        42.7504         28.7504
   8207731.45347   6392929.36745  22700956.3444   22700951.9774      -1661.6514
        45.0004         32.2504
  -4695845.82448  -3628485.25846  21448299.7734   21448295.3834       2633.1474
        49.2504         40.0004
  -6638078.69147  -5137853.33245  23064618.5784   23064615.8164       3294.0434
        45.2504         32.0004
  -5356977.45747  -4132933.09045  22371269.3444   22371266.8094       2252.9314
        45.5004         33.0004
  -8027247.78547  -6239554.14845  22147753.5164   22147751.6174       3412.6794
        45.0004         32.5004
  -3713562.88748  -2868768.57847  20267602.1884   20267597.4024       2078.0664
        48.5004         42.5004
   3094205.56346   2441630.00843  24662593.7584   24662595.0204       4887.4694
        40.7504         19.0004
   2117537.85248   1661307.35946  20774288.1954   20774282.3484        154.6404
        49.5004         40.5004
  -4953228.06647  -3818038.06645  23174105.8054   23174104.5824       2371.5334
        42.0004         31.5004
  11393344.78546   8862714.48844  24067200.9064   24067202.6174      -2080.0314
        41.7504         25.2504
 14  5 29 18 14  0.0000000  0 11G19G16G07G08G10G03G13G28G23G27G20
  -6893535.21147  -5320333.30544  23540477.2034   23540475.4064       4021.5834
        42.7504         29.0004
   8257796.34847   6431940.91845  22710484.1724   22710479.5864      -1668.8304
        45.2504         33.0004
  -4774749.31648  -3689968.48046  21433284.6804   21433280.3954       2630.1164
        49.5004         40.2504
  -6736847.96947  -5214816.38345  23045822.5944   23045820.5434       3292.3094
        46.2504         32.7504
  -5424070.24647  -4185213.19945  22358502.6564   22358499.5044       2236.4264
        45.5004         33.5004
  -8129256.09447  -6319041.13345  22128341.9224   22128339.9924       3400.2774
        46.0004         33.2504
  -3775594.83648  -2917105.17247  20255797.8984   20255792.7074       2067.7324
        49.2504         42.0004
   2947633.32846   2327418.00843  24634701.0314   24634703.2304       4885.7414
        40.0004         18.2504
   2113254.58648   1657969.70346  20773472.9384   20773466.9654        142.7764
        50.0004         40.0004
  -5023965.91847  -3873158.45345  23160644.0164   23160643.6994       2357.9284
        43.5004         32.0004
  11455665.53147   8911275.78544  24079061.2344   24079062.0514      -2077.3584
        42.2504         24.0004
 14  5 29 18 14 30.0000000  0 11G19G16G07G08G10G03G13G28G23G27G20
  -7014025.06647  -5414221.39544  23517548.5864   23517545.6094       4016.3294
        42.2504         29.2504
   8308076.90647   6471120.52045  22720051.6644   22720047.4344      -1676.0194
        45.0004         33.5004
  -4853558.66848  -3751378.36346  21418287.8134   21418283.5004       2626.9784
        49.0004         40.2504
  -6835561.98447  -5291736.36745  23027038.2424   23027036.0554       3290.4674
        45.5004         33.0004
  -5490663.83247  -4237104.32045  22345830.1884   22345827.2624       2219.7864
        45.2504         33.0004
  -8230886.10547  -6398233.33645  22109002.4064   22109000.4654       3387.6674
        45.0004         33.2504
  -3837310.93748  -2965195.64547  20244053.7424   20244048.9224       2057.2034
        49.5004         42.2504
   2801118.21946   2213250.48443  24606821.3134   24606821.9574       4883.8374
        39.2504         18.5004
   2109330.84448   1654912.19946  20772726.5394   20772720.8484        130.7914
        49.2504         40.5004
  -5094290.24247  -3927956.60245  23147261.5554   23147261.0434       2344.1444
        43.2504         31.2504
  11517906.87147   8959775.19944  24090905.9304   24090906.2854      -2074.7114
        42.0004         25.0004
 14  5 29 18 15  0.0000000  0 11G19G16G07G08G10G03G13G28G23G27G20
  -7134355.62547  -5507985.34844  23494650.1484   23494648.4844       4011.0194
        42.5004         28.7504
   8358568.49247   6510464.55545  22729659.8754   22729656.1644      -1683.0534
        46.0004         33.0004
  -4932275.39548  -3812716.05546  21403308.4774   21403304.1684       2623.8914
        49.2504         39.7504
  -6934222.59847  -5368614.73845  23008263.8364   23008261.0514       3288.6874
        46.2504         32.5004
  -5556759.52747  -4288607.48445  22333252.3364   22333249.6564       2203.1904
        45.5004         34.0004
  -8332136.25447  -6477129.52745  22089735.5784   22089733.3404       3375.0054
        46.0004         33.0004
  -3898711.81648  -3013040.49647  20232369.8914   20232364.8954       2046.6964
        48.0004         42.0004
   2654660.62946   2099127.79343  24578950.0314   24578952.2274       4881.9204
        39.0004         19.0004
   2105765.13348   1652133.68846  20772047.5944   20772041.8164        118.8574
        49.0004         40.7504
  -5164200.87547  -3982432.40245  23133958.3054   23133957.5904       2330.3544
        43.0004         31.0004
  11580064.44547   9008209.37144  24102733.8984   24102735.0164      -2071.9194
        42.2504         25.2504
 14  5 29 18 15 30.0000000  0 11G19G16G07G08G10G03G13G28G23G27G20
  -7254519.08647  -5601619.08644  23471783.5234   23471781.6174       4005.4494
        42.2504         28.7504
   8409272.38347   6549974.01645  22739308.9384   22739304.7464      -1690.1304
        45.7504         32.5004
  -5010895.78548  -3873978.69946  21388347.4224   21388343.6884       2620.6804
        49.2504         40.0004
  -7032826.25847  -5445448.73845  22989500.2034   22989497.3634       3286.7894
        45.2504         32.5004
  -5622352.26247  -4339718.72745  22320770.5394   22320767.3714       2186.4244
        46.5004         33.7504
  -8432999.44947  -6555724.25045  22070541.4064   22070539.8754       3362.1074
        45.2504         32.7504
  -3959791.44948  -3060635.03147  20220746.4304   20220741.7814       2035.9884
        48.2504         42.0004
   2508267.07446   1985055.07443  24551093.0004   24551094.3794       4879.7854
        38.7504         19.0004
   2102561.88348   1649637.62146  20771438.0634   20771432.4574        106.7754
        49.0004         40.2504
  -5233691.68747  -4036581.07045  23120734.2584   23120733.6174       2316.3604
        43.7504         31.5004
  11642139.64546   9056579.30143  24114546.8284   24114547.6214      -2069.1734
        41.5004         23.5004
 14  5 29 18 16  0.0000000  0 11G19G16G07G08G10G03G13G28G23G27G20
  -7374518.94946  -5695125.33244  23448948.1564   23448945.8954       3999.9954
        41.0004         28.0004
   8460178.47747   6589641.04345  22748995.8674   22748992.0664      -1696.8704
        46.0004         32.0004
  -5089427.03948  -3935171.87546  21373403.4774   21373399.2624       2617.7084
        49.7504         40.2504
  -7131380.21547  -5522244.00045  22970746.2734   22970743.5554       3285.1324
        46.5004         33.7504
  -5687448.18747  -4390442.84045  22308383.5004   22308380.4734       2169.8644
        45.5004         34.5004
  -8533479.93747  -6634020.70345  22051421.2344   22051418.7424       3349.3504
        46.2504         33.5004
  -4020554.85548  -3107983.14846  20209183.5554   20209178.5354       2025.4474
        49.2504         41.7504
   2361932.74646   1871028.45343  24523246.5394   24523247.2304       4877.8114
        40.2504         20.0004
   2099714.37148   1647418.75446  20770896.5634   20770890.5004         94.9174
        50.2504         40.2504
  -5302767.75447  -4090406.55145  23107589.0944   23107589.5394       2302.5364
        44.2504         31.0004
  11704123.34446   9104877.97343  24126341.8834   24126343.1374      -2066.1234
        40.5004         22.5004
 14  5 29 18 16 30.0000000  0 11G19G16G07G08G10G03G13G28G23G27G20
  -7494349.74247  -5788499.84844  23426145.2114   23426142.9384       3994.3604
        42.0004         27.5004
   8511286.90247   6629465.73045  22758721.3754   22758717.5044      -1703.6144
        46.0004         31.5004
  -5167867.10948  -3996293.99246  21358476.5784   21358472.1764       2614.6694
        49.0004         40.0004
  -7229882.16847  -5598998.75045  22952001.3284   22951999.0084       3283.3984
        47.0004         33.5004
  -5752044.62147  -4440777.74645  22296091.1484   22296088.2194       2153.2144
        46.0004         33.5004
  -8633572.52747  -6712014.89845  22032374.3204   22032371.3634       3336.4204
        46.5004         33.2504
  -4080997.99648  -3155081.71146  20197681.6804   20197676.4844       2014.7714
        48.5004         41.0004
   2215661.84846   1757051.26643  24495411.0314   24495412.5514       4875.6974
        39.0004         19.0004
   2097225.03948   1645478.98446  20770422.9224   20770416.9454         82.9784
        49.7504         41.0004
  -5371424.86747  -4143905.58245  23094523.8364   23094523.9654       2288.5704
        42.7504         31.2504
  11766015.27346   9153105.11744  24138120.4224   24138120.9734      -2063.0644
        39.7504         24.2504
 14  5 29 18 17  0.0000000  0 11G19G16G07G08G10G03G13G28G23G27G20
  -7614011.71146  -5881742.79744  23403374.3444   23403371.7704       3988.7324
        41.2504         27.7504
   8562590.53547   6669442.51645  22768484.3134   22768480.6954      -1710.1214
        46.2504         32.2504
  -5246220.35548  -4057348.46546  21343566.7114   21343562.3874       2611.7754
        49.5004         39.7504
  -7328336.69947  -5675716.53145  22933266.1334   22933264.4494       3281.8184
        45.2504         33.7504
  -5816145.34847  -4490726.37945  22283893.0314   22283890.3134       2136.6914
        45.2504         34.0004
  -8733278.36747  -6789707.72345  22013400.5164   22013398.4804       3323.5284
        45.2504         33.2504
  -4141123.82848  -3201933.02747  20186239.7814   20186235.0084       2004.1944
        49.5004         42.0004
   2069452.54746   1643122.14843  24467587.1644   24467590.6994       4873.6434
        36.7504         19.0004
   2095089.98048   1643815.27746  20770016.6254   20770010.6454         71.1694
        49.2504         40.7504
  -5439665.27347  -4197079.93445  23081538.3134   23081538.1724       2274.6804
        43.5004         31.5004
  11827808.82846   9201255.60243  24149879.7974   24149880.0204      -2059.7854
        41.5004         22.7504
 14  5 29 18 17 30.0000000  0 11G19G16G07G08G10G03G13G28G23G27G20
  -7733495.56246  -5974846.95344  23380637.6484   23380634.3714       3982.7954
        41.5004         28.7504
   8614092.56647   6709573.89845  22778284.7344   22778280.8284      -1716.7344
        45.7504         31.7504
  -5324480.80948  -4118330.61346  21328673.9144   21328669.6254       2608.6824
        49.7504         39.5004
  -7426738.12147  -5752392.93045  22914540.9774   22914538.6844       3280.0474
        46.5004         34.2504
  -5879743.80947  -4540283.64145  22271791.0474   22271787.7114       2119.9494
        46.2504         33.7504
  -8832588.59847  -6867092.28545  21994502.5234   21994500.2304       3310.3414
        47.0004         33.5004
  -4200924.46148  -3248530.93447  20174860.1644   20174855.0784       1993.3544
        48.0004         42.0004
   1923312.93446   1529247.34443  24439779.2274   24439780.5744       4871.3204
        39.0004         20.5004
   2093315.42648   1642432.47746  20769678.7424   20769673.0394         59.1524
        49.0004         40.2504
  -5507481.21947  -4249923.48845  23068633.8364   23068633.5394       2260.5324
        44.0004         31.5004
  11889507.53546   9249332.19943  24161619.5234   24161621.0704      -2056.6244
        39.5004         22.5004
 14  5 29 18 18  0.0000000  0 11G19G16G07G08G10G03G13G28G23G27G20
  -7852801.03147  -6067812.10544  23357934.3364   23357930.9064       3976.8494
        42.7504         28.5004
   8665786.98047   6749855.19945  22788122.3284   22788117.8674      -1723.1474
        46.0004         31.0004
  -5402651.83248  -4179243.09446  21313798.6414   21313794.2234       2605.7014
        49.7504         39.5004
  -7525089.80547  -5829030.55545  22895825.2974   22895823.0744       3278.3894
        46.5004         33.5004
  -5942842.62547  -4589451.56645  22259783.1644   22259780.3284       2103.2944
        46.0004         34.2504
  -8931503.25447  -6944168.61745  21975679.6174   21975677.3794       3297.1554
        47.0004         33.7504
  -4260401.39848  -3294876.61347  20163542.3204   20163537.4384       1982.5654
        48.7504         42.0004
   1777241.80946   1415425.86743  24411981.9694   24411983.5704       4869.0384
        38.5004         19.5004
   2091898.47748   1641328.33646  20769409.1414   20769403.0944         47.2324
        50.0004         40.2504
  -5574874.00847  -4302437.35545  23055809.8134   23055809.1914       2246.4264
        45.0004         31.5004
  11951105.81646   9297330.48843  24173342.8284   24173344.0124      -2053.2764
        38.5004         22.5004
 14  5 29 18 18 30.0000000  0 11G19G16G07G08G10G03G13G28G23G27G20
  -7971920.50047  -6160632.36744  23335266.4304   23335263.7154       3970.6494
        42.5004         29.0004
   8717675.21947   6790287.52045  22797995.9304   22797991.7464      -1729.6084
        45.2504         31.5004
  -5480729.69948  -4240082.99246  21298941.1174   21298936.6954       2602.5964
        49.7504         39.7504
  -7623387.71147  -5905626.29345  22877119.9224   22877117.7074       3276.5974
        46.5004         33.5004
  -6005436.98047  -4638226.40645  22247872.0234   22247869.0004       2086.4794
        46.5004         34.0004
  -9030015.24647  -7020931.17245  21956933.1094   21956930.9304       3283.7334
        46.2504         33.5004
  -4319548.46548  -3340965.25047  20152286.9384   20152282.3204       1971.5694
        48.5004         42.2504
   1631245.99646   1301663.07843  24384199.2424   24384201.5864       4866.5274
        38.0004         20.0004
   2090843.44548   1640506.20346  20769208.6414   20769202.5204         35.1684
        49.7504         40.7504
  -5641837.52047  -4354616.70745  23043067.2114   23043066.4614       2232.1174
        44.0004         30.7504
  12012605.97746   9345252.37943  24185045.8674   24185047.3524      -2050.0054
        40.0004         22.5004
 14  5 29 18 19  0.0000000  0 11G19G16G07G08G10G03G13G28G23G27G20
  -8090850.23047  -6253304.72744  23312634.6724   23312631.5044       3964.3244
        43.5004         28.7504
   8769754.53947   6830868.75045  22807906.1254   22807902.3524      -1735.9774
        46.0004         30.7504
  -5558714.28548  -4300850.19146  21284100.9224   21284096.6024       2599.4864
        49.0004         39.2504
  -7721632.08647  -5982180.31245  22858424.5314   22858422.3284       3274.8134
        46.0004         34.0004
  -6067526.55947  -4686607.91845  22236056.8914   22236053.8914       2069.6534
        45.7504         34.0004
  -9128121.50447  -7097377.57045  21938264.3284   21938261.6724       3270.2094
        47.5004         33.5004
  -4378364.10248  -3386795.63346  20141094.5164   20141089.9734       1960.5214
        48.7504         41.5004
   1485327.71946   1187960.71543  24356432.1094   24356433.7194       4863.9434
        38.2504         20.0004
   2090150.27748   1639966.05146  20769076.7114   20769070.7074         23.1064
        49.7504         40.7504
  -5708369.93047  -4406460.15245  23030405.6414   23030405.3284       2217.7474
        44.7504         30.7504
  12074004.65246   9393095.17643  24196728.5784   24196730.6844      -2046.6234
        39.2504         22.5004
 14  5 29 18 19 30.0000000  0 11G19G16G07G08G10G03G13G28G23G27G20
  -8209587.71147  -6345827.30544  23290039.8134   23290036.8324       3957.9164
        42.5004         29.5004
   8822021.79747   6871596.41845  22817853.0164   22817848.5434      -1742.2424
        45.7504         30.0004
  -5636606.53947  -4361545.44146  21269278.7584   21269274.5864       2596.4084
        47.0004         40.5004
  -7819823.98447  -6058693.44545  22839739.2424   22839736.9184       3273.0634
        46.2504         34.0004
  -6129111.51647  -4734596.20745  22224337.2114   22224334.8874       2052.8324
        44.5004         33.5004
  -9225819.94547  -7173506.18745  21919672.7194   21919670.1844       3256.6154
        46.5004         33.2504
  -4436847.39547  -3432367.04746  20129965.5784   20129961.0664       1949.4434
        47.2504         41.7504
   1339487.78946   1074319.41443  24328679.2664   24328680.8984       4861.3314
        38.7504         20.2504
   2089818.65648   1639707.61746  20769013.6954   20769007.7304         11.0544
        50.2504         40.7504
  -5774470.24647  -4457966.89145  23017827.2974   23017827.2154       2203.3444
        43.5004         31.2504
  12135298.93446   9440856.59443  24208393.5864   24208395.9924      -2043.1434
        38.5004         22.5004
 14  5 29 18 20  0.0000000  0 11G19G16G07G08G10G03G13G28G23G27G20
  -8328134.96547  -6438201.64144  23267480.1804   23267478.3444       3951.5754
        42.5004         29.2504
   8874467.95747   6912463.48845  22827832.3594   22827829.0004      -1748.2054
        45.0004         30.2504
  -5714412.19148  -4422173.21146  21254472.5164   21254468.2734       2593.5224
        48.7504         40.2504
  -7917969.25847  -6135170.24245  22821062.5864   22821060.4184       3271.5094
        45.0004         33.7504
  -6190196.93447  -4782195.25045  22212713.1094   22212710.4534       2036.1814
        45.2504         34.0004
  -9323113.27747  -7249319.12945  21901158.3984   21901156.4844       3243.1114
        45.2504         34.0004
  -4495002.38348  -3477682.64146  20118899.2584   20118894.1644       1938.5004
        48.0004         41.5004
   1193723.14146    960736.77043  24300941.5864   24300943.6914       4858.8224
        40.2504         21.7504
   2089843.23048   1639726.73046  20769018.3054   20769012.5044         -0.8194
        49.0004         40.5004
  -5840142.29747  -4509139.89845  23005330.5234   23005330.1134       2189.0684
        43.5004         31.5004
  12196480.96946   9488530.53943  24220037.0554   24220038.5274      -2039.4014
        39.7504         22.5004
 14  5 29 18 20 30.0000000  0 11G19G16G07G08G10G03G13G28G23G27G20
  -8446483.80547  -6530421.40645  23244959.6024   23244956.9734       3944.9614
        42.5004         30.2504
   8927095.29347   6953471.73845  22837847.7734   22837843.4144      -1754.2454
        44.5004         30.5004
  -5792126.70748  -4482729.97346  21239684.2344   21239679.8524       2590.4844
        49.0004         40.7504
  -8016063.48847  -6211607.26245  22802395.8054   22802393.9614       3269.8084
        46.0004         34.0004
  -6250777.75447  -4829401.10245  22201185.4694   22201182.2584       2019.3614
        44.5004         34.2504
  -9419993.93047  -7324810.52045  21882722.7974   21882720.0864       3229.3554
        47.0004         34.0004
  -4552822.41447  -3522737.22347  20107896.2814   20107891.6024       1927.3344
        46.5004         42.2504
   1048040.62146    847218.09443  24273219.2274   24273220.2974       4856.0844
        40.2504         20.7504
   2090228.68848   1640027.05546  20769091.3284   20769085.2664        -12.8494
        49.0004         40.7504
  -5905379.61347  -4559974.18445  22992916.6174   22992915.6414       2174.5774
        43.5004         31.5004
  12257552.93446   9536118.77043  24231659.2974   24231660.5274      -2035.7324
        40.2504         21.7504
 14  5 29 18 21  0.0000000  0 11G19G16G07G08G10G03G13G28G23G27G20
  -8564634.60947  -6622486.81645  23222476.2584   23222473.3134       3938.3604
        43.5004         30.0004
   8979897.12147   6994615.95745  22847895.4144   22847891.5904      -1760.0614
        45.0004         30.5004
  -5869754.21948  -4543218.93746  21224911.9384   21224907.6484       2587.5844
        49.0004         41.0004
  -8114110.77347  -6288007.69545  22783737.9224   22783736.1914       3268.2434
        47.0004         34.0004
  -6310857.53547  -4876216.52745  22189752.5394   22189749.6134       2002.6594
        45.7504         34.2504
  -9516463.28548  -7399981.39145  21864365.6334   21864362.5394       3215.6454
        48.0004         34.2504
  -4610309.78548  -3567532.59446  20096957.0554   20096952.3404       1916.2464
        48.0004         41.7504
    902438.73846    733762.20743  24245512.0864   24245513.1214       4853.3964
        40.2504         20.7504
   2090971.19148   1640605.59846  20769233.0234   20769226.9064        -24.7504
        50.5004         40.2504
  -5970184.27347  -4610471.32045  22980584.5234   22980584.1134       2160.1554
        44.0004         31.7504
  12318508.88746   9583616.55943  24243257.7974   24243259.8754      -2031.8654
        40.0004         22.0004
 14  5 29 18 21 30.0000000  0 11G19G16G07G08G10G03G13G28G23G27G20
  -8682580.14147  -6714392.29744  23200031.9614   23200028.3204       3931.5184
        43.5004         29.7504
   9032874.61347   7035897.05145  22857976.9844   22857972.6684      -1765.9164
        45.0004         30.2504
  -5947290.88348  -4603637.10946  21210157.4614   21210153.3554       2584.5554
        48.7504         40.7504
  -8212107.50047  -6364368.73845  22765089.9924   22765087.7814       3266.5584
        44.0004         33.5004
  -6370432.31247  -4922638.44545  22178415.5704   22178412.7274       1985.8264
        46.5004         34.5004
  -9612514.64547  -7474826.57845  21846087.3284   21846084.3404       3201.7124
        45.0004         33.5004
  -4667459.15248  -3612064.59046  20086081.5944   20086077.0234       1904.9794
        48.2504         41.2504
    756923.19546    620373.62943  24217820.7814   24217822.1884       4850.5184
        38.5004         21.5004
   2092074.79748   1641465.51246  20769442.8754   20769437.1644        -36.7874
        49.2504         40.2504
  -6034550.80547  -4660627.07045  22968336.1334   22968335.1484       2145.5514
        44.2504         32.0004
  12379350.09446   9631024.94543  24254836.3364   24254838.1454      -2028.0404
        40.2504         22.0004
 14  5 29 18 22  0.0000000  0 11G19G16G07G08G10G03G13G28G23G27G20
  -8800317.63347  -6806135.68044  23177626.7894   23177624.5234       3924.5834
        42.5004         29.5004
   9086024.22747   7077312.27745  22868090.6884   22868086.9494      -1771.6544
        44.2504         30.7504
  -6024737.91048  -4663985.43046  21195419.9614   21195415.5704       2581.5684
        49.5004         40.2504
  -8310054.84047  -6440691.30545  22746451.2584   22746449.2584       3264.9114
        46.7504         34.2504
  -6429502.42247  -4968667.12145  22167175.0004   22167172.4104       1969.0044
        46.2504         34.7504
  -9708145.59847  -7549344.15245  21827889.0004   21827886.6484       3187.6984
        47.5004         33.7504
  -4724269.71947  -3656332.57847  20075271.2034   20075266.3444       1893.6864
        47.5004         42.2504
    611495.10246    507053.18443  24190146.3054   24190148.2194       4847.6034
        38.5004         21.5004
   2093538.84048   1642606.28946  20769721.6954   20769715.8204        -48.8014
        48.7504         40.2504
  -6098478.42247  -4710440.79745  22956171.0864   22956170.6024       2130.9214
        44.5004         32.0004
  12440072.92646   9678341.07443  24266392.1884   24266393.6484      -2024.0944
        39.5004         22.5004
 14  5 29 18 22 30.0000000  0 11G19G16G07G08G10G03G13G28G23G27G20
  -8917835.78147  -6897708.16845  23155263.6254   23155261.4144       3917.2724
        43.0004         30.2504
   9139351.25047   7118865.75045  22878237.9924   22878234.8594      -1777.5674
        44.5004         30.2504
  -6102087.30548  -4724257.68046  21180700.5864   21180695.9694       2578.3134
        48.2504         40.0004
  -8407945.22747  -6516969.48445  22727823.2504   22727821.0274       3263.0134
        47.0004         34.2504
  -6488059.71147  -5014296.19945  22156032.1174   22156029.3554       1951.9104
        44.5004         34.5004
  -9803345.84448  -7623526.11745  21809773.6804   21809771.2114       3173.3424
        48.0004         34.0004
  -4780731.96947  -3700329.16046  20064526.9304   20064522.0274       1882.0754
        46.5004         41.5004
    466164.85246    393808.95343  24162491.8984   24162492.0944       4844.3424
        39.7504         20.5004
   2095371.11748   1644034.00446  20770070.5474   20770064.6174        -61.0764
        50.2504         40.7504
  -6161957.46547  -4759904.99645  22944091.2584   22944090.6764       2115.9684
        44.5004         31.5004
  12500683.43846   9725569.75443  24277925.9224   24277928.2584      -2020.3504
        39.0004         21.5004
 14  5 29 18 23  0.0000000  0 11G19G16G07G08G10G03G13G28G23G27G20
  -9035144.96947  -6989117.79745  23132940.5004   23132937.6174       3910.3064
        43.5004         30.7504
   9192838.55147   7160544.09044  22888417.1644   22888413.0944      -1782.9104
        44.0004         29.5004
  -6179352.91448  -4784464.64146  21165997.0164   21165993.0084       2575.5204
        48.7504         40.7504
  -8505792.34047  -6593213.95345  22709203.5864   22709201.2234       3261.5704
        46.5004         33.7504
  -6546117.63747  -5059536.16845  22144983.9454   22144981.4734       1935.2644
        47.2504         34.5004
  -9898126.50447  -7697381.14545  21791737.1094   21791734.3554       3159.3554
        47.7504         34.0004
  -4836857.87148  -3744063.64846  20053846.2114   20053841.1954       1870.8634
        49.0004         41.5004
    320920.75446    280631.86343  24134852.2894   24134853.0204       4841.4704
        38.2504         21.5004
   2097558.09048   1645738.09846  20770486.5004   20770480.5354        -72.8994
        50.0004         40.5004
  -6224999.98447  -4809029.05145  22932094.5554   22932093.8714       2101.4174
        45.0004         31.5004
  12561165.33646   9772698.16443  24289435.0004   24289438.0944      -2016.0634
        39.0004         22.0004
 14  5 29 18 23 30.0000000  0 11G19G16G07G08G10G03G13G28G23G27G20
  -9152239.37947  -7080360.08245  23110658.2814   23110655.3794       3903.1474
        44.0004         30.0004
   9246486.50447   7202347.63744  22898625.8524   22898622.4414      -1788.2654
        44.2504         29.5004
  -6256532.62948  -4844604.67246  21151310.5634   21151306.2304       2572.6574
        48.5004         40.0004
  -8603594.23047  -6669423.18045  22690592.7734   22690590.1844       3260.0634
        47.5004         33.5004
  -6603673.44547  -5104384.87145  22134031.4844   22134028.4614       1918.5274
        46.7504         34.0004
  -9992481.89147  -7770904.77345  21773781.9064   21773778.9964       3145.1804
        47.2504         34.5004
  -4892643.34848  -3787532.87146  20043230.6644   20043226.1684       1859.5164
        49.2504         41.7504
    175767.40646    167525.47743  24107230.7344   24107230.9734       4838.4454
        40.2504         21.5004
   2100101.95348   1647720.28546  20770970.4614   20770964.4884        -84.7954
        50.0004         40.2504
  -6287602.10247  -4857809.90645  22920182.2584   22920181.3284       2086.7374
        44.5004         32.2504
  12621518.50046   9819726.28143  24300919.1334   24300922.8164      -2011.7724
        37.0004         22.2504
 14  5 29 18 24  0.0000000  0 11G19G16G07G08G10G03G13G28G23G27G20
  -9269116.91847  -7171433.39145  23088416.6024   23088413.9414       3895.9184
        43.0004         30.5004
   9300290.59847   7244272.84044  22908864.7424   22908860.4804      -1793.4704
        43.0004         29.0004
  -6333628.09048  -4904679.04346  21136639.8594   21136635.5784       2569.8494
        48.2504         40.7504
  -8701352.93047  -6745598.75845  22671989.5784   22671987.2624       3258.6234
        47.5004         33.2504
  -6660728.58647  -5148843.43745  22123174.7194   22123171.9064       1901.8384
        47.5004         34.0004
 -10086411.18747  -7844096.38345  21755907.6884   21755904.9694       3130.9774
        47.5004         34.2504
  -4948088.65648  -3830737.02747  20032679.9224   20032674.8444       1848.1774
        49.2504         42.5004
     30704.93846     54489.84043  24079625.5864   24079626.8524       4835.4164
        39.7504         21.5004
   2103001.05948   1649979.27046  20771522.3674   20771516.5204        -96.6374
        51.0004         39.7504
  -6349763.80147  -4906247.59845  22908353.1414   22908352.6724       2072.0574
        45.2504         32.2504
  12681739.16845   9866651.11343  24312378.4924   24312382.0004      -2007.3564
        35.7504         21.5004
 14  5 29 18 24 30.0000000  0 11G19G16G07G08G10G03G13G28G23G27G20
  -7810344.19947  -6034727.28545  23366012.4774   23366009.8324       3888.2434
        44.5004         31.0004
  10929672.48447   8513921.00044  23218924.9384   23218921.5864      -1798.7304
        44.0004         29.2504
  -4835210.73848  -3737081.09446  21421779.1724   21421774.9534       2566.7554
        48.5004         40.5004
  -7223639.16447  -5594133.44945  22953189.3754   22953186.5824       3256.8744
        47.0004         33.5004
  -5141854.61347  -3965305.30545  22412206.4924   22412203.5274       1884.8684
        46.5004         34.5004
  -8604482.12947  -6689346.43445  22037909.5864   22037906.7424       3116.3654
        47.5004         34.7504
  -3427764.10248  -2646068.56647  20321988.2664   20321982.8524       1836.5154
        48.2504         42.2504
   1461166.82446   1169135.56343  24351833.3754   24351834.5634       4831.9374
        38.7504         21.7504
   3681681.75848   2880120.02746  21071935.2734   21071929.1914       -108.6904
        49.5004         40.0004
  -4836055.15647  -3726734.38345  23196402.3754   23196401.8554       2057.0454
        45.5004         31.5004
  14317249.31346  11141074.24243  24623607.1644   24623609.8014      -2003.0054
        37.0004         22.0004
 14  5 29 18 25  0.0000000  0 11G19G16G07G08G10G03G13G28G23G27G20
  -7926766.79347  -6125446.09045  23343857.5314   23343854.4924       3880.7534
        44.2504         30.5004
  10983791.55547   8556091.64545  23229224.2664   23229220.5124      -1803.9694
        44.2504         30.0004
  -4912126.77047  -3797015.66446  21407142.4304   21407137.9734       2563.8684
        47.7504         40.5004
  -7321300.70347  -5670233.32045  22934604.9844   22934602.3244       3255.3854
        47.0004         33.7504
  -5197896.52747  -4008974.34845  22401542.1174   22401539.0394       1868.0644
        47.2504         35.2504
  -8697539.68747  -6761858.75045  22020201.0164   22020198.0904       3101.9194
        46.7504         34.7504
  -3482512.96148  -2688730.03147  20311569.8054   20311564.6684       1824.9624
        49.2504         42.0004
   1316304.32446   1056255.81643  24324267.5314   24324268.1334       4828.7504
        39.7504         20.7504
   3685303.17248   2882941.85546  21072624.3834   21072618.8634       -120.7144
        49.7504         39.7504
  -4897319.98447  -3774473.20345  23184744.1724   23184743.1764       2042.1614
        44.5004         31.7504
  14377208.97746  11187795.73843  24635018.3674   24635020.0634      -1998.6554
        38.5004         21.5004
 14  5 29 18 25 30.0000000  0 11G19G16G07G08G10G03G13G28G23G27G20
  -8042955.00047  -6215982.26245  23321748.2504   23321744.9614       3872.9404
        44.5004         31.0004
  11038065.94147   8598383.30545  23239552.4384   23239548.1334      -1809.1464
        44.5004         30.2504
  -4988951.80948  -3856879.32046  21392523.0704   21392518.8404       2560.8354
        48.2504         40.2504
  -7418912.22747  -5746294.21945  22916029.6724   22916027.1684       3253.7174
        47.2504         33.2504
  -5253430.04747  -4052247.24645  22390974.3914   22390971.0204       1851.1174
        46.5004         34.5004
  -8790155.63748  -6834026.97745  22002576.4694   22002574.0594       3087.1984
        48.0004         34.7504
  -3536909.34448  -2731116.84046  20301218.7504   20301213.2624       1813.2134
        48.7504         41.2504
   1171546.59446    943457.65243  24296720.6884   24296721.7624       4825.2584
        39.5004         20.7504
   3689287.14848   2886046.19146  21073382.5004   21073376.6994       -132.7994
        49.7504         39.5004
  -4958132.40247  -3821859.50445  23173171.5004   23173170.4694       2027.0814
        45.7504         32.0004
  14437036.19146  11234413.99243  24646403.1484   24646405.8954      -1994.2404
        39.7504         22.0004
 14  5 29 18 26  0.0000000  0 11G19G16G07G08G10G03G13G28G23G27G20
  -8158910.89847  -6306337.42245  23299682.0704   23299679.1174       3865.1974
        43.7504         30.7504
  11092487.34047   8640789.52345  23249909.4224   23249904.8444      -1814.0474
        45.7504         30.5004
  -5065691.42648  -3916676.41046  21377920.0554   21377915.7424       2557.9874
        48.7504         40.0004
  -7516479.50447  -5822320.63345  22897463.0864   22897460.7774       3252.2434
        47.0004         33.0004
  -5308460.31647  -4095128.00445  22380502.5784   22380499.8364       1834.3424
        47.0004         33.7504
  -8882332.82448  -6905853.29745  21985035.7814   21985033.2304       3072.5734
        48.5004         34.0004
  -3590957.18448  -2773232.05547  20290933.3984   20290928.5314       1801.5954
        48.5004         42.0004
   1026890.23447    830738.50043  24269194.0944   24269194.2114       4821.8794
        42.0004         21.5004
   3693628.43048   2889428.94546  21074208.7814   21074203.1484       -144.7094
        50.0004         39.2504
  -5018496.34047  -3868896.34445  23161684.6094   23161683.9694       2012.1314
        45.0004         31.5004
  14496723.34846  11280923.12943  24657762.5864   24657764.3204      -1989.5724
        41.2504         22.5004
 14  5 29 18 26 30.0000000  0 11G19G16G07G08G10G03G13G28G23G27G20
  -8274627.36747  -6396506.02745  23277661.8204   23277658.5204       3857.2164
        43.5004         31.0004
  11147056.94547   8683311.22745  23260293.0084   23260289.0944      -1818.9874
        45.0004         30.0004
  -5142341.79348  -3976403.95746  21363333.9614   21363329.7544       2555.0124
        48.7504         40.5004
  -7613999.09447  -5898309.89145  22878906.0314   22878903.3594       3250.6534
        46.7504         33.0004
  -5362983.59847  -4137613.69945  22370126.7274   22370124.2424       1817.4434
        45.7504         34.5004
  -8974064.86347  -6977332.76645  21967579.7734   21967577.4384       3057.7354
        47.7504         34.7504
  -3644651.24648  -2815071.59846  20280715.4534   20280710.9304       1789.8024
        49.5004         41.7504
    882340.96546    718102.75843  24241686.4924   24241686.9184       4818.3094
        39.5004         20.7504
   3698330.52048   2893092.85546  21075102.9384   21075097.6954       -156.7364
        49.2504         39.5004
  -5078406.62947  -3915579.69945  23150284.5704   23150283.8014       1997.0104
        45.5004         32.5004
  14556271.81346  11327324.21943  24669093.9694   24669095.9804      -1984.9494
        41.2504         22.7504
 14  5 29 18 27  0.0000000  0 11G19G16G07G08G10G03G13G28G23G27G20
  -8390104.44947  -6486488.09445  23255687.1414   23255684.5824       3849.2364
        43.7504         31.2504
  11201768.53547   8725943.57045  23270704.0944   23270700.4614      -1823.7204
        44.7504         30.5004
  -5218906.52347  -4036064.78546  21348763.9844   21348759.4654       2552.1584
        47.7504         40.5004
  -7711474.77747  -5974264.94145  22860356.6024   22860354.2154       3249.1894
        47.0004         33.2504
  -5417003.21147  -4179706.93045  22359847.3594   22359844.7194       1800.6544
        46.5004         33.7504
  -9065352.58247  -7048465.98845  21950208.1724   21950205.4144       3042.9244
        47.0004         35.0004
  -3697993.61348  -2856637.08646  20270565.0314   20270560.4964       1778.0794
        48.5004         41.5004
    737897.60946    605549.62143  24214198.7424   24214200.4144       4814.7794
        39.2504         20.7504
   3703389.93848   2897035.19946  21076066.0394   21076060.7934       -168.6474
        49.5004         39.2504
  -5137865.24247  -3961911.08245  23138969.8754   23138969.0554       1981.9544
        45.0004         31.5004
  14615675.58646  11373612.55143  24680398.3134   24680400.4104      -1980.1264
        41.5004         22.7504
 14  5 29 18 27 30.0000000  0 11G19G16G07G08G10G03G13G28G23G27G20
  -8505333.54747  -6576276.94145  23233759.9454   23233756.7074       3840.9704
        43.5004         30.7504
  11256624.33647   8768688.28944  23281142.4224   23281138.9414      -1828.5274
        45.0004         29.2504
  -5295380.69148  -4095655.03146  21334211.5234   21334207.2234       2549.1394
        48.7504         40.5004
  -7808901.71547  -6050181.99645  22841817.3054   22841814.5824       3247.5654
        46.2504         32.7504
  -5470514.09047  -4221403.73845  22349664.6024   22349661.8634       1783.6964
        47.0004         34.2504
  -9156188.44148  -7119247.13345  21932922.6804   21932920.2304       3027.8624
        48.7504         34.0004
  -3750977.31248  -2897923.10246  20260482.8754   20260477.7154       1766.1234
        49.0004         41.5004
    593567.42246    493084.62943  24186734.1954   24186735.0824       4811.0064
        39.7504         20.7504
   3708811.55948   2901259.76246  21077098.1564   21077092.3134       -180.7214
        49.5004         39.0004
  -5196865.67247  -4007885.44145  23127742.4064   23127741.4104       1966.6814
        45.5004         32.0004
  14674937.91046  11419790.65243  24691675.7424   24691678.1564      -1975.4114
        40.5004         21.2504
 14  5 29 18 28  0.0000000  0 11G19G16G07G08G10G03G13G28G23G27G20
  -8620315.54347  -6665873.22745  23211879.3134   23211877.1914       3832.7334
        42.2504         31.0004
  11311617.77747   8811540.25044  23291607.7274   23291604.2154      -1833.1154
        44.5004         28.5004
  -5371768.46948  -4155177.96546  21319675.5004   21319671.3404       2546.2594
        48.7504         40.2504
  -7906284.25447  -6126064.44145  22823285.8204   22823283.2274       3246.0854
        46.5004         33.0004
  -5523520.30947  -4262707.30545  22339577.9924   22339575.3134       1766.8744
        46.0004         34.0004
  -9246573.93048  -7189677.34445  21915722.9224   21915719.7304       3012.8504
        48.0004         34.2504
  -3803605.16048  -2938931.82046  20250468.0394   20250463.1804       1754.2624
        49.0004         41.5004
    449348.12946    380706.08643  24159290.7664   24159290.8984       4807.3104
        40.2504         22.2504
   3714591.54748   2905763.58246  21078197.6484   21078192.3554       -192.6664
        50.0004         39.0004
  -5255410.57847  -4053504.86345  23116601.6174   23116600.8834       1951.4974
        45.0004         32.0004
  14734051.84046  11465853.15243  24702924.1024   24702927.1134      -1970.4644
        40.0004         21.5004
 14  5 29 18 28 30.0000000  0 11G19G16G07G08G10G03G13G28G23G27G20
  -8735050.61746  -6755277.12145  23190045.4534   23190043.2854       3824.5024
        41.7504         31.2504
  11366742.28547   8854494.34444  23302097.2504   23302094.0784      -1837.4844
        45.0004         28.5004
  -5448073.68048  -4214636.56646  21305155.1644   21305150.5164       2543.5074
        49.0004         40.5004
  -8003626.12947  -6201915.21545  22804762.2274   22804759.3594       3244.7294
        46.7504         32.7504
  -5576025.68747  -4303620.61345  22329586.9304   22329584.0004       1750.1794
        47.7504         34.5004
  -9336510.06248  -7259757.38745  21898608.3754   21898605.6884       2997.8714
        48.2504         34.0004
  -3855879.34047  -2979664.95747  20240520.2894   20240515.6054       1742.4734
        47.5004         42.0004
    305238.10546    268412.66843  24131866.6724   24131867.8954       4803.6674
        40.7504         21.5004
   3720725.52748   2910543.22746  21079365.5554   21079359.7704       -204.4664
        49.5004         39.2504
  -5313502.41447  -4098771.23445  23105546.3834   23105546.2774       1936.3954
        44.7504         32.0004
  14793011.58646  11511795.50843  24714143.6414   24714147.0784      -1965.3254
        39.0004         22.0004
 14  5 29 18 29  0.0000000  0 11G19G16G07G08G10G03G13G28G23G27G20
  -8849533.82046  -6844484.73045  23168260.9454   23168257.3634       3816.1074
        41.5004         30.7504
  11421996.87547   8897549.79744  23312611.9304   23312608.1764      -1841.8204
        44.5004         28.5004
  -5524294.68448  -4274029.55146  21290650.6954   21290646.1294       2540.7004
        49.0004         40.7504
  -8100925.98047  -6277733.23845  22786246.7274   22786243.7274       3243.3284
        46.5004         32.5004
  -5628028.47747  -4344142.29745  22319690.6884   22319687.9384       1733.4264
        46.0004         33.5004
  -9425992.59848  -7329483.97745  21881580.7114   21881577.9184       2982.7514
        48.5004         33.7504
  -3907796.56247  -3020119.93746  20230640.5084   20230636.0044       1730.5744
        47.7504         41.5004
    161241.05946    156207.32443  24104465.0314   24104465.9774       4799.9024
        39.5004         21.5004
   3727215.36748   2915600.17646  21080600.5474   21080594.6724       -216.3284
        48.5004         39.0004
  -5371137.96947  -4143682.03945  23094578.9144   23094578.8404       1921.1854
        44.5004         32.0004
  14851816.46546  11557617.18443  24725334.2344   24725337.9734      -1960.1634
        40.5004         21.7504
 14  5 29 18 29 30.0000000  0 11G19G16G07G08G10G03G13G28G23G27G20
  -8963753.94146  -6933487.38745  23146524.7034   23146522.0234       3807.3374
        40.7504         31.2504
  11477386.35247   8940710.35944  23323152.2424   23323148.7854      -1846.3164
        44.5004         28.2504
  -5600424.09848  -4333351.16846  21276163.8984   21276159.3364       2537.6474
        49.0004         40.2504
  -8198176.50847  -6353512.83645  22767740.3134   22767737.9534       3241.6844
        46.7504         33.0004
  -5679521.26247  -4384266.55945  22309892.2034   22309889.1024       1716.4264
        47.0004         34.7504
  -9515011.34847  -7398849.19545  21864639.8444   21864637.5044       2967.2924
        47.0004         33.5004
  -3959347.81648  -3060289.75847  20220831.3444   20220826.2304       1718.3754
        49.0004         42.0004
     17366.72346     44097.58643  24077086.6884   24077087.4654       4795.8114
        39.5004         22.7504
   3734068.63348   2920940.32446  21081904.0554   21081898.6524       -228.4424
        49.5004         39.0004
  -5428308.37547  -4188230.40645  23083699.9614   23083699.5274       1905.6804
        44.7504         31.5004
  14910471.66446  11603322.18843  24736497.1024   24736499.7624      -1955.1734
        39.7504         21.0004
 14  5 29 18 30  0.0000000  0 11G19G16G07G08G10G03G13G28G23G27G20
  -9077711.06246  -7022285.08245  23124839.3284   23124837.1914       3798.5714
        41.5004         31.7504
  11532904.93447   8983971.53944  23333717.1644   23333713.6804      -1850.6194
        44.7504         28.0004
  -5676465.48448  -4392604.18746  21261693.5634   21261689.2154       2534.7134
        49.5004         40.2504
  -8295381.47747  -6429256.93445  22749243.0704   22749240.1884       3240.1664
        47.2504         33.0004
  -5730507.27047  -4423995.93745  22300189.7344   22300187.0234       1699.5344
        45.2504         34.5004
  -9603567.29348  -7467853.76645  21847789.0314   21847785.7664       2951.8654
        48.5004         33.5004
  -4010535.03148  -3100175.89846  20211090.5944   20211085.5434       1706.2404
        48.7504         41.7504
   -126386.16846    -67917.49643  24049731.4304   24049732.4344       4791.7634
        39.5004         22.7504
   3741281.51648   2926560.70346  21083277.1254   21083271.5234       -240.4294
        49.0004         39.0004
  -5485015.68047  -4232417.89545  23072908.7504   23072908.3554       1890.2434
        45.2504         32.2504
  14968971.59846  11648906.30143  24747629.5234   24747632.0984      -1949.9984
        39.5004         21.0004
 14  5 29 18 30 30.0000000  0 11G19G16G07G08G10G03G13G28G23G27G20
  -9191399.30147  -7110873.27345  23103204.9774   23103202.7304       3789.6084
        42.2504         31.7504
  11588552.65647   9027333.33244  23344306.5784   23344302.8914      -1854.9244
        45.0004         28.7504
  -5752416.07848  -4451786.46546  21247240.6804   21247236.5474       2531.6864
        49.0004         40.5004
  -8392538.32047  -6504963.53145  22730754.5554   22730752.0004       3238.5614
        46.5004         34.0004
  -5780984.04347  -4463328.51245  22290584.4924   22290581.5514       1682.5594
        45.7504         34.2504
  -9691655.47747  -7536493.86745  21831026.1804   21831023.5744       2936.2734
        47.2504         34.5004
  -4061354.13348  -3139775.20346  20201419.8444   20201414.8164       1693.9704
        48.7504         41.7504
   -270013.00846   -179834.36743  24022399.1954   24022400.9184       4787.5614
        39.0004         22.0004
   3748856.53148   2932463.25446  21084718.6174   21084713.3404       -252.5014
        48.7504         39.0004
  -5541255.92247  -4276241.45745  23062206.7034   23062206.3794       1874.6754
        43.7504         32.0004
  15027316.93046  11694369.90243  24758731.7274   24758734.6684      -1944.8444
        39.7504         20.0004
 14  5 29 18 31  0.0000000  0 11G19G16G07G08G10G03G13G28G23G27G20
  -9304817.98847  -7199251.43045  23081622.3204   23081619.5204       3780.6234
        43.0004         31.5004
  11644323.81647   9070791.30544  23354920.2504   23354916.2194      -1859.0394
        43.5004         27.2504
  -5828278.76648  -4510900.24646  21232804.2194   21232800.1884       2528.7564
        48.0004         40.5004
  -8489650.20347  -6580635.09845  22712274.7274   22712272.0434       3237.0634
        46.5004         33.5004
  -5830954.53547  -4502266.58245  22281075.1334   22281072.6524       1665.6834
        45.7504         34.0004
  -9779275.75848  -7604769.36345  21814352.8674   21814349.7544       2920.6764
        48.0004         34.5004
  -4111806.44148  -3179088.69946  20191819.0634   20191814.4224       1681.7444
        48.2504         41.5004
   -413514.44946   -291653.52043  23995092.5864   23995092.9144       4783.3814
        40.7504         22.2504
   3756790.86748   2938645.78946  21086228.8134   21086222.7034       -264.4784
        49.2504         38.2504
  -5597030.57447  -4319702.20745  23051593.6254   23051592.6914       1859.1554
        44.0004         32.2504
  15085502.51646  11739708.99243  24769805.1414   24769807.4344      -1939.5204
        38.7504         19.2504
 14  5 29 18 31 30.0000000  0 11G19G16G07G08G10G03G13G28G23G27G20
  -9417957.78947  -7287412.27345  23060092.2734   23060089.1994       3771.3274
        43.2504         31.2504
  11700221.76247   9114348.06644  23365557.2114   23365553.3404      -1863.2654
        44.0004         29.0004
  -5904047.87947  -4569941.10946  21218385.9064   21218381.5824       2525.6374
        47.5004         40.0004
  -8586711.40647  -6656267.17645  22693804.6484   22693801.7034       3235.3734
        47.0004         33.7504
  -5880412.98447  -4540805.66045  22271663.6724   22271660.7074       1648.6154
        45.5004         34.0004
  -9866420.23047  -7672674.10545  21797769.8834   21797766.8594       2904.8164
        47.0004         34.2504
  -4161884.64548  -3218110.68046  20182289.8914   20182284.7384       1669.2734
        48.7504         41.7504
   -556883.04746   -403369.13743  23967809.7664   23967810.8204       4778.9534
        39.2504         22.0004
   3765089.96948   2945112.56646  21087807.9924   21087802.4144       -276.6374
        48.0004         38.5004
  -5652332.67247  -4362794.75445  23041070.0314   23041069.2774       1843.4034
        45.0004         32.7504
  15143531.59846  11784926.18843  24780846.4844   24780850.2504      -1934.3034
        38.5004         20.5004
 14  5 29 18 32  0.0000000  0 11G19G16G07G08G10G03G13G28G23G27G20
  -9530822.79347  -7375358.97345  23038615.2504   23038612.8364       3762.1674
        43.7504         31.0004
  11756236.62947   9157995.95744  23376216.6484   23376212.7304      -1867.1624
        43.7504         27.0004
  -5979730.59048  -4628914.64146  21203984.0704   21203979.4964       2522.7574
        49.2504         40.2504
  -8683729.44947  -6731865.60545  22675342.5864   22675340.2854       3233.9354
        47.7504         33.7504
  -5929367.09847  -4578951.74645  22262348.0474   22262344.9614       1631.8044
        44.5004         34.0004
  -9953093.65247  -7740211.77745  21781276.1804   21781273.4574       2889.1144
        47.2504         33.5004
  -4211594.40647  -3256845.55547  20172829.8674   20172825.1294       1656.9924
        47.0004         42.0004
   -700123.73046   -514985.08643  23940552.2114   23940552.8594       4774.6894
        39.7504         22.5004
   3773746.31348   2951857.71946  21089455.4454   21089449.6094       -288.5454
        48.0004         38.0004
  -5707168.23047  -4405523.72745  23030634.8834   23030634.2934       1827.8524
        44.2504         32.2504
  15201394.85946  11830014.13743  24791859.0864   24791862.0204      -1928.7754
        39.7504         20.2504
 14  5 29 18 32 30.0000000  0 11G19G16G07G08G10G03G13G28G23G27G20
  -9643401.52747  -7463082.60945  23017192.4384   23017188.8444       3752.6244
        44.0004         31.2504
  11812373.91447   9201739.22344  23386898.8984   23386895.7034      -1871.2434
        44.0004         27.0004
  -6055319.04748  -4687814.73046  21189599.9924   21189595.6954       2519.6154
        48.0004         40.2504
  -8780696.70747  -6807424.48045  22656890.0004   22656887.8324       3232.2424
        46.7504         33.2504
  -5977809.04347  -4616698.74245  22253129.9694   22253126.9184       1614.7324
        45.2504         34.0004
 -10039285.27047  -7807374.03145  21764874.7814   21764871.7974       2873.0544
        47.7504         34.0004
  -4260926.28947  -3295285.98046  20163442.5004   20163437.8244       1644.3964
        47.0004         41.5004
   -843226.46546   -626493.54743  23913319.5164   23913321.0634       4770.0914
        37.7504         22.7504
   3782767.95748   2958887.52346  21091172.2504   21091166.2544       -300.7214
        49.2504         38.5004
  -5761527.78547  -4447881.80545  23020290.7424   23020289.9024       1811.9854
        43.7504         32.0004
  15259098.30946  11874977.55543  24802840.2114   24802843.1604      -1923.4484
        40.0004         20.2504
 14  5 29 18 33  0.0000000  0 11G19G16G07G08G10G03G13G28G23G27G20
  -9755700.66447  -7550588.39145  22995821.8204   22995818.7384       3743.3054
        43.2504         31.5004
  11868620.80547   9245567.88744  23397602.3984   23397598.8094      -1874.8964
        43.2504         27.7504
  -6130823.35948  -4746649.24646  21175232.0634   21175227.8164       2516.8104
        48.7504         40.0004
  -8877623.44147  -6882951.76645  22638445.8674   22638443.3554       3230.8914
        47.0004         33.5004
  -6025748.48047  -4654054.17645  22244007.1724   22244004.4264       1597.9814
        44.7504         34.5004
 -10125002.94147  -7874166.96145  21748562.8054   21748560.1884       2857.2564
        47.7504         34.5004
  -4309888.92247  -3333438.67246  20154125.4064   20154120.3914       1632.0884
        46.0004         41.7504
   -986199.19546   -737900.69943  23886112.9144   23886113.8054       4765.7584
        39.7504         22.7504
   3792144.45748   2966193.84046  21092956.3204   21092950.7424       -312.5504
        48.7504         38.7504
  -5815420.29747  -4489875.96545  23010034.5474   23010034.6644       1796.4174
        44.5004         32.0004
  15316629.31646  11919806.63743  24813786.5164   24813790.6994      -1917.7004
        38.2504         19.0004
 14  5 29 18 33 30.0000000  0 11G19G16G07G08G10G03G13G28G23G27G20
  -9867708.97746  -7637867.52345  22974507.8594   22974505.3324       3733.6104
        41.7504         31.7504
  11924982.72347   9289486.19144  23408327.8674   23408323.6804      -1878.7314
        44.7504         27.5004
  -6206235.37548  -4805411.85946  21160881.8284   21160877.5864       2513.7344
        49.2504         41.0004
  -8974501.84047  -6958441.39145  22620010.6254   22620007.6914       3229.2804
        47.0004         33.7504
  -6073177.87547  -4691012.17645  22234981.8364   22234978.7194       1580.9804
        45.2504         34.0004
 -10210236.53147  -7940582.69545  21732343.3364   21732340.5474       2841.1204
        47.5004         35.0004
  -4358472.58647  -3371296.07046  20144880.1564   20144875.4414       1619.4554
        47.2504         41.5004
  -1129032.11746   -849198.92244  23858932.7114   23858933.2424       4761.0974
        39.2504         24.0004
   3801883.43847   2973782.63346  21094809.1174   21094803.8094       -324.6334
        47.5004         39.0004
  -5868836.67647  -4531499.09445  22999870.2114   22999869.5704       1780.5464
        45.5004         32.2504
  15373993.78146  11964505.91443  24824704.1644   24824708.1334      -1912.1494
        38.2504         19.5004
 14  5 29 18 34  0.0000000  0 11G19G16G07G08G10G03G13G28G23G27G20
  -9979427.83247  -7724921.12545  22953248.6174   22953245.4844       3723.9624
        42.5004         31.7504
  11981452.12147   9333488.26644  23419074.1094   23419070.1054      -1882.3134
        43.5004         28.0004
  -6281560.02747  -4864106.39146  21146548.1484   21146543.4384       2510.8224
        47.2504         40.5004
  -9071336.55547  -7033896.97745  22601583.4774   22601580.6524       3227.8244
        46.5004         33.5004
  -6120102.71547  -4727577.00845  22226052.0084   22226049.5234       1564.1614
        45.7504         34.2504
 -10294988.28148  -8006622.95345  21716216.2734   21716212.8914       2825.0584
        48.5004         34.5004
  -4406680.96947  -3408861.04347  20135706.1334   20135701.4224       1606.9464
        46.5004         42.0004
  -1271727.97746   -960390.34443  23831779.1564   23831779.4614       4756.5294
        40.5004         23.5004
   3811980.01247   2981650.05146  21096731.0004   21096725.5704       -336.5524
        47.7504         38.7504
  -5921780.49247  -4572753.96945  22989796.2584   22989794.6604       1764.7944
        43.5004         32.0004
  15431184.88346  12009070.10543  24835587.6024   24835590.9224      -1906.3704
        39.0004         19.0004
 14  5 29 18 34 30.0000000  0 11G19G16G07G08G10G03G13G28G23G27G20
 -10090849.71146  -7811743.33245  22932044.8134   22932042.0314       3714.0634
        41.2504         31.0004
  12038030.91847   9377575.56644  23429840.2424   23429836.4224      -1885.9604
        44.0004         29.0004
  -6356793.28547  -4922729.70346  21132231.7034   21132226.7424       2507.7754
        47.0004         40.5004
  -9168123.95347  -7109315.69145  22583164.9694   22583163.0314       3226.2474
        47.5004         33.5004
  -6166518.91447  -4763745.50445  22217219.2734   22217216.3594       1547.2074
        45.7504         34.7504
 -10379251.50048  -8072282.54345  21700181.3524   21700178.0004       2808.7744
        48.0004         35.0004
  -4454508.89147  -3446129.55146  20126605.1334   20126600.3094       1594.2644
        46.0004         41.7504
  -1414280.67646  -1071470.18743  23804652.7664   23804652.5004       4751.7574
        41.2504         22.7504
   3822438.04748   2989799.12146  21098721.4224   21098715.6764       -348.6014
        48.0004         38.7504
  -5974246.44147  -4613636.50845  22979811.1954   22979810.8754       1748.8654
        42.5004         32.2504
  15488204.28946  12053500.51643  24846437.5004   24846441.7974      -1900.6474
        38.0004         19.0004
 14  5 29 18 35  0.0000000  0 11G19G16G07G08G10G03G13G28G23G27G20
 -10201969.84847  -7898330.34445  22910900.6954   22910896.5634       3704.0054
        42.5004         32.2504
  12094717.79347   9421747.07844  23440627.7814   23440623.4844      -1889.5624
        44.5004         28.0004
  -6431933.91048  -4981280.82446  21117932.7424   21117927.6954       2504.6884
        48.0004         40.2504
  -9264862.96947  -7184696.70745  22564756.2584   22564753.8164       3224.6344
        47.5004         33.5004
  -6212425.19147  -4799516.64845  22208483.9304   22208481.0784       1530.2094
        46.0004         34.0004
 -10463022.56247  -8137558.62945  21684239.7734   21684236.8244       2792.3694
        47.5004         35.0004
  -4501953.35247  -3483099.26247  20117576.7344   20117571.7114       1581.4824
        46.5004         42.0004
  -1556686.69546  -1182435.77744  23777552.7974   23777553.3094       4746.8674
        39.7504         24.5004
   3833258.32847   2998230.46946  21100779.8054   21100774.7114       -360.6764
        47.7504         38.7504
  -6026232.11747  -4654144.77745  22969918.7584   22969917.8324       1732.8564
        43.0004         32.7504
  15545051.42246  12097796.65643  24857256.1174   24857259.5704      -1894.9044
        38.0004         19.0004
 14  5 29 18 35 30.0000000  0 11G19G16G07G08G10G03G13G28G23G27G20
 -10312783.48847  -7984678.60545  22889812.4534   22889809.4304       3693.7884
        42.2504         32.0004
  12151511.44547   9466001.80944  23451435.1724   23451431.6954      -1893.1224
        44.5004         27.0004
  -6506980.02347  -5039758.30946  21103652.0084   21103647.4494       2501.5374
        47.5004         41.2504
  -9361552.03948  -7260038.79345  22546357.1024   22546354.3554       3222.9694
        48.0004         33.2504
  -6257820.57847  -4834889.70345  22199845.5004   22199842.7114       1513.1804
        46.0004         34.2504
 -10546297.69947  -8202448.27345  21668393.3284   21668390.3984       2775.8384
        47.2504         35.2504
  -4549011.29347  -3519767.78946  20108621.9144   20108617.3404       1568.5984
        47.2504         41.5004
  -1698942.69146  -1293284.46143  23750482.7504   23750482.6374       4741.8674
        40.7504         22.7504
   3844442.15247   3006945.09046  21102908.1644   21102902.9024       -372.7944
        47.2504         38.7504
  -6077734.85247  -4694276.72345  22960118.3594   22960117.5594       1716.7584
        44.0004         32.0004
  15601725.44146  12141957.98843  24868040.5864   24868043.7934      -1889.1344
        37.7504         19.0004
 14  5 29 18 36  0.0000000  0 11G19G16G07G08G10G03G13G28G23G27G20
 -10423299.79747  -8070795.12145  22868782.5704   22868778.6564       3683.8774
        44.2504         32.7504
  12208397.43447   9510328.48844  23462260.3754   23462256.2894      -1896.2004
        44.7504         27.5004
  -6581943.99247  -5098171.78146  21089386.9384   21089382.3444       2498.7994
        47.2504         40.7504
  -9458203.76648  -7335351.78945  22527965.0084   22527962.2734       3221.7244
        48.0004         34.0004
  -6302717.62547  -4869874.43745  22191301.7344   22191299.0824       1496.5684
        44.5004         34.5004
 -10629087.06248  -8266959.39145  21652638.8134   21652636.0744       2759.6454
        48.0004         35.7504
  -4595693.64147  -3556143.65246  20099738.7894   20099733.7114       1556.0784
        46.2504         41.7504
  -1841058.60246  -1404023.98043  23723438.5164   23723438.8094       4737.1974
        40.5004         23.2504
   3855977.05147   3015933.28146  21105103.5314   21105098.0394       -384.4974
        47.5004         38.5004
  -6128765.88347  -4734041.10545  22950407.2114   22950406.9494       1701.0344
        42.7504         32.0004
  15658211.97746  12185973.12542  24878789.6484   24878793.9144      -1882.8854
        36.5004         17.7504
 14  5 29 18 36 30.0000000  0 11G19G16G07G08G10G03G13G28G23G27G20
 -10533506.02747  -8156670.02345  22847810.8524   22847807.1294       3673.5414
        43.0004         32.2504
  12265382.48047   9554732.35544  23473103.6954   23473100.5944      -1899.5024
        43.7504         27.0004
  -6656816.61748  -5156514.07846  21075138.8364   21075134.2664       2495.7544
        48.0004         40.5004
  -9554809.06247  -7410628.60945  22509581.4774   22509578.8164       3220.1774
        47.5004         33.5004
  -6347107.35947  -4904463.87145  22182854.7274   22182851.7734       1479.6584
        44.7504         34.2504
 -10711378.83247  -8331082.78145  21636979.1954   21636976.4384       2743.0594
        47.0004         35.0004
  -4641989.59047  -3592218.42646  20090928.6484   20090923.6954       1543.1984
        47.0004         41.7504
  -1983023.16446  -1514645.57043  23696423.1884   23696423.1844       4732.1524
        41.2504         23.0004
   3867872.03147   3025202.05146  21107367.1804   21107361.6724       -396.4994
        47.7504         38.7504
  -6179314.83647  -4773429.85945  22940788.1334   22940787.4064       1684.9654
        43.2504         32.0004
  15714518.12546  12229847.76643  24889504.2664   24889508.6994      -1876.8724
        37.0004         18.5004
 14  5 29 18 37  0.0000000  0 11G19G16G07G08G10G03G13G28G23G27G20
 -10643400.53147  -8242301.99645  22826898.2194   22826895.4884       3663.1504
        44.5004         33.2504
  12322461.89847   9599209.73844  23483965.9384   23483962.3164      -1902.6474
        44.0004         26.2504
  -6731599.61347  -5214786.53146  21060908.2664   21060903.6724       2492.7674
        47.0004         41.0004
  -9651369.75448  -7485870.66845  22491206.7504   22491203.8204       3218.6904
        48.0004         33.5004
  -6390992.12547  -4938659.81245  22174503.8984   22174500.7304       1462.8264
        45.0004         34.5004
 -10793172.88748  -8394818.32045  21621414.0944   21621411.2854       2726.4684
        48.0004         35.2504
  -4687899.67247  -3627992.53146  20082192.6254   20082187.7774       1530.3364
        47.5004         41.5004
  -2124836.66446  -1625149.45344  23669437.2584   23669437.5164       4727.1174
        41.2504         24.5004
   3880125.09847   3034749.86746  21109698.6254   21109693.0204       -408.4364
        47.7504         38.5004
  -6229382.50447  -4812443.55945  22931260.5004   22931259.5314       1668.9224
        44.5004         32.0004
  15770640.29345  12273579.08243  24900184.1414   24900188.5314      -1870.7394
        34.5004         19.5004
 14  5 29 18 37 30.0000000  0 11G19G16G07G08G10G03G13G28G23G27G20
 -10752976.28147  -8327685.60545  22806047.4144   22806042.7894       3652.5254
        43.7504         32.5004
  12379637.19947   9643761.86344  23494846.0394   23494842.4104      -1905.8434
        43.0004         26.2504
  -6806289.37547  -5272986.32846  21046695.4224   21046691.0474       2489.6594
        47.5004         40.7504
  -9747882.21548  -7561075.14145  22472841.2114   22472838.1054       3217.0824
        48.0004         34.7504
  -6434368.64147  -4972459.72745  22166249.6954   22166246.9184       1445.8844
        46.0004         34.0004
 -10874463.18047  -8458161.33645  21605945.3674   21605942.3554       2709.6764
        47.5004         35.0004
  -4733418.77347  -3663461.97747  20073530.6724   20073525.5514       1517.3034
        46.5004         42.0004
  -2266493.30146  -1735531.12944  23642480.6724   23642480.7774       4721.8884
        41.0004         24.5004
   3892739.48447   3044579.21946  21112098.8984   21112093.6484       -420.4804
        47.0004         38.5004
  -6278964.21947  -4851078.59845  22921825.4694   22921824.7934       1652.7244
        42.5004         31.0004
  15826579.59845  12317167.84443  24910828.8834   24910833.7504      -1864.6434
        35.0004         18.5004
 14  5 29 18 38  0.0000000  0 11G19G16G07G08G10G03G13G28G23G27G20
 -10862235.82047  -8412822.80945  22785255.8134   22785251.7544       3641.9854
        44.5004         32.7504
  12436900.12947   9688382.26244  23505743.0864   23505739.1294      -1908.7644
        43.5004         26.5004
  -6880891.44547  -5331117.80146  21032498.9774   21032494.6644       2486.7364
        47.0004         41.0004
  -9844352.64848  -7636246.86745  22454483.0234   22454480.2664       3215.6814
        49.0004         35.2504
  -6477242.61747  -5005868.04345  22158091.2114   22158088.3874       1429.1334
        45.2504         34.2504
 -10955252.98047  -8521114.35945  21590571.2424   21590568.0744       2692.9934
        47.2504         35.5004
  -4778551.32447  -3698630.21547  20064941.9454   20064937.2424       1504.4184
        46.5004         42.5004
  -2407996.43747  -1845793.16444  23615554.0314   23615553.5084       4716.7714
        43.0004         25.5004
   3905708.81347   3054685.14546  21114567.2034   21114561.8094       -432.3114
        47.5004         38.5004
  -6328064.56647  -4889338.55945  22912481.7734   22912480.9964       1636.6784
        42.7504         32.0004
  15882328.72746  12360608.45342  24921437.9224   24921443.3244      -1858.3044
        37.2504         16.7504
 14  5 29 18 38 30.0000000  0 11G19G16G07G08G10G03G13G28G23G27G20
 -10971169.91047  -8497706.43445  22764525.7504   22764522.5554       3631.1364
        43.7504         33.0004
  12494254.23047   9733073.69544  23516657.3134   23516653.4614      -1911.8034
        44.2504         26.2504
  -6955399.86347  -5389176.30546  21018320.2274   21018315.9184       2483.6144
        47.0004         41.0004
  -9940775.39847  -7711381.44945  22436134.4454   22436131.7074       3214.0924
        47.7504         34.7504
  -6519608.95747  -5038880.79745  22150028.9774   22150026.0274       1412.2114
        47.7504         34.7504
 -11035534.45747  -8583671.28945  21575294.0634   21575291.0274       2676.0494
        47.7504         35.5004
  -4823289.75847  -3733491.34447  20056428.6644   20056423.4304       1491.2814
        47.2504         42.0004
  -2549338.57446  -1955929.78144  23588656.9304   23588656.5824       4711.4054
        41.2504         24.5004
   3919038.78548   3065072.08246  21117104.0234   21117097.9654       -444.3324
        48.0004         38.5004
  -6376676.71547  -4927218.09845  22903230.7274   22903230.1524       1620.4054
        43.2504         31.7504
  15937890.96146  12403903.39143  24932012.4614   24932016.7344      -1852.0744
        38.5004         18.2504
 14  5 29 18 39  0.0000000  0 11G19G16G07G08G10G03G13G28G23G27G20
 -11079782.10547  -8582339.22345  22743857.4454   22743853.8444       3620.4074
        43.5004         32.7504
  12551690.14547   9777828.88744  23527587.1564   23527583.3094      -1914.5304
        42.5004         26.0004
  -7029821.13347  -5447166.88746  21004158.5704   21004154.4144       2480.7094
        47.2504         41.0004
 -10037157.02348  -7786483.98045  22417793.8674   22417791.2544       3212.7214
        48.7504         35.7504
  -6561474.68047  -5071503.46945  22142062.4844   22142059.7234       1395.5244
        45.7504         34.5004
 -11115311.78547  -8645835.37145  21560112.3364   21560110.4304       2659.2444
        46.7504         35.2504
  -4867639.90248  -3768049.91847  20047988.6954   20047984.1484       1478.3384
        48.0004         42.2504
  -2690524.32846  -2065944.53944  23561790.2274   23561789.9574       4706.1924
        41.2504         25.7504
   3932722.50447   3075734.66846  21119707.4454   21119702.1414       -456.1244
        47.0004         38.7504
  -6424806.41447  -4964721.69945  22894072.6884   22894071.9844       1604.3234
        43.0004         32.0004
  15993257.85946  12447046.23043  24942547.3054   24942552.3554      -1845.5634
        36.7504         18.5004
 14  5 29 18 39 30.0000000  0 11G19G16G07G08G10G03G13G28G23G27G20
 -11188062.87547  -8666713.75045  22723252.5394   22723248.6954       3609.3594
        43.5004         33.2504
  12609211.55547   9822650.69544  23538532.8914   23538529.1644      -1917.3804
        43.7504         25.7504
  -7104149.33647  -5505084.96146  20990013.8444   20990009.6484       2477.6074
        46.7504         41.2504
 -10133491.52348  -7861549.78945  22399461.8914   22399459.2934       3211.1504
        48.7504         35.5004
  -6602834.29747  -5103731.77045  22134191.4774   22134188.8094       1378.6544
        45.2504         35.0004
 -11194576.91047  -8707600.32845  21545028.9224   21545026.3204       2642.1714
        45.2504         34.7504
  -4911594.42647  -3802300.21147  20039624.8524   20039619.7814       1465.1514
        46.2504         42.0004
  -2831545.47346  -2175831.06244  23534954.2814   23534954.5664       4700.7054
        41.0004         25.2504
   3946765.41847   3086677.14546  21122380.1174   21122374.6294       -468.0974
        47.0004         38.5004
  -6472446.67647  -5001843.93445  22885006.3594   22885005.5664       1588.0094
        42.0004         31.0004
  16048433.18846  12490039.69543  24953047.1174   24953052.6764      -1839.1784
        38.2504         18.5004
 14  5 29 18 40  0.0000000  0 11G19G16G07G08G10G03G13G28G23G27G20
 -11296016.71947  -8750833.53145  22702708.7424   22702705.5354       3598.4614
        43.0004         32.5004
  12666808.36347   9867531.27744  23549493.4384   23549489.6334      -1919.8944
        44.7504         27.0004
  -7178392.23047  -5562936.56246  20975886.1564   20975881.8634       2474.7634
        47.7504         40.5004
 -10229786.92248  -7936585.13345  22381137.5704   22381134.6954       3209.8474
        48.2504         35.5004
  -6643696.20747  -5135572.24645  22126416.3054   22126413.2974       1362.0644
        47.0004         35.0004
 -11273335.79347  -8768970.83645  21530041.4224   21530038.7464       2625.2964
        46.0004         35.0004
  -4955159.52348  -3836247.05547  20031334.5394   20031329.6994       1452.1704
        48.2504         42.5004
  -2972408.02347  -2285593.96944  23508149.0164   23508148.7894       4695.4184
        42.0004         25.5004
   3961159.44547   3097893.22746  21125119.3444   21125113.5354       -479.8014
        47.0004         38.5004
  -6519604.43047  -5038590.17645  22876032.9844   22876031.9574       1571.9254
        42.2504         31.2504
  16103407.12946  12532876.27043  24963509.9224   24963513.6684      -1832.4654
        39.2504         19.5004
 14  5 29 18 40 30.0000000  0 11G19G16G07G08G10G03G13G28G23G27G20
 -11403637.01647  -8834693.39545  22682229.4534   22682226.3094       3587.3434
        42.7504         33.0004
  12724481.10947   9912471.00044  23560467.8984   23560463.8284      -1922.4254
        44.0004         24.7504
  -7252546.38747  -5620719.01246  20961775.4924   20961770.7464       2471.8054
        47.0004         40.5004
 -10326040.04748  -8011587.53945  22362821.1174   22362817.9064       3208.4384
        48.2504         35.5004
  -6684057.67247  -5167022.77345  22118735.3594   22118732.5944       1345.3824
        47.0004         34.2504
 -11351582.54347  -8829942.26645  21515151.2734   21515148.7274       2608.2254
        45.2504         34.7504
  -4998330.58647  -3869886.87547  20023119.6334   20023114.6644       1439.0354
        47.0004         42.0004
  -3113106.82447  -2395229.27044  23481374.6804   23481375.0084       4689.9604
        42.0004         25.7504
   3975907.33647   3109385.03546  21127925.7274   21127920.2154       -491.5964
        47.5004         38.0004
  -6566275.41846  -5074957.12545  22867151.8054   22867150.6604       1555.7004
        41.7504         31.7504
  16158181.10246  12575557.06643  24973933.0634   24973937.0944      -1825.7994
        38.5004         19.0004
 14  5 29 18 41  0.0000000  0 11G19G16G07G08G10G03G13G28G23G27G20
 -11510927.39547  -8918296.18745  22661812.7114   22661809.4574       3576.3464
        43.7504         32.5004
  12782220.74647   9957462.86344  23571455.2424   23571451.2114      -1924.6554
        44.2504         27.0004
  -7326618.44947  -5678437.49246  20947679.7894   20947675.2424       2469.0694
        47.7504         40.7504
 -10422257.78548  -8086562.37145  22344511.0314   22344508.6374       3207.2584
        48.7504         35.7504
  -6723925.83247  -5198088.90245  22111148.8134   22111146.2894       1328.9394
        46.2504         34.5004
 -11429321.91847  -8890518.35546  21500358.2894   21500355.8054       2591.3134
        46.0004         36.0004
  -5041113.01648  -3903223.85546  20014978.2734   20014973.5984       1426.0814
        48.5004         41.7504
  -3253646.55546  -2504740.63744  23454631.2034   23454631.1254       4684.6584
        41.5004         24.0004
   3991002.17247   3121147.17646  21130798.4454   21130792.7154       -503.1614
        47.2504         38.0004
  -6612465.45347  -5110949.31645  22858361.9844   22858360.6254       1539.6684
        42.5004         31.2504
  16212746.19146  12618075.07042  24984315.5944   24984321.1134      -1818.8364
        39.2504         17.7504
 14  5 29 18 41 30.0000000  0 12G19G16G07G08G10G03G13G28G23G05G27G20
 -10042455.48447  -7774032.25845  22941253.8594   22941250.2234       3564.9364
        42.2504         33.0004
  14415448.63747  11230107.91044  23882248.2584   23882244.7974      -1926.9304
        45.0004         26.5004
  -5825180.10247  -4508485.52746  21233394.0394   21233389.8134       2466.0554
        47.2504         40.7504
  -8943011.46147  -6933902.85545  22626002.2734   22625999.5354       3205.7894
        47.7504         35.5004
  -5187874.34848  -4001165.71145  22403449.7734   22403447.4264       1312.2844
        48.0004         35.0004
  -9931123.76647  -7723091.16846  21785456.4064   21785453.3404       2574.0624
        46.2504         36.0004
  -3508078.68048  -2708651.66846  20306705.2344   20306699.8954       1412.8554
        48.5004         41.7504
  -1818594.83247  -1386518.40644  23727712.4694   23727712.5354       4678.9434
        42.2504         25.7504
   5581868.57047   4360783.27346  21433530.2814   21433524.3554       -514.8804
        47.7504         38.2504
   7744465.87956   6060135.05953  25465210.2034   25465208.2934
        38.7504         20.0004
  -5082746.65247  -3918960.59445  23149457.6174   23149456.6134       1523.3734
        42.5004         31.7504
  17842524.31646  13888031.84043  25294452.8754   25294457.8484      -1811.9374
        39.0004         19.0004
 14  5 29 18 42  0.0000000  0 12G19G16G07G08G10G03G13G28G23G05G27G20
 -10149071.61747  -7857109.63745  22920964.9844   22920961.5084       3553.8714
        43.5004         33.0004
  14473319.69947  11275202.19544  23893260.8594   23893257.4884      -1929.0354
        44.2504         27.0004
  -5899083.00047  -4566072.18746  21219330.6954   21219326.3444       2463.4304
        47.5004         41.0004
  -9039154.05947  -7008819.12945  22607707.1954   22607704.4414       3204.7534
        47.5004         35.5004
  -5226752.93048  -4031460.75045  22396051.3674   22396048.8014       1295.9534
        48.0004         35.7504
 -10007837.86747  -7782868.34445  21770857.8674   21770854.9454       2557.1374
        46.5004         35.7504
  -3550075.45747  -2741376.45347  20298713.5474   20298708.6524       1399.8934
        47.7504         42.5004
  -1958805.76246  -1495773.55544  23701030.7974   23701030.6374       4673.6984
        41.5004         25.2504
   5597660.43047   4373088.55146  21436535.4694   21436529.6134       -526.3954
        47.7504         37.5004
   7625258.57446   5967246.27343  25442525.1254   25442525.0044       3973.5774
        38.5004         20.0004
  -5127967.81247  -3954197.80945  23140852.2894   23140851.2894       1507.3724
        42.7504         32.5004
  17896670.51246  13930223.44543  25304756.2734   25304762.0824      -1804.8734
        38.0004         19.2504
 14  5 29 18 42 30.0000000  0 12G19G16G07G08G10G03G13G28G23G05G27G20
 -10255348.85547  -7939922.95745  22900741.2114   22900737.9454       3542.5754
        43.2504         33.0004
  14531250.10247  11320342.70744  23904285.0164   23904281.3324      -1931.0134
        43.7504         26.7504
  -5972903.90247  -4623594.95746  21205282.9774   21205278.4494       2460.6974
        47.7504         40.7504
  -9135262.16848  -7083708.52045  22589418.3054   22589415.5824       3203.6044
        48.5004         35.5004
  -5265140.36347  -4061373.07445  22388746.6174   22388743.9614       1279.5814
        47.5004         35.0004
 -10084039.07447  -7842245.87546  21756356.9694   21756354.2584       2540.0404
        45.5004         36.0004
  -3591680.48048  -2773795.97747  20290796.0314   20290791.1374       1386.8344
        48.5004         42.0004
  -2098852.32047  -1604900.62144  23674381.1254   23674380.5394       4668.2194
        42.2504         24.5004
   5613797.01247   4385662.45746  21439606.0234   21439600.7234       -537.8864
        47.7504         38.2504
   7506352.47346   5874592.15243  25419899.3204   25419897.3014       3963.5374
        40.2504         20.5004
  -5172706.23047  -3989058.87545  23132338.8984   23132337.9454       1491.2814
        42.2504         32.2504
  17950601.25046  13972247.20743  25315019.7034   25315024.7664      -1797.6914
        37.2504         18.5004
 14  5 29 18 43  0.0000000  0 12G19G16G07G08G10G03G13G28G23G05G27G20
 -10361291.19547  -8022475.32045  22880581.2504   22880577.6604       3531.4114
        43.7504         33.5004
  14589229.78147  11365521.61744  23915318.3444   23915314.5824      -1932.6564
        43.7504         26.2504
  -6046650.10547  -4681059.52346  21191249.6644   21191244.8364       2458.2074
        47.5004         41.0004
  -9231343.16448  -7158576.78946  22571134.8834   22571132.3364       3202.7004
        48.2504         36.2504
  -5303044.98847  -4090909.18445  22381533.6644   22381531.2854       1263.4884
        47.0004         35.7504
 -10159732.81647  -7901227.96945  21741952.9304   21741950.0984       2523.1254
        45.0004         35.7504
  -3632899.87147  -2805915.00046  20282952.5474   20282947.5784       1373.9804
        47.5004         41.5004
  -2238740.18746  -1713904.03544  23647760.7034   23647760.7034       4662.9294
        41.0004         24.7504
   5630270.57448   4398498.94146  21442740.8984   21442735.2464       -549.1194
        48.7504         38.0004
   7387742.69546   5782168.89543  25397326.9774   25397326.6684       3953.6594
        38.0004         20.2504
  -5216968.43447  -4023548.87145  23123916.0944   23123914.8594       1475.4074
        43.5004         32.0004
  18004307.12546  14014095.71143  25325239.1724   25325244.6294      -1790.1964
        37.7504         18.2504
 14  5 29 18 43 30.0000000  0 12G19G16G07G08G10G03G13G28G23G05G27G20
 -10466890.38347  -8104760.28945  22860486.3284   22860482.5704       3519.9734
        43.0004         33.0004
  14647261.36347  11410740.96144  23926361.5634   23926357.4454      -1934.3864
        43.0004         26.0004
  -6120316.64148  -4738462.01246  21177231.4144   21177227.1644       2455.5514
        48.7504         41.0004
  -9327392.57847  -7233420.45746  22552857.1644   22552854.1254       3201.6474
        47.5004         36.0004
  -5340462.07047  -4120065.38345  22374413.3284   22374410.9774       1247.2364
        45.5004         34.7504
 -10234912.02347  -7959809.13346  21727646.8284   21727644.0084       2505.9744
        45.0004         36.0004
  -3673727.48847  -2837728.75047  20275182.8674   20275178.4064       1360.9214
        46.5004         42.0004
  -2378462.32846  -1822778.32044  23621172.1334   23621172.1454       4657.4054
        40.5004         24.5004
   5647085.41047   4411601.34846  21445940.5634   21445935.3954       -560.4954
        47.7504         37.7504
   7269436.56346   5689982.30543  25374814.2894   25374814.3754       3943.5384
        39.2504         20.5004
  -5260748.85547  -4057663.44945  23115584.9614   23115584.3204       1459.3474
        43.5004         31.5004
  18057791.00946  14055771.27942  25335417.5864   25335422.5434      -1782.7964
        38.5004         16.7504
 14  5 29 18 44  0.0000000  0 12G19G16G07G08G10G03G13G28G23G05G27G20
 -10572148.61347  -8186779.57045  22840456.1884   22840452.2344       3508.6084
        43.7504         33.5004
  14705336.98047  11455994.60944  23937413.2274   23937409.4734      -1935.8544
        43.5004         26.0004
  -6193908.68047  -4795806.44946  21163227.1954   21163222.8484       2453.0684
        47.7504         41.0004
  -9423415.70348  -7308243.64545  22534584.5084   22534581.5904       3200.7714
        48.2504         35.5004
  -5377398.28948  -4148846.89145  22367385.0314   22367382.1054       1231.2074
        48.7504         34.7504
 -10309580.21547  -8017992.11345  21713437.8204   21713435.1804       2488.9404
        46.5004         35.7504
  -3714167.09047  -2869240.15647  20267487.6564   20267483.0664       1347.9874
        46.5004         42.0004
  -2518021.98846  -1931525.99644  23594614.6564   23594614.7154       4651.9894
        41.5004         25.0004
   5664235.87148   4424965.28146  21449204.5164   21449198.6484       -571.6824
        48.2504         38.5004
   7151430.90646   5598029.78943  25352359.9534   25352358.1724       3933.5224
        40.0004         21.7504
  -5304051.99247  -4091406.10545  23107344.7424   23107343.5984       1443.4384
        42.7504         32.0004
  18111045.75846  14097268.29343  25345551.9454   25345556.0664      -1775.1584
        40.0004         19.5004
 14  5 29 18 44 30.0000000  0 12G19G16G07G08G10G03G13G28G23G05G27G20
 -10677059.75847  -8268528.41445  22820492.1094   22820488.1454       3497.0384
        43.7504         33.5004
  14763457.83647  11501283.51644  23948473.0084   23948469.0904      -1937.3624
        43.7504         27.0004
  -6267423.07448  -4853090.39146  21149237.7894   21149233.1684       2450.4804
        48.5004         41.5004
  -9519409.59848  -7383044.05146  22516317.4614   22516314.8134       3199.7964
        48.0004         36.2504
  -5413851.20747  -4177251.79745  22360448.0164   22360445.2664       1215.0974
        46.7504         34.7504
 -10383732.52347  -8075773.10246  21699327.4064   21699324.4384       2471.7444
        46.2504         36.0004
  -3754214.93747  -2900446.29347  20259867.1024   20259862.4454       1334.9284
        46.7504         42.2504
  -2657414.51247  -2040143.37944  23568089.6174   23568089.0664       4646.4174
        42.0004         25.2504
   5681724.52747   4438592.75046  21452531.9774   21452527.2074       -582.9554
        47.7504         38.0004
   7033731.26246   5506315.73843  25329960.7734   25329960.4804       3923.3214
        39.0004         20.5004
  -5346874.12947  -4124773.98445  23099195.9774   23099194.9264       1427.4054
        44.5004         32.2504
  18164072.41046  14138587.59043  25355642.7584   25355647.3874      -1767.5554
        36.7504         18.5004
 14  5 29 18 45  0.0000000  0 12G19G16G07G08G10G03G13G28G23G05G27G20
 -10781620.78947  -8350004.42645  22800594.6414   22800590.8874       3485.3684
        43.2504         33.0004
  14821621.05946  11546605.43444  23959540.4614   23959537.6604      -1938.7744
        41.7504         26.2504
  -6340859.86748  -4910313.86346  21135263.3834   21135258.9144       2447.8934
        48.0004         40.5004
  -9615374.69148  -7457822.01246  22498056.2274   22498053.1954       3198.8364
        48.0004         36.2504
  -5449821.62148  -4205280.72345  22353603.6484   22353600.5514       1199.0144
        49.0004         34.7504
 -10457366.88347  -8133150.50845  21685315.0784   21685312.4734       2454.4794
        45.7504         35.0004
  -3793869.97347  -2931346.34846  20252320.8594   20252315.9144       1321.8354
        47.2504         41.7504
  -2796638.17247  -2148629.25844  23541595.4144   23541595.6414       4640.7894
        42.0004         26.0004
   5699550.46548   4452483.02346  21455924.6094   21455919.4264       -594.1984
        48.0004         38.0004
   6916339.41046   5414841.55143  25307622.3364   25307621.6414       3913.0624
        39.2504         20.0004
  -5389214.83247  -4157766.72345  23091138.2504   23091137.3914       1411.3574
        43.0004         32.7504
  18216868.69945  14179727.41843  25365689.7034   25365695.1724      -1759.8764
        35.7504         18.5004
 14  5 29 18 45 30.0000000  0 11G19G16G07G08G10G03G13G28G23G05G27
 -10885823.86747  -8431201.51645  22780765.0944   22780761.7504       3473.4364
        44.5004         33.0004
  14879828.90647  11591962.12544  23970617.5704   23970614.2424      -1940.2624
        42.5004         25.7504
  -6414214.45348  -4967473.27746  21121304.3594   21121299.7894       2445.1534
        48.0004         40.7504
  -9711306.35547  -7532573.92245  22479800.5314   22479797.9414       3197.7224
        47.7504         35.5004
  -5485305.57448  -4232930.58245  22346850.7114   22346848.1174       1182.7984
        48.2504         34.0004
 -10530477.19547  -8190119.54745  21671402.6484   21671400.0664       2437.0104
        46.5004         35.7504
  -3833126.16847  -2961935.61346  20244850.6334   20244846.0274       1308.5404
        47.7504         41.7504
  -2935686.46147  -2256978.41444  23515136.4774   23515135.8204       4634.9434
        42.0004         25.2504
   5717717.68847   4466639.22746  21459381.8054   21459376.5664       -605.5744
        47.2504         38.2504
   6799262.32046   5323612.69543  25285344.3594   25285342.9264       3902.5704
        41.0004         22.7504
  -5431068.81647  -4190380.18745  23083173.3984   23083172.9884       1395.1334
        44.2504         31.2504
 14  5 29 18 46  0.0000000  0 11G19G16G07G08G10G03G13G28G23G05G27
 -10989673.38747  -8512123.10945  22761003.4304   22760999.7544       3461.6514
        44.0004         34.2504
  14938071.54747  11637345.91044  23981699.8594   23981697.9774      -1941.4214
        42.2504         25.5004
  -6487493.82448  -5024574.08246  21107359.7974   21107355.5204       2442.6464
        48.2504         40.7504
  -9807211.90247  -7607305.48445  22461550.5474   22461547.6454       3196.8524
        46.5004         35.5004
  -5520311.04747  -4260207.60545  22340189.7194   22340186.5944       1166.8494
        47.0004         34.5004
 -10603068.83647  -8246684.45345  21657588.7274   21657585.7584       2419.7214
        46.5004         35.2504
  -3871989.77347  -2992218.96947  20237455.1954   20237450.3054       1295.4544
        46.5004         42.0004
  -3074564.77047  -2365195.16043  23488708.1884   23488707.6844       4629.2774
        43.0004         23.2504
   5736218.23047   4481055.16846  21462901.9844   21462896.8834       -616.6854
        47.5004         37.7504
   6682494.95346   5232625.12143  25263124.4304   25263122.3554       3892.2464
        41.0004         21.5004
  -5472442.76647  -4222619.61745  23075300.5234   23075299.5864       1379.1324
        42.5004         32.0004
 14  5 29 18 46 30.0000000  0 11G19G16G07G08G10G03G13G28G23G05G27
 -11093159.14547  -8592761.25845  22741310.8204   22741306.8874       3449.5254
        43.2504         33.2504
  14996353.86347  11682760.62944  23992791.4304   23992788.4264      -1942.7444
        42.0004         24.0004
  -6560690.81647  -5081610.69546  21093430.6564   21093426.2934       2439.9004
        47.5004         41.0004
  -9903084.53947  -7682011.40246  22443306.2424   22443303.5594       3195.7554
        46.5004         36.0004
  -5554832.01648  -4287107.10245  22333620.3284   22333617.4734       1150.6994
        48.5004         34.5004
 -10675132.77747  -8302838.14145  21643875.7194   21643872.8524       2402.1314
        47.0004         35.2504
  -3910452.61347  -3022190.03947  20230135.9924   20230131.3484       1282.0954
        47.2504         42.0004
  -3213264.22747  -2473272.52044  23462314.2584   23462314.2384       4623.3154
        42.7504         27.0004
   5755058.75847   4495736.02746  21466487.3754   21466482.5314       -628.0184
        47.5004         37.2504
   6566046.57846   5141886.17243  25240963.9304   25240963.1454       3881.6134
        39.0004         21.5004
  -5513329.09847  -4254479.07445  23067520.1094   23067519.4844       1362.8784
        42.5004         31.7504
 14  5 29 18 47  0.0000000  0 11G19G16G07G08G10G03G13G28G23G05G27
 -11196277.32447  -8673112.96145  22721688.1644   22721683.4224       3437.2734
        44.0004         33.0004
  15054674.27347  11728205.02344  24003889.9924   24003886.7544      -1944.0144
        42.0004         25.2504
  -6633804.48448  -5138582.37946  21079518.0634   21079513.5394       2437.1224
        48.2504         41.0004
  -9998923.43747  -7756691.03545  22425068.8364   22425065.9884       3194.6304
        46.5004         35.0004
  -5588868.66847  -4313629.20345  22327143.5944   22327140.8484       1134.5554
        46.2504         34.5004
 -10746666.54747  -8358578.72345  21630263.1174   21630260.0864       2384.4594
        47.5004         35.7504
  -3948512.59047  -3051847.18447  20222893.2344   20222888.6644       1268.6664
        47.5004         42.2504
  -3351782.23047  -2581208.49644  23435955.8444   23435954.7734       4617.2674
        43.5004         27.0004
   5774239.26247   4510681.80546  21470137.3674   21470132.1884       -639.3504
        46.5004         37.5004
   6449920.18446   5051398.11743  25218865.9144   25218864.8444       3870.8804
        39.7504         21.5004
  -5553726.45747  -4285957.52345  23059832.4384   23059831.8094       1346.5794
        43.5004         32.5004
 14  5 29 18 47 30.0000000  0 11G19G16G07G08G10G03G13G28G23G05G27
 -11299016.90647  -8753169.68745  22702136.6334   22702132.7424       3424.6534
        43.2504         32.7504
  15113038.56346  11773683.61344  24014995.8674   24014992.6844      -1945.4764
        41.5004         25.2504
  -6706827.08648  -5195483.10946  21065621.8984   21065617.8754       2434.0874
        48.2504         41.0004
 -10094721.24647  -7831338.67245  22406839.3054   22406836.1254       3193.2604
        46.5004         35.5004
  -5622414.14547  -4339768.58245  22320759.9384   22320757.4224       1118.1834
        46.7504         34.7504
 -10817660.84047  -8413898.93446  21616753.3754   21616750.4534       2366.4764
        46.2504         36.0004
  -3986161.39147  -3081183.93447  20215728.8914   20215724.1724       1254.9604
        47.5004         42.0004
  -3490109.32447  -2688995.69944  23409632.2344   23409632.0434       4610.9034
        44.0004         26.0004
   5793766.90247   4525898.07446  21473853.6174   21473848.1214       -650.9214
        47.0004         37.5004
   6334125.83646   4961168.73843  25196831.2344   25196830.2854       3859.8124
        40.5004         21.5004
  -5593626.55947  -4317048.50445  23052240.3594   23052239.4734       1330.0034
        42.5004         32.0004
 14  5 29 18 48  0.0000000  0 11G19G16G07G08G10G03G13G28G23G05G27
 -11401376.96547  -8832930.65645  22682658.2664   22682654.4694       3412.0024
        43.2504         33.7504
  15171442.21947  11819192.89544  24026110.0944   24026106.3164      -1946.7894
        42.5004         25.2504
  -6779760.28148  -5252314.16446  21051743.4844   21051738.9224       2431.1074
        48.2504         41.0004
 -10190479.78147  -7905955.64545  22388616.7584   22388613.9384       3191.9514
        46.2504         35.0004
  -5655471.18447  -4365527.34445  22314469.5554   22314466.8204       1101.9014
        47.0004         34.5004
 -10888115.71147  -8468798.82445  21603346.1414   21603343.4884       2348.4964
        46.5004         35.5004
  -4023399.58248  -3110200.72747  20208642.7814   20208638.1914       1241.2734
        48.7504         42.2504
  -3628245.42647  -2796634.08244  23383346.6564   23383345.2734       4604.5374
        44.2504         27.0004
   5813639.18847   4541382.91446  21477635.2504   21477629.7194       -662.4104
        46.7504         37.5004
   6218663.68046   4871198.22743  25174859.7584   25174858.2624       3848.7394
        39.7504         21.7504
  -5633030.85947  -4347753.15645  23044741.9454   23044740.6724       1313.4774
        42.5004         33.0004
 14  5 29 18 48 30.0000000  0 11G19G16G07G08G10G03G13G28G23G05G27
 -11503353.75447  -8912393.00445  22663252.6954   22663248.8204       3399.2264
        44.2504         33.0004
  15229883.25047  11864731.28143  24037231.7274   24037227.5984      -1948.0344
        43.2504         23.2504
  -6852603.26648  -5309074.92646  21037881.7344   21037877.3134       2428.0994
        48.5004         40.7504
 -10286198.41447  -7980541.55545  22370401.8364   22370399.4144       3190.6214
        46.0004         35.2504
  -5688040.09047  -4390905.74645  22308271.8754   22308269.4344       1085.6304
        47.0004         35.2504
 -10958028.82047  -8523276.55545  21590042.1804   21590039.6024       2330.4374
        46.5004         35.5004
  -4060225.46548  -3138896.24647  20201634.9614   20201630.3954       1227.5294
        48.2504         42.5004
  -3766188.50447  -2904122.07044  23357096.2814   23357095.6724       4598.1034
        43.7504         24.7504
   5833855.77747   4557136.02046  21481482.4454   21481476.8554       -673.8864
        47.2504         37.5004
   6103536.09846   4781488.41043  25152950.6564   25152950.2774       3837.5864
        39.5004         21.5004
  -5671938.22347  -4378070.56645  23037338.0784   23037336.6724       1296.9124
        43.2504         32.0004
 14  5 29 18 49  0.0000000  0 11G19G16G07G08G10G03G13G28G23G05G27
 -11604948.91447  -8991557.96145  22643919.1954   22643915.9574       3386.5054
        43.5004         33.0004
  15288355.09046  11910293.68843  24048357.9534   24048354.8444      -1949.0614
        41.5004         22.5004
  -6925360.52048  -5365768.87146  21024036.6954   21024032.0864       2425.2424
        48.7504         41.0004
 -10381882.22747  -8055100.34445  22352194.0864   22352190.9384       3189.4604
        46.7504         35.0004
  -5720126.43747  -4415908.13345  22302166.1414   22302163.2464       1069.5454
        47.5004         35.0004
 -11027402.94147  -8577334.29745  21576840.4694   21576837.5084       2312.4714
        46.5004         35.0004
  -4096642.46548  -3167273.15247  20194705.4384   20194700.6484       1213.9004
        48.0004         42.0004
  -3903941.20747  -3011461.69944  23330882.4534   23330882.1764       4591.7574
        43.2504         26.7504
   5854411.59447   4573153.46546  21485393.7814   21485388.1844       -685.1944
        47.2504         37.2504
   5988741.15246   4692037.85543  25131106.9534   25131106.3164       3826.4984
        40.7504         22.5004
  -5710352.80947  -4408004.01645  23030028.2194   23030027.0904       1280.4864
        42.5004         32.5004
 14  5 29 18 49 30.0000000  0 11G19G16G07G08G10G03G13G28G23G05G27
 -11706154.76647  -9070419.57045  22624660.4534   22624656.8484       3373.5284
        43.7504         33.0004
  15346859.55947  11955881.52344  24059491.4454   24059487.5434      -1950.1494
        42.5004         24.0004
  -6998027.64148  -5422392.59446  21010208.3754   21010203.9884       2422.2374
        49.0004         41.2504
 -10477526.87147  -8129628.60945  22333993.3364   22333990.8204       3188.1554
        46.0004         35.2504
  -5751726.84847  -4440531.87945  22296152.4144   22296150.3244       1053.3474
        46.2504         34.5004
 -11096232.43047  -8630967.64845  21563742.8594   21563740.4964       2294.3164
        46.2504         35.0004
  -4132645.64548  -3195327.59447  20187854.0554   20187848.9964       1200.1064
        48.0004         42.0004
  -4041497.32047  -3118648.12544  23304705.9454   23304705.7114       4585.2044
        44.0004         27.0004
   5875310.14547   4589437.98046  21489370.7114   21489365.7504       -696.6184
        46.7504         36.5004
   5874285.36346   4602851.47343  25109325.8594   25109325.3554       3815.1934
        40.7504         22.0004
  -5748269.95347  -4437549.84045  23022812.4224   23022811.3014       1263.9054
        43.7504         31.7504
 14  5 29 18 50  0.0000000  0 11G19G16G07G08G10G03G13G28G23G05G27
 -11806979.27347  -9148984.00845  22605474.6954   22605470.5904       3360.8174
        44.0004         32.7504
  15405383.90647  12001484.83643  24070627.8984   24070624.2734      -1950.8124
        42.0004         23.7504
  -7070614.90248  -5478954.07846  20996395.4454   20996390.7424       2419.5754
        48.7504         41.0004
 -10573142.80547  -8204134.50845  22315798.4844   22315795.2544       3187.1984
        46.2504         35.0004
  -5782852.89147  -4464785.98845  22290229.6174   22290226.8594       1037.5354
        46.7504         34.2504
 -11164526.07847  -8684183.46145  21550747.1024   21550743.9804       2276.4554
        46.0004         35.5004
  -4168244.35248  -3223066.87146  20181079.8524   20181075.2154       1186.6244
        48.0004         41.5004
  -4178865.55547  -3225688.18744  23278565.8364   23278565.2664       4578.9414
        44.0004         27.5004
   5896540.11748   4605980.74246  21493410.7974   21493405.5234       -707.6664
        48.0004         36.7504
   5760160.03546   4513922.66043  25087608.6414   25087607.8874       3804.1784
        40.5004         22.7504
  -5785699.78147  -4466715.93445  23015690.2344   23015688.6724       1247.6614
        43.0004         32.0004
 14  5 29 18 50 30.0000000  0 11G19G16G07G08G10G03G13G28G23G05G27
 -11907413.57047  -9227244.39145  22586362.0394   22586358.3914       3347.8104
        42.7504         33.5004
  15463931.83647  12047106.53543  24081769.1884   24081766.2304      -1951.5984
        42.0004         22.2504
  -7143116.43447  -5535448.76646  20982598.8284   20982594.3014       2416.7184
        47.0004         40.7504
 -10668724.14847  -8278613.44545  22297609.5234   22297606.7384       3186.0454
        46.7504         35.0004
  -5813499.91447  -4488666.83245  22284397.5944   22284395.0204       1021.5674
        47.7504         34.5004
 -11232276.60247  -8736976.05945  21537854.8524   21537851.3554       2258.3514
        45.7504         35.0004
  -4203431.61747  -3250485.53147  20174384.0864   20174378.9064       1172.9094
        47.7504         42.0004
  -4316038.80947  -3332576.32444  23252462.3984   23252462.2584       4572.4424
        43.0004         27.0004
   5918106.72747   4622785.82446  21497514.9304   21497509.6914       -718.8874
        47.5004         36.7504
   5646372.94546   4425257.39843  25065956.5944   25065955.1174       3792.9034
        40.7504         23.2504
  -5822636.07847  -4495497.47745  23008661.5394   23008659.9024       1231.2104
        42.2504         31.7504
 14  5 29 18 51  0.0000000  0 11G19G16G07G08G10G03G13G28G23G05G27
 -12007463.37547  -9305205.15645  22567323.8134   22567319.3134       3334.9934
        44.0004         33.2504
  15522492.09446  12092737.85544  24092912.6174   24092909.4924      -1952.0094
        41.0004         24.2504
  -7215541.06648  -5591883.53146  20968816.9844   20968812.4614       2414.1544
        48.7504         40.2504
 -10764279.98447  -8353072.50445  22279425.9614   22279423.2624       3185.1954
        47.5004         35.0004
  -5843677.61347  -4512181.95745  22278654.9614   22278652.3164       1005.9234
        47.0004         34.2504
 -11299490.91847  -8789350.83245  21525064.1174   21525061.0474       2240.4774
        46.7504         35.5004
  -4238215.29348  -3277589.72347  20167764.9694   20167759.9694       1159.4564
        48.5004         42.0004
  -4453023.59447  -3439317.59044  23226394.8054   23226394.5664       4566.1604
        43.5004         27.0004
   5940000.28147   4639845.66046  21501680.9614   21501675.6564       -729.7854
        47.5004         37.2504
   5532917.59847   4336850.60243  25044366.8204   25044365.2384       3781.8454
        42.0004         22.7504
  -5859087.30547  -4523901.03145  23001724.9774   23001723.4694       1215.0414
        43.7504         31.0004
 14  5 29 18 51 30.0000000  0 11G19G16G07G08G10G03G13G28G23G05G27
 -12107114.64147  -9382855.39845  22548360.7584   22548355.8524       3321.7094
        44.5004         33.5004
  15581073.58646  12138385.69143  24104061.0004   24104057.5664      -1952.7164
        41.5004         22.7504
  -7287877.16048  -5648249.31646  20955052.0864   20955047.5824       2411.2034
        49.2504         40.2504
 -10859799.31647  -8427503.12945  22261248.9144   22261246.3554       3183.9784
        47.0004         35.0004
  -5873375.81647  -4535323.43045  22273003.8054   22273001.2234        989.9404
        47.7504         34.5004
 -11366156.59047  -8841298.10945  21512377.8914   21512374.9734       2222.1894
        46.2504         35.2504
  -4272583.37548  -3304370.07046  20161224.9534   20161219.8444       1145.6034
        48.2504         41.5004
  -4589807.40247  -3545902.22744  23200366.1414   23200365.2894       4559.4604
        43.0004         27.2504
   5962231.19548   4657168.36346  21505911.7194   21505906.8554       -741.0304
        48.0004         36.5004
   5419807.28146   4248712.67643  25022842.1724   25022841.2424       3770.3444
        41.2504         22.7504
  -5895041.96147  -4551917.65245  22994882.3834   22994881.7854       1198.4894
        42.5004         31.5004
 14  5 29 18 52  0.0000000  0 11G19G16G07G08G10G03G13G28G23G05G27
 -12206376.32447  -9460202.05545  22529471.6254   22529467.2424       3308.7234
        46.0004         32.5004
  15639662.32046  12184039.17243  24115210.1644   24115206.5514      -1952.9584
        41.5004         22.0004
  -7360136.08648  -5704554.95746  20941301.4614   20941296.9924       2408.6314
        49.5004         40.7504
 -10955294.18447  -8501914.67245  22243077.3054   22243074.0744       3183.1624
        47.5004         34.7504
  -5902607.68447  -4558101.53145  22267440.8054   22267438.4734        974.3964
        47.7504         34.7504
 -11432283.70347  -8892825.70745  21499794.3984   21499791.1134       2204.2374
        45.7504         35.0004
  -4306546.44548  -3330834.81247  20154762.4224   20154756.9064       1132.1024
        48.7504         42.0004
  -4726400.21147  -3652338.07044  23174372.9144   23174372.1884       4553.0944
        43.7504         28.0004
   5984786.69947   4674744.01646  21510203.8134   21510198.4304       -751.8504
        47.7504         36.2504
   5307032.02746   4160835.84043  25001381.0394   25001380.8134       3759.1754
        41.0004         23.0004
  -5930511.57047  -4579556.31645  22988132.8754   22988132.3834       1182.3204
        44.5004         31.5004
 14  5 29 18 52 30.0000000  0 11G19G16G07G08G10G03G13G28G23G05G27
 -12305245.21947  -9537242.64545  22510656.6564   22510652.9884       3295.6304
        44.2504         33.0004
  15698256.16046  12229696.63743  24126360.0004   24126356.5864      -1953.1284
        41.0004         22.5004
  -7432317.80548  -5760800.43446  20927565.6804   20927560.8834       2406.0574
        48.5004         40.5004
 -11050764.33247  -8576306.96945  22224910.0634   22224906.5354       3182.3384
        46.7504         35.2504
  -5931374.23047  -4580517.06645  22261967.5474   22261964.5594        958.8854
        47.2504         34.7504
 -11497870.52747  -8943932.30945  21487313.9534   21487310.5314       2186.2274
        47.5004         35.2504
  -4340103.68448  -3356983.32047  20148376.2194   20148371.3364       1118.5754
        49.2504         42.0004
  -4862799.94547  -3758623.44944  23148417.4224   23148415.9064       4546.6584
        44.5004         28.2504
   6007666.73047   4692572.53946  21514557.4304   21514552.6214       -762.6684
        47.0004         36.0004
   5194594.53146   4073222.22744  24979985.8984   24979984.3554       3747.9174
        41.2504         25.7504
  -5965495.68747  -4606816.66445  22981475.7894   22981474.9344       1166.1374
        44.5004         31.5004
 14  5 29 18 53  0.0000000  0 11G19G16G07G08G10G03G13G28G23G05G27
 -12403720.18447  -9613976.28145  22491917.7274   22491913.8674       3282.4994
        43.0004         34.0004
  15756850.95346  12275354.87543  24137510.2344   24137506.5864      -1953.1604
        40.2504         22.5004
  -7504423.80548  -5816986.91046  20913844.1804   20913839.8284       2403.5334
        50.0004         40.7504
 -11146211.61347  -8650681.43045  22206746.8054   22206743.8364       3181.5764
        45.5004         34.5004
  -5959678.11348  -4602572.08245  22256580.8284   22256578.3364        943.4634
        48.2504         34.7504
 -11562917.99647  -8994618.64546  21474935.4064   21474932.3954       2168.2494
        46.5004         36.0004
  -4373255.96548  -3382816.28947  20142067.6024   20142062.9024       1105.0764
        48.5004         42.0004
  -4999006.73447  -3864758.50044  23122498.1724   23122496.8554       4540.2264
        43.7504         27.5004
   6030868.32448   4710651.60545  21518973.4384   21518967.7424       -773.3864
        48.7504         35.5004
   5082494.68046   3985871.71543  24958653.2814   24958652.4774       3736.6624
        40.5004         22.2504
  -5999995.84447  -4633699.89845  22974910.6804   22974909.9454       1150.0054
        44.2504         31.5004
 14  5 29 18 53 30.0000000  0 11G19G16G07G08G10G03G13G28G23G05G27
 -12501790.78947  -9690394.84045  22473256.0394   22473251.3554       3269.0204
        44.5004         34.5004
  15815452.39146  12321018.27043  24148662.1804   24148658.1684      -1953.3814
        41.2504         22.5004
  -7576446.44148  -5873108.43446  20900138.9224   20900134.2704       2400.7554
        49.5004         41.0004
 -11241628.48847  -8725032.20745  22188589.8364   22188586.1454       3180.5634
        46.0004         34.7504
  -5987512.58647  -4624261.33645  22251284.1414   22251281.7894        927.8164
        47.2504         34.2504
 -11627416.74247  -9044877.38746  21462661.4144   21462658.3834       2149.9584
        46.0004         36.0004
  -4405994.56648  -3408326.90247  20135837.7974   20135833.0474       1091.2874
        48.5004         42.0004
  -5135011.51647  -3970736.12944  23096616.6174   23096616.0354       4533.4934
        43.0004         28.0004
   6054398.10948   4728986.44546  21523450.5004   21523445.8834       -784.3264
        48.0004         36.7504
   4970742.30946   3898791.96143  24937388.5234   24937386.7704       3725.0794
        40.5004         22.5004
  -6034004.17247  -4660199.91845  22968438.8204   22968438.1884       1133.6114
        42.2504         32.0004
 14  5 29 18 54  0.0000000  0 11G19G16G07G08G10G03G13G28G23G05G27
 -12599457.60947  -9766498.76245  22454670.7584   22454666.2274       3255.5614
        45.0004         33.5004
  15874054.71146  12366682.34843  24159812.9384   24159810.2464      -1953.4114
        40.5004         22.5004
  -7648388.66848  -5929167.29746  20886448.4614   20886444.1254       2398.0744
        49.0004         41.5004
 -11337018.50847  -8799362.04745  22170437.5004   22170433.8594       3179.6674
        47.2504         34.7504
  -6014882.64848  -4645588.69545  22246076.1954   22246073.8134        912.3354
        48.0004         34.5004
 -11691368.74247  -9094710.11745  21450491.9064   21450488.5394       2131.7334
        45.7504         35.0004
  -4438322.16448  -3433517.25047  20129685.8914   20129681.0084       1077.5874
        48.0004         42.0004
  -5270815.76647  -4076557.49644  23070773.6954   23070773.1094       4526.8084
        43.5004         28.5004
   6078252.02748   4747573.82446  21527990.4384   21527984.8714       -795.1314
        48.0004         36.0004
   4859335.98446   3811981.87144  24916187.4454   24916187.0124       3713.5444
        39.2504         24.0004
  -6067524.02047  -4686319.27745  22962060.5784   22962059.7974       1117.3284
        42.5004         31.7504
 14  5 29 18 54 30.0000000  0 11G19G16G07G08G10G03G13G28G23G05G27
 -12696714.46547  -9842283.23845  22436162.7584   22436158.6254       3241.8954
        46.2504         34.0004
  15932659.11346  12412348.03543  24170965.8444   24170962.2704      -1953.4804
        40.7504         22.0004
  -7720247.19948  -5985160.94146  20872774.4844   20872769.6764       2395.2844
        49.2504         41.2504
 -11432378.28147  -8873668.32445  22152290.8134   22152288.0434       3178.6594
        47.5004         35.5004
  -6041786.29348  -4666552.62945  22240956.4454   22240954.2934        896.7884
        48.0004         34.5004
 -11754769.48447  -9144113.28545  21438427.6724   21438424.3674       2113.3584
        46.0004         35.0004
  -4470234.69148  -3458384.16846  20123613.0554   20123608.4734       1063.7514
        49.2504         41.7504
  -5406414.74647  -4182218.93444  23044970.1334   23044969.5394       4519.9664
        43.5004         28.2504
   6102432.61748   4766415.76646  21532591.6484   21532586.4574       -806.0204
        48.0004         37.0004
   4748280.69546   3725445.35243  24895055.4384   24895053.5904       3701.8434
        40.2504         23.0004
  -6100551.76247  -4712055.18745  22955775.7584   22955774.3554       1100.9254
        43.5004         32.5004
 14  5 29 18 55  0.0000000  0 11G19G16G07G08G10G03G13G28G23G05G27
 -12793561.04347  -9917748.01245  22417733.8834   22417729.3984       3228.2194
        45.5004         33.7504
  15991260.93046  12458011.72743  24182117.2114   24182114.0704      -1953.3944
        39.5004         22.7504
  -7792024.03948  -6041090.94146  20859115.9774   20859111.2464       2392.5614
        49.7504         41.0004
 -11527710.26247  -8947952.94146  22134150.0554   22134146.8634       3177.7334
        47.7504         36.0004
  -6068226.99647  -4687155.82045  22235925.0554   22235922.6724        881.3574
        47.7504         34.5004
 -11817619.88747  -9193087.62545  21426467.3754   21426464.1844       2095.0134
        46.2504         35.0004
  -4501733.80148  -3482928.94546  20117618.9224   20117614.2704       1049.9704
        49.2504         41.5004
  -5541809.23047  -4287720.99644  23019205.3984   23019204.6094       4513.1494
        43.2504         28.5004
   6126936.43848   4785509.57046  21537254.5004   21537249.6604       -816.7944
        48.5004         36.5004
   4637576.46146   3639182.35243  24873988.5704   24873987.2194       3690.1414
        40.5004         22.5004
  -6133089.75847  -4737409.48045  22949584.0554   22949582.8164       1084.6004
        44.2504         32.0004
 14  5 29 18 55 30.0000000  0 11G19G16G07G08G10G03G13G28G23G05G27
 -12889991.44147  -9992888.51245  22399382.8444   22399379.4734       3214.3474
        45.5004         34.2504
  16049861.05946  12503674.12543  24193268.5084   24193265.1094      -1953.3384
        40.2504         22.7504
  -7863716.08248  -6096954.85946  20845473.4384   20845468.7304       2389.7354
        49.0004         40.2504
 -11623011.56648  -9022213.65646  22116015.0084   22116011.5944       3176.7104
        48.5004         36.0004
  -6094203.11747  -4707397.00045  22230982.2034   22230979.6374        865.8714
        47.5004         33.7504
 -11879915.52047  -9241629.67645  21414612.7114   21414609.9264       2076.5214
        46.5004         34.7504
  -4532815.28548  -3507148.30547  20111704.4304   20111699.8914       1036.0494
        49.5004         42.2504
  -5676994.21547  -4393059.82444  22993480.9774   22993479.7544       4506.1664
        43.5004         27.7504
   6151765.56648   4804856.86346  21541979.3594   21541974.6024       -827.6384
        48.5004         36.2504
   4527228.23846   3553196.74643  24852990.2114   24852988.7894       3678.2744
        40.5004         23.0004
  -6165134.89847  -4762379.70345  22943485.2344   22943484.7584       1068.1714
        44.5004         32.0004
 14  5 29 18 56  0.0000000  0 11G19G16G07G08G10G03G13G28G23G05G27
 -12986009.38347 -10067707.61745  22381112.2504   22381107.6524       3200.5984
        46.7504         34.0004
  16108450.70346  12549328.32043  24204417.9534   24204414.5124      -1952.9884
        40.2504         22.0004
  -7935329.39848  -6152757.44146  20831845.5084   20831841.2854       2387.1114
        50.5004         41.0004
 -11718288.65248  -9096455.49246  22097884.2664   22097880.5554       3175.9034
        48.5004         36.5004
  -6119722.31648  -4727282.14145  22226125.5704   22226123.3554        850.6404
        48.0004         34.0004
 -11941661.92647  -9289743.75045  21402862.9844   21402859.9614       2058.2144
        46.2504         35.2504
  -4563484.81648  -3531046.66046  20105868.1484   20105863.1764       1022.3184
        49.2504         41.2504
  -5811974.68047  -4498239.29344  22967794.1254   22967793.5784       4499.3494
        43.2504         27.5004
   6176912.75848   4824451.99646  21546764.6884   21546759.6134       -838.2404
        48.2504         36.7504
   4417231.38347   3467484.93043  24832058.3914   24832056.8524       3666.5624
        42.0004         22.5004
  -6196693.35247  -4786970.71545  22937480.7734   22937479.6764       1051.9484
        44.0004         31.7504
 14  5 29 18 56 30.0000000  0 11G19G16G07G08G10G03G13G28G23G05G27
 -13081608.95747 -10142200.72345  22362919.1024   22362915.2384       3186.6524
        45.0004         34.0004
  16167030.73846  12594975.03143  24215566.0314   24215561.9024      -1952.6684
        39.2504         21.7504
  -8006860.83648  -6208496.22346  20818233.6174   20818229.2194       2384.3814
        48.5004         40.7504
 -11813538.70748  -9170676.27346  22079758.4064   22079755.2624       3175.0024
        49.2504         36.0004
  -6144783.03547  -4746810.03145  22221357.0944   22221354.5234        835.3574
        47.0004         34.0004
 -12002854.62547  -9337426.35945  21391218.3754   21391215.1254       2039.7574
        46.7504         35.0004
  -4593738.84848  -3554621.25447  20100111.0164   20100106.1564       1008.4684
        49.5004         42.0004
  -5946746.25847  -4603255.96944  22942147.6804   22942147.4384       4492.3864
        42.5004         28.5004
   6202380.00048   4844296.52346  21551611.6024   21551606.2194       -848.9084
        48.7504         36.5004
   4307590.65646   3382050.62143  24811194.0634   24811192.4104       3654.6914
        41.5004         22.7504
  -6227762.30547  -4811180.26645  22931567.7344   22931567.3324       1035.6324
        44.2504         31.0004
 14  5 29 18 57  0.0000000  0 11G19G16G07G08G10G03G13G28G23G05G27
 -13176790.35547 -10216367.97345  22344806.8984   22344802.6994       3172.7134
        47.7504         34.5004
  16225596.28146  12640610.44143  24226709.6094   24226706.3634      -1952.1854
        38.0004         22.5004
  -8078313.30148  -6264173.45746  20804636.6174   20804632.0514       2381.7494
        49.0004         40.7504
 -11908764.73848  -9244878.32846  22061637.4534   22061634.2464       3174.2014
        48.7504         36.0004
  -6169389.37947  -4765983.84845  22216674.6564   22216671.6804        820.2114
        47.5004         34.0004
 -12063495.41847  -9384678.93045  21379678.6094   21379675.4924       2021.3604
        47.5004         35.2504
  -4623579.16848  -3577873.46946  20094432.5944   20094428.1094        994.6774
        50.0004         41.7504
  -6081310.10547  -4708110.80144  22916542.1334   22916540.0634       4485.4624
        43.2504         29.0004
   6228163.48448   4864387.47746  21556517.5634   21556512.4614       -859.4494
        49.0004         36.5004
   4198305.15246   3296893.09043  24790397.1094   24790396.5124       3642.8504
        40.5004         22.2504
  -6258344.57847  -4835010.61745  22925749.0634   22925747.6414       1019.4094
        44.5004         31.5004
 14  5 29 18 57 30.0000000  0 11G19G16G07G08G10G03G13G28G23G05G27
 -13271549.67647 -10290206.32445  22326774.7504   22326770.6484       3158.6444
        45.5004         33.7504
  16284146.20346  12686233.68443  24237851.7894   24237847.9454      -1951.6644
        39.7504         21.7504
  -8149685.06648  -6319787.81646  20791055.0084   20791050.4264       2379.0594
        50.2504         40.7504
 -12003965.56648  -9319060.75446  22043521.5944   22043518.7384       3173.3614
        48.7504         36.0004
  -6193541.43047  -4784803.68045  22212078.4844   22212076.1254        805.0684
        47.0004         34.0004
 -12123581.72347  -9431499.41845  21368244.6644   21368241.5354       2002.8774
        47.5004         35.0004
  -4653004.23048  -3600802.11347  20088833.2034   20088828.7154        980.8354
        50.5004         42.2504
  -6215663.30947  -4812801.48844  22890974.7344   22890973.5784       4478.4404
        42.5004         28.5004
   6254263.32848   4884724.94146  21561484.1174   21561479.1374       -869.9954
        49.0004         36.0004
   4089378.30947   3212015.04744  24769670.1484   24769668.2114       3630.8954
        42.2504         24.2504
  -6288438.88747  -4858460.72345  22920021.2974   22920020.8634       1003.1444
        44.0004         31.5004
 14  5 29 18 58  0.0000000  0 11G19G16G07G08G10G03G13G28G23G05G27
 -11790461.82047  -9136111.84445  22608616.3364   22608612.2424       3144.4054
        47.2504         34.2504
  17918095.44146  13959440.84443  24548781.8914   24548779.1644      -1950.9754
        39.2504         22.5004
  -6645554.22348  -5147737.80946  21077282.1094   21077277.3714       2376.3054
        49.5004         41.0004
 -10523718.73448  -8165621.62146  22325202.8524   22325200.1294       3172.4394
        48.5004         36.5004
  -4641820.64147  -3575670.64545  22507361.5474   22507358.8484        789.9744
        47.5004         33.5004
 -10607691.07447  -8250285.92645  21656708.7504   21656705.9614       1984.3124
        47.0004         34.7504
  -3106592.69148  -2395806.12546  20383105.9064   20383100.8244        966.9494
        49.2504         41.5004
  -4774380.51647  -3689723.85544  23165241.7194   23165240.5514       4471.2404
        43.5004         28.0004
   7856097.00848   6132906.94146  21866303.0314   21866298.2424       -880.4564
        48.7504         37.0004
   5556234.48846   4355019.87943  25048802.3134   25048801.7424       3618.7944
        40.2504         22.7504
  -4742625.07447  -3653930.45745  23214180.4384   23214179.5084        986.8734
        45.0004         31.2504
 14  5 29 18 58 30.0000000  0 11G19G16G07G08G10G03G13G28G23G05G27
 -11884371.46147  -9209288.11745  22590746.1254   22590741.7624       3130.3214
        47.5004         34.5004
  17976605.13346  14005032.70743  24559916.5784   24559912.5554      -1950.3234
        39.0004         22.5004
  -6716766.30548  -5203227.73846  21063730.4694   21063725.7234       2373.7364
        49.2504         41.5004
 -10618871.59048  -8239766.65245  22307096.1954   22307092.8754       3171.7624
        48.2504         35.5004
  -4665070.89547  -3593787.78545  22502936.6644   22502934.5084        775.0084
        47.2504         34.0004
 -10666667.57848  -8296241.61345  21645486.6174   21645482.5594       1965.8834
        48.2504         35.0004
  -3135187.03148  -2418087.45346  20377664.5944   20377659.7194        953.1454
        50.2504         41.7504
  -4908310.31247  -3794084.60944  23139755.8984   23139754.6094       4464.3274
        44.0004         29.0004
   7882824.48447   6153733.45345  21871389.3674   21871384.5984       -890.9164
        47.5004         35.7504
   5448027.63346   4270702.85943  25028211.0084   25028210.9614       3606.8954
        41.0004         22.7504
  -4771746.04747  -3676622.13345  23208638.3754   23208638.1334        970.6994
        44.5004         31.0004
 14  5 29 18 59  0.0000000  0 11G19G16G07G08G10G03G13G28G23G05G27
 -11977850.49247  -9282128.87145  22572957.6954   22572953.1454       3115.9684
        46.5004         34.0004
  18035093.28946  14050607.82844  24571046.3284   24571042.9804      -1949.6054
        39.7504         24.2504
  -6787896.39148  -5258653.77346  21050195.1024   21050190.2854       2371.0034
        49.2504         41.0004
 -10713998.88748  -8313891.77346  22288993.5784   22288990.3014       3170.9104
        48.2504         36.0004
  -4687870.43448  -3611553.70745  22498598.5944   22498596.2234        759.9854
        48.0004         33.5004
 -10725085.69147  -8341762.21945  21634369.5554   21634366.4264       1947.2704
        47.5004         34.5004
  -3163363.57448  -2440043.22346  20372302.5314   20372297.5704        939.2184
        50.2504         41.5004
  -5042024.30147  -3898277.19944  23114310.6254   23114309.7934       4457.1334
        43.2504         28.7504
   7909865.85548   6174804.55146  21876535.2734   21876530.3714       -901.3794
        48.7504         36.2504
   5340185.34046   4186669.90643  25007690.7344   25007688.9184       3594.7434
        40.5004         22.5004
  -4800378.73447  -3698933.29345  23203190.5474   23203189.1914        954.4234
        44.5004         31.2504
 14  5 29 18 59 30.0000000  0 11G19G16G07G08G10G03G13G28G23G05G27
 -12070894.32047  -9354630.50445  22555251.7894   22555246.8984       3101.4614
        47.2504         33.5004
  18093560.00046  14096166.23443  24582171.6884   24582168.6994      -1948.8904
        39.5004         22.7504
  -6858942.45748  -5314014.34846  21036675.0864   21036670.7974       2368.2024
        49.2504         41.2504
 -10809098.54347  -8387995.35546  22270897.0634   22270893.6644       3169.9894
        47.2504         36.2504
  -4710219.05147  -3628968.27045  22494345.8364   22494343.1174        744.9544
        47.0004         34.2504
 -10782942.72748  -8386845.61745  21623359.7424   21623356.4264       1928.5684
        48.0004         35.5004
  -3191119.41048  -2461671.17647  20367020.7974   20367016.3554        925.1954
        50.0004         42.5004
  -5175519.08247  -4002298.97344  23088907.0004   23088906.1604       4449.8264
        43.0004         28.5004
   7937222.07048   6196120.99246  21881741.1174   21881736.3954       -911.8744
        49.0004         36.5004
   5232711.59446   4102924.15243  24987238.7974   24987237.2814       3582.4584
        41.2504         23.0004
  -4828521.22747  -3720862.50045  23197834.5084   23197833.9264        938.0834
        44.0004         32.0004
 14  5 29 19  0  0.0000000  0 11G19G16G07G08G10G03G13G28G23G05G27
 -12163508.95747  -9426797.68445  22537628.1884   22537623.4534       3087.1554
        46.7504         34.0004
  18151994.29346  14141699.39843  24593291.7734   24593288.2664      -1947.8104
        40.7504         22.2504
  -6929913.03548  -5369316.09046  21023169.8984   21023164.7894       2365.6864
        49.0004         40.7504
 -10904179.40248  -8462084.29746  22252803.3674   22252800.2194       3169.3624
        48.5004         36.2504
  -4732126.77347  -3646039.27345  22490176.6334   22490174.5044        730.2574
        45.5004         34.0004
 -10840246.20748  -8431497.66045  21612454.8834   21612451.9384       1910.1164
        48.0004         35.5004
  -3218462.34848  -2482977.38746  20361817.7344   20361812.7734        911.4314
        50.0004         41.5004
  -5308801.79347  -4106155.49644  23063544.8364   23063543.3244       4442.7574
        43.7504         28.2504
   7964883.62148   6217675.35546  21887004.9304   21886999.7854       -922.0524
        49.7504         36.0004
   5125599.07046   4019459.83644  24966855.2344   24966854.6954       3570.4174
        38.7504         24.2504
  -4856182.35547  -3742416.63345  23192571.2504   23192570.0784        922.0384
        44.5004         31.7504
 14  5 29 19  0 30.0000000  0 11G19G16G07G08G10G03G13G28G23G05G27
 -12255683.23047  -9498621.76645  22520087.0784   22520083.3054       3072.4764
        45.5004         34.2504
  18210402.57446  14187212.28943  24604406.2194   24604403.2504      -1946.9434
        40.7504         22.5004
  -7000798.98848  -5424551.89546  21009680.9144   21009676.2814       2362.8654
        49.7504         41.2504
 -10999232.71148  -8536151.77046  22234715.2424   22234712.4924       3168.4444
        48.0004         36.0004
  -4753586.49247  -3662761.18445  22486093.3054   22486090.5084        715.3244
        46.2504         33.2504
 -10896986.70748  -8475711.02345  21601657.6644   21601654.8984       1891.3504
        48.2504         35.5004
  -3245383.06248  -2503954.59046  20356694.8134   20356690.0164        897.3574
        50.2504         41.5004
  -5441862.15247  -4209838.76644  23038223.4304   23038222.3094       4435.3454
        42.7504         29.2504
   7992858.38748   6239473.78146  21892328.3054   21892323.1564       -932.4924
        49.0004         36.0004
   5018858.52046   3936285.41443  24946543.1644   24946542.2544       3558.0184
        40.0004         23.0004
  -4883353.66847  -3763589.06645  23187400.3284   23187399.4304        905.7104
        45.0004         32.0004
 14  5 29 19  1  0.0000000  0 11G19G16G07G08G10G03G13G28G23G05G27
 -12347419.03947  -9570104.16445  22502630.9304   22502626.2424       3057.8604
        44.2504         34.5004
  18268778.69146  14232700.06643  24615514.7894   24615511.8054      -1945.8714
        41.5004         22.5004
  -7071604.52748  -5479725.02746  20996206.8364   20996202.3404       2360.1854
        49.0004         41.2504
 -11094263.41047  -8610201.61746  22216632.1484   22216628.3554       3167.6904
        47.0004         36.5004
  -4774604.09847  -3679138.59045  22482093.9534   22482091.1414        700.5874
        47.5004         34.0004
 -10953167.48447  -8519488.24245  21590967.1484   21590964.0864       1872.6934
        47.5004         35.2504
  -3271885.89148  -2524606.17246  20351651.3984   20351646.8554        883.4284
        49.2504         41.5004
  -5574703.59847  -4313351.44544  23012944.7274   23012943.6804       4428.0484
        43.5004         28.7504
   8021140.08248   6261511.36745  21897710.0944   21897705.6374       -942.7234
        48.2504         35.7504
   4912487.36346   3853398.82043  24926301.6094   24926300.9494       3545.7054
        40.0004         22.5004
  -4910039.91847  -3784383.53945  23182322.7504   23182322.0434        889.5424
        44.5004         32.0004
 14  5 29 19  1 30.0000000  0 11G19G16G07G08G10G03G13G28G23G05G27
 -12438714.28547  -9641243.26645  22485258.7814   22485253.7114       3043.1754
        47.0004         34.0004
  18327119.30546  14278160.22343  24626616.7734   24626613.9884      -1944.6874
        40.5004         21.2504
  -7142330.03948  -5534835.81246  20982748.2114   20982743.9534       2357.5174
        49.5004         41.2504
 -11189271.92248  -8684234.17246  22198552.1644   22198548.9774       3166.9504
        49.0004         36.7504
  -4795181.77347  -3695173.19545  22478178.3594   22478174.9964        685.9234
        47.5004         33.2504
 -11008788.07448  -8562828.95745  21580382.8444   21580379.8914       1854.0204
        48.5004         35.2504
  -3297970.59048  -2544931.93046  20346687.7974   20346683.1414        869.4904
        49.5004         41.5004
  -5707324.77747  -4416692.48044  22987707.5704   22987706.3444       4420.7064
        44.5004         29.7504
   8049727.50048   6283787.18045  21903150.2734   21903145.5004       -952.9144
        49.5004         35.7504
   4806486.80946   3770801.00043  24906131.2584   24906129.7894       3533.3524
        40.5004         22.7504
  -4936241.75047  -3804800.55545  23177336.2274   23177335.5784        873.3944
        44.5004         31.7504
 14  5 29 19  2  0.0000000  0 11G19G16G07G08G10G03G13G28G23G05G27
 -12529572.87147  -9712042.13345  22467967.4454   22467963.6294       3028.6204
        45.5004         34.2504
  18385416.18846  14323586.31343  24637709.8984   24637707.3674      -1943.2294
        40.7504         21.5004
  -7212981.59048  -5589888.96546  20969303.5864   20969299.4844       2355.0524
        50.0004         40.5004
 -11284264.54748  -8758254.36346  22180475.9064   22180472.6684       3166.4214
        48.5004         36.2504
  -4815327.43047  -3710871.16045  22474344.4144   22474342.0234        671.5224
        47.7504         34.2504
 -11063854.09048  -8605737.53145  21569903.8054   21569900.8834       1835.5344
        48.5004         35.5004
  -3323643.24248  -2564936.62546  20341802.5864   20341797.6764        855.7554
        49.7504         41.2504
  -5839730.53547  -4519865.67645  22962511.4454   22962510.2424       4413.5254
        45.2504         30.0004
   8078612.83248   6306295.12946  21908646.9224   21908642.0394       -962.8444
        48.2504         36.0004
   4700851.38746   3688487.69143  24886028.2584   24886027.6334       3521.1814
        40.7504         23.0004
  -4961965.91847  -3824845.34045  23172440.8594   23172440.1604        857.4724
        43.5004         31.5004
 14  5 29 19  2 30.0000000  0 11G19G16G07G08G10G03G13G28G23G05G27
 -12619984.37147  -9782492.60945  22450763.3444   22450758.6374       3013.7174
        47.0004         34.0004
  18443675.27346  14368982.91843  24648796.5084   24648793.4304      -1941.9704
        39.0004         21.2504
  -7283550.98848  -5644878.09846  20955875.0634   20955870.5594       2352.3134
        48.5004         41.0004
 -11379233.32048  -8832255.98046  22162404.0234   22162400.6914       3165.6264
        49.5004         37.0004
  -4835034.61347  -3726227.46945  22470594.0004   22470591.7734        656.9064
        47.2504         33.5004
 -11118356.65647  -8648207.05545  21559532.6804   21559529.5634       1816.7524
        47.2504         35.5004
  -3348894.98048  -2584613.32846  20336997.0634   20336992.4304        841.7254
        49.5004         41.7504
  -5971911.80547  -4622863.94545  22937358.2974   22937357.0904       4406.0424
        44.5004         30.2504
   8107802.88748   6329040.52746  21914201.9694   21914197.5234       -973.0024
        49.0004         36.0004
   4595591.93446   3606467.37144  24865999.2424   24865997.5354       3508.6484
        40.5004         25.0004
  -4987204.57447  -3844511.84045  23167637.9304   23167637.7114        841.2894
        44.2504         30.7504
 14  5 29 19  3  0.0000000  0 11G19G16G07G08G10G03G13G28G23G05G27
 -12709950.16047  -9852595.78145  22433643.7194   22433638.9384       2998.8604
        47.2504         34.5004
  18501890.98846  14414345.74643  24659875.0944   24659871.9304      -1940.5244
        39.5004         21.5004
  -7354041.76248  -5699805.96146  20942460.7894   20942456.5394       2349.6924
        49.5004         41.5004
 -11474182.10548  -8906242.02046  22144335.4534   22144332.4494       3164.9604
        48.7504         36.7504
  -4854309.14547  -3741246.63745  22466926.9224   22466924.0704        642.4844
        47.0004         33.7504
 -11172298.82847  -8690239.90646  21549268.0704   21549264.7194       1798.0724
        46.5004         36.0004
  -3373729.21148  -2603964.69946  20332271.2504   20332266.8714        827.8084
        50.0004         41.0004
  -6103870.87947  -4725689.07445  22912247.7274   22912245.6804       4398.6364
        45.7504         30.5004
   8137293.18448   6352019.88345  21919813.6644   21919808.9844       -983.0104
        49.0004         35.7504
   4490705.92246   3524738.01243  24846038.9534   24846038.2774       3496.2004
        39.7504         22.5004
  -5011961.97747  -3863803.32045  23162927.2424   23162926.5354        825.2474
        43.7504         30.7504
 14  5 29 19  3 30.0000000  0 11G19G16G07G08G10G03G13G28G23G05G27
 -12799463.43047  -9922346.34045  22416609.4144   22416604.6844       2983.7764
        47.0004         34.5004
  18560065.60546  14459676.56643  24670945.8444   24670941.9774      -1939.1544
        40.0004         19.2504
  -7424449.15648  -5754668.85546  20929062.6644   20929058.2854       2346.9134
        49.5004         41.2504
 -11569106.28948  -8980208.86346  22126271.9694   22126268.7544       3164.1394
        49.0004         36.0004
  -4873148.07447  -3755926.37545  22463341.6024   22463338.8954        627.9644
        47.2504         33.5004
 -11225675.29747  -8731831.94945  21539110.3754   21539107.4344       1779.2164
        46.5004         35.5004
  -3398140.88348  -2622986.80946  20327625.6644   20327621.2934        813.7224
        49.0004         41.2504
  -6235601.73047  -4828336.38745  22887179.4384   22887178.2894       4391.0284
        45.2504         31.2504
   8167086.80148   6375235.58245  21925483.3754   21925478.7384       -993.1214
        49.2504         35.5004
   4386199.42246   3443304.41443  24826153.6024   24826151.3134       3483.5504
        39.0004         23.0004
  -5036233.77347  -3882716.40645  23158308.8204   23158307.5704        809.0604
        43.0004         31.5004
 14  5 29 19  4  0.0000000  0 11G19G16G07G08G10G03G13G28G23G05G27
 -12888525.23447  -9991745.11345  22399661.6254   22399657.1094       2968.7274
        47.5004         34.5004
  18618193.10246  14504970.68443  24682006.5474   24682003.5234      -1937.5834
        37.7504         19.2504
  -7494776.37548  -5809469.27347  20915679.7664   20915675.5554       2344.2414
        49.5004         42.0004
 -11664010.15648  -9054159.87946  22108212.3594   22108209.4454       3163.4624
        49.0004         36.5004
  -4891556.83247  -3770270.92645  22459838.7034   22459835.6764        613.6254
        46.7504         33.5004
 -11278489.30548  -8772985.70345  21529060.1094   21529057.1484       1760.4674
        48.7504         35.5004
  -3422133.30148  -2641682.21546  20323060.3914   20323055.5474        799.7474
        49.5004         41.0004
  -6367106.77047  -4930807.74245  22862154.8914   22862153.3834       4383.5014
        45.7504         32.0004
   8197178.68848   6398683.69946  21931209.9384   21931205.1254      -1003.0634
        48.7504         36.0004
   4282070.28946   3362164.86343  24806337.4454   24806335.8754       3470.9714
        39.5004         22.5004
  -5060024.23847  -3901254.43045  23153780.8284   23153780.2974        793.0154
        44.5004         31.7504
 14  5 29 19  4 30.0000000  0 11G19G16G07G08G10G03G13G28G23G05G27
 -12977123.63747 -10060782.77745  22382802.2894   22382796.9104       2953.2804
        47.2504         34.5004
  18676281.09046  14550233.94543  24693060.5474   24693057.2114      -1936.2664
        38.0004         19.0004
  -7565013.98848  -5864199.86746  20902314.0474   20902309.9694       2341.2544
        49.2504         41.5004
 -11758883.93448  -9128087.45746  22090158.5084   22090155.2734       3162.4594
        49.5004         36.7504
  -4909527.05547  -3784273.73845  22456418.9384   22456416.0984        599.0074
        47.5004         34.2504
 -11330730.12147  -8813692.82845  21519119.1484   21519116.1454       1741.3614
        46.7504         34.7504
  -3445696.28148  -2660043.01246  20318576.5474   20318571.9184        785.4334
        48.7504         41.2504
  -6498374.94947  -5033094.53545  22837175.3524   22837173.8164       4375.6064
        45.5004         30.2504
   8227577.39848   6422370.90245  21936994.4064   21936989.7894      -1013.2904
        48.7504         35.5004
   4178330.10546   3281328.38743  24786596.5474   24786595.1604       3458.0064
        40.5004         22.7504
  -5083324.03147  -3919410.12945  23149347.0314   23149346.8674        776.6604
        43.7504         31.5004
 14  5 29 19  5  0.0000000  0 11G19G16G07G08G10G03G13G28G23G05G27
 -13065264.29347 -10129463.78545  22366029.2974   22366024.6334       2938.0224
        47.5004         34.7504
  18734319.69546  14595458.81343  24704104.8444   24704101.9064      -1934.6204
        38.5004         19.2504
  -7635169.40248  -5918866.41846  20888964.3134   20888959.7194       2338.5144
        49.2504         41.2504
 -11853735.19148  -9201997.47746  22072108.3444   22072105.6564       3161.7094
        49.5004         37.0004
  -4927068.75047  -3797942.64545  22453081.2114   22453078.4964        584.7234
        46.7504         33.7504
 -11382405.09847  -8853959.03945  21509285.4774   21509282.7424       1722.4994
        47.5004         35.5004
  -3468837.48048  -2678075.14146  20314173.0554   20314168.3634        771.3734
        48.5004         41.5004
  -6629412.89147  -5135201.93045  22812239.7584   22812237.9804       4367.9314
        45.5004         31.2504
   8258273.85948   6446290.11745  21942836.2734   21942831.0984      -1023.2154
        48.7504         35.5004
   4074972.28546   3200789.86343  24766927.9844   24766926.4534       3445.2614
        39.2504         22.7504
  -5106141.54747  -3937189.99645  23145005.2974   23145004.3914        760.5844
        43.0004         31.2504
 14  5 29 19  5 30.0000000  0 11G19G16G07G08G10G03G13G28G23G05G27
 -13152940.11747 -10197782.57445  22349344.6644   22349340.4384       2922.5274
        46.7504         35.2504
  18792311.28946  14640647.05143  24715140.6564   24715137.3594      -1933.0534
        37.0004         19.0004
  -7705237.80148  -5973465.15246  20875630.3594   20875625.6724       2335.6134
        49.0004         41.0004
 -11948559.49248  -9275886.50846  22054064.2664   22054061.2114       3160.8104
        49.5004         37.2504
  -4944179.08647  -3811275.43445  22449825.1024   22449822.4884        570.3454
        47.7504         33.2504
 -11433508.98447  -8893780.21945  21499561.1094   21499557.7974       1703.4634
        47.5004         35.2504
  -3491551.69548  -2695774.55546  20309850.4694   20309846.0514        757.1404
        49.0004         41.2504
  -6760214.63347  -5237125.25445  22787348.4224   22787347.2624       4360.0584
        46.7504         31.5004
   8289271.30947   6470443.86745  21948734.2974   21948729.9844      -1033.2484
        47.5004         34.7504
   3972003.08246   3120554.12943  24747333.1644   24747332.4104       3432.3074
        37.5004         22.7504
  -5128472.68747  -3954590.89545  23140755.5474   23140754.9884        744.3714
        43.5004         31.5004
 14  5 29 19  6  0.0000000  0 11G19G16G07G08G10G03G13G28G23G05G27
 -13240158.88747 -10265745.19545  22332748.1334   22332743.3914       2907.2924
        43.7504         32.7504
  18850243.76246  14685789.18042  24726163.0314   24726161.3634      -1931.0824
        37.0004         17.2504
  -7775229.00847  -6028003.73846  20862311.4384   20862306.8284       2333.0404
        47.2504         39.2504
 -12043367.23047  -9349762.62945  22036023.0314   22036019.6214       3160.2584
        47.0004         35.5004
  -4960869.94547  -3824281.34845  22446649.0234   22446646.4804        556.3624
        46.0004         32.2504
 -11484051.27747  -8933163.79745  21489943.1094   21489939.6764       1684.7434
        45.2504         33.5004
  -3513848.87147  -2713148.99646  20305607.4614   20305603.2384        743.2394
        46.5004         39.5004
  -6890789.14147  -5338871.52345  22762501.6334   22762499.5394       4352.4844
        44.5004         30.5004
   8320558.40247   6494823.30545  21954688.4064   21954683.4414      -1042.9034
        45.7504         33.5004
   3869413.80946   3040614.46943  24727811.9144   24727809.8284       3419.6424
        38.5004         22.7504
  -5150328.00047  -3971620.98844  23136596.6724   23136596.2384        728.5104
        42.2504         29.7504
 14  5 29 19  6 30.0000000  0 11G19G16G07G08G10G03G13G28G23G05G27
 -13326913.96147 -10333346.55145  22316239.1954   22316234.9304       2891.8364
        46.7504         35.0004
  18908119.87146  14730887.36343  24737177.5864   24737175.3634      -1929.2044
        37.2504         18.5004
  -7845138.38748  -6082478.57846  20849008.2664   20849003.8484       2330.3134
        49.2504         41.5004
 -12138153.80548  -9423622.27746  22017985.6804   22017982.2814       3159.5524
        49.7504         37.0004
  -4977138.62147  -3836958.30145  22443553.2504   22443550.3524        542.2894
        47.2504         34.5004
 -11534027.03147  -8972105.93045  21480433.2114   21480429.9694       1665.8584
        46.5004         35.0004
  -3535724.18448  -2730194.73446  20301444.6884   20301439.8554        729.1774
        48.7504         41.5004
  -7021130.44147  -5440436.07845  22737698.4694   22737696.2734       4344.7104
        46.0004         31.5004
   8352138.25448   6519430.86345  21960698.0314   21960693.5944      -1052.6624
        48.0004         35.5004
   3767210.80546   2960975.77743  24708362.6094   24708361.4654       3406.7674
        39.0004         23.5004
  -5171703.45347  -3988277.18745  23132529.2424   23132528.5004        712.5154
        42.5004         31.5004
 14  5 29 19  7  0.0000000  0 11G19G16G07G08G10G03G13G28G23G05G27
 -13413201.60947 -10400583.63745  22299819.0084   22299814.3634       2876.2554
        45.7504         34.7504
  18965938.86746  14775941.08243  24748180.4924   24748177.6954      -1927.3004
        39.0004         18.5004
  -7914964.02748  -6136888.16046  20835720.8444   20835716.1994       2327.5214
        49.5004         41.0004
 -12232917.80548  -9497464.31246  21999952.8674   21999949.3444       3158.8004
        49.0004         36.5004
  -4992985.43047  -3849306.52345  22440537.8364   22440535.5594        528.2274
        46.5004         34.0004
 -11583433.95347  -9010604.80145  21471031.2274   21471028.2194       1646.8974
        46.0004         35.5004
  -3557175.58648  -2746910.14846  20297363.3204   20297358.4264        715.0474
        49.2504         41.0004
  -7151235.59847  -5541816.63345  22712939.8834   22712938.3554       4336.8394
        46.7504         31.5004
   8384011.21548   6544266.82845  21966763.0944   21966758.7854      -1062.4324
        48.0004         35.0004
   3665396.94146   2881640.32043  24688988.4304   24688986.9454       3393.7954
        39.7504         22.5004
  -5192598.07847  -4004558.70745  23128552.9534   23128552.3324        696.4874
        44.2504         31.7504
 14  5 29 19  7 30.0000000  0 11G19G16G07G08G10G03G13G28G23G05G27
 -13499015.30947 -10467451.44145  22283489.4924   22283484.5864       2860.4574
        46.5004         35.0004
  19023702.99246  14820952.06643  24759172.9694   24759170.3524      -1925.4714
        39.5004         19.2504
  -7984701.29348  -6191228.87146  20822450.4454   20822445.9734       2324.5764
        50.0004         41.5004
 -12327655.14848  -9571285.58646  21981924.5004   21981921.7074       3157.9114
        49.0004         36.5004
  -5008407.59447  -3861323.85945  22437602.8284   22437600.6374        514.0724
        46.5004         33.7504
 -11632267.23447  -9048656.67645  21461738.4454   21461735.2894       1627.7764
        45.7504         35.7504
  -3578198.50848  -2763291.68046  20293362.4694   20293357.9304        700.7644
        48.5004         40.7504
  -7281099.28947  -5643009.01645  22688227.6644   22688225.6564       4328.7904
        46.7504         31.5004
   8416180.12947   6569333.40245  21972885.1254   21972880.5274      -1072.2974
        47.7504         35.0004
   3563977.99646   2802612.59044  24669688.8834   24669687.9144       3380.6324
        38.2504         24.0004
  -5213008.19547  -4020462.67645  23124669.2114   23124668.5594        680.3374
        44.0004         32.0004
 14  5 29 19  8  0.0000000  0 11G19G16G07G08G10G03G13G28G23G05G27
 -13584354.28547 -10533949.29345  22267249.8054   22267244.8444       2844.6334
        45.2504         34.7504
  19081408.89546  14865917.66443  24770153.9144   24770151.2734      -1923.5304
        39.2504         18.5004
  -8054351.46148  -6245501.71946  20809196.4064   20809191.7304       2321.6724
        49.7504         41.5004
 -12422367.29348  -9645087.21546  21963901.4694   21963898.5744       3157.0714
        49.0004         36.7504
  -5023408.98048  -3873013.31645  22434748.3674   22434746.3244        500.0464
        48.0004         34.5004
 -11680528.36747  -9086262.72345  21452554.7114   21452551.4534       1608.7044
        47.5004         35.7504
  -3598794.46548  -2779340.50846  20289443.0784   20289438.8554        686.5324
        49.5004         41.5004
  -7410721.90247  -5744013.55145  22663560.7894   22663559.2584       4320.7544
        46.7504         32.0004
   8448642.26248   6594628.46145  21979062.2734   21979057.3054      -1082.0714
        48.0004         34.7504
   3462953.89146   2723892.55943  24650464.2734   24650462.6684       3367.4704
        40.0004         22.7504
  -5232936.04347  -4035990.85545  23120877.7274   23120876.1214        664.2624
        43.0004         30.7504
 14  5 29 19  8 30.0000000  0 11G19G16G07G08G10G03G13G28G23G05G27
 -13669212.35547 -10600072.45745  22251101.5554   22251097.1174       2828.6024
        46.2504         35.0004
  19139058.23446  14910839.19543  24781123.9774   24781121.5394      -1921.6454
        38.5004         19.7504
  -8123910.24648  -6299703.35947  20795959.7734   20795955.3524       2318.6264
        50.0004         42.0004
 -12517050.32848  -9718866.16846  21945883.8204   21945880.3714       3156.1014
        49.2504         37.5004
  -5037987.25047  -3884373.08245  22431974.3984   22431972.0554        485.9424
        47.0004         34.0004
 -11728212.69947  -9123419.30945  21443480.5084   21443477.5474       1589.4784
        45.0004         35.0004
  -3618958.93048  -2795053.10946  20285606.3444   20285601.8014        672.1494
        48.5004         41.5004
  -7540097.98447  -5844825.98845  22638941.4064   22638939.4144       4312.5364
        46.7504         31.7504
   8481400.15247   6620153.96945  21985296.1484   21985291.0394      -1091.9304
        47.7504         34.2504
   3362329.88346   2645484.23444  24631316.1174   24631314.9184       3354.1344
        39.7504         24.5004
  -5252378.12547  -4051140.50045  23117177.2194   23117176.3674        648.0694
        43.7504         32.2504
 14  5 29 19  9  0.0000000  0 11G19G16G07G08G10G03G13G28G23G05G27
 -13753591.82447 -10665822.63745  22235045.2344   22235039.9024       2812.6494
        46.2504         34.7504
  19196644.76646  14955711.75043  24792082.2274   24792079.7194      -1919.5514
        39.0004         19.2504
  -8193381.92248  -6353837.11746  20782739.9614   20782735.0944       2315.7234
        49.5004         41.7504
 -12611708.84448  -9792626.01246  21927871.1564   21927867.9414       3155.2844
        49.5004         37.0004
  -5052148.91047  -3895408.20745  22429279.2584   22429277.3364        472.0554
        46.7504         33.5004
 -11775324.28147  -9160129.59845  21434515.6024   21434512.2074       1570.3864
        47.0004         35.2504
  -3638696.23848  -2810432.85946  20281850.0704   20281845.5274        657.9104
        48.7504         41.0004
  -7669230.64547  -5945448.72745  22614368.8204   22614366.6094       4304.4224
        46.7504         32.0004
   8514447.93847   6645905.37945  21991584.8674   21991580.2304      -1101.5934
        47.2504         34.0004
   3262103.55146   2567385.83644  24612244.3134   24612242.5984       3340.8784
        40.0004         25.5004
  -5271339.53547  -4065915.59045  23113568.8984   23113568.3954        632.0474
        43.2504         31.2504
 14  5 29 19  9 30.0000000  0 11G19G16G07G08G10G03G13G28G23G05G27
 -13837481.78147 -10731191.41045  22219081.1094   22219076.4024       2796.3324
        45.2504         35.2504
  19254175.14846  15000540.57443  24803030.2814   24803027.8634      -1917.6794
        39.5004         19.7504
  -8262757.30548  -6407895.85246  20769538.3204   20769533.5944       2312.5134
        50.5004         41.2504
 -12706334.09448  -9866359.93446  21909864.3364   21909861.0234       3154.1754
        49.5004         36.5004
  -5065886.95347  -3906113.24645  22426665.0004   22426663.0044        457.9354
        46.7504         34.0004
 -11821853.85247  -9196386.37545  21425661.3444   21425658.1484       1550.9864
        46.0004         34.5004
  -3657997.13748  -2825472.55146  20278177.0394   20278172.3754        643.3634
        48.5004         41.5004
  -7798109.91047  -6045874.02745  22589843.3834   22589841.7664       4295.9764
        46.2504         32.2504
   8547793.30547   6671888.65645  21997929.9534   21997926.0704      -1111.5124
        47.0004         34.0004
   3162284.64146   2489604.89143  24593249.6254   24593248.0164       3327.2974
        40.5004         23.7504
  -5289812.11747  -4080309.78945  23110053.5784   23110053.3674        615.7534
        42.5004         31.7504
 14  5 29 19 10  0.0000000  0 11G19G16G07G08G10G03G13G28G23G05G27
 -13920888.82047 -10796183.86345  22203209.0314   22203204.1994       2780.2354
        46.5004         35.2504
  19311638.75446  15045317.34843  24813965.2344   24813962.8444      -1915.4544
        38.2504         19.2504
  -8332044.92648  -6461886.19146  20756353.4224   20756348.1454       2309.5874
        50.0004         41.2504
 -12800934.61748  -9940074.59446  21891862.4924   21891859.2344       3153.3514
        49.0004         37.2504
  -5079212.00047  -3916496.46945  22424129.6414   22424127.7034        444.1684
        44.5004         33.5004
 -11867809.77747  -9232196.17245  21416916.0314   21416913.0434       1531.8644
        46.7504         35.5004
  -3676870.36348  -2840178.98846  20274585.7504   20274581.2234        629.1084
        49.2504         41.5004
  -7926743.50447  -6146107.89545  22565365.1484   22565363.2344       4287.7864
        46.5004         32.0004
   8581425.92647   6698095.77345  22004330.5704   22004325.7584      -1121.0874
        47.5004         33.5004
   3062865.62946   2412135.56344  24574329.7734   24574328.9694       3313.9674
        41.5004         25.2504
  -5307805.37147  -4094330.47745  23106630.0164   23106629.0234        599.7754
        43.7504         32.0004
 14  5 29 19 10 30.0000000  0 11G19G16G07G08G10G03G13G28G23G05G27
 -14003806.93047 -10860795.34045  22187429.8134   22187425.7194       2763.9374
        46.0004         35.0004
  19369037.56646  15090043.69943  24824888.7664   24824885.3524      -1913.2944
        39.7504         19.7504
  -8401240.65648  -6515804.93446  20743185.8914   20743181.1914       2306.5244
        50.0004         41.2504
 -12895506.43448 -10013766.88346  21873865.7274   21873862.7034       3152.3944
        48.5004         37.2504
  -5092122.12147  -3926556.36745  22421672.4454   22421671.0554        430.3374
        45.7504         33.0004
 -11913188.08647  -9267555.85945  21408280.9614   21408277.5084       1512.6104
        46.7504         35.7504
  -3695311.60948  -2854548.82046  20271076.4454   20271071.9964        614.7084
        49.5004         41.0004
  -8055126.29747  -6246146.32845  22540934.1644   22540932.7194       4279.4264
        46.2504         32.2504
   8615348.55147   6724528.86345  22010786.1484   22010781.7304      -1130.7544
        47.0004         34.2504
   2963852.41846   2334982.44544  24555488.7274   24555487.4104       3300.4404
        41.2504         24.7504
  -5325316.05947  -4107975.14545  23103297.8134   23103297.2774        583.6904
        42.5004         30.7504
 14  5 29 19 11  0.0000000  0 11G19G16G07G08G10G03G13G28G23G05G27
 -14086234.23847 -10925024.34845  22171745.4534   22171740.2584       2747.5774
        46.7504         35.0004
  19426369.30146  15134717.73843  24835798.4614   24835795.5354      -1911.0584
        40.0004         20.2504
  -8470344.18048  -6569651.82446  20730035.5944   20730031.0984       2303.4514
        49.2504         41.2504
 -12990049.80548 -10087437.00446  21855875.2734   21855871.8914       3151.4464
        48.5004         37.5004
  -5104619.41847  -3936294.58645  22419294.8914   22419292.6524        416.5774
        45.0004         33.5004
 -11957988.50447  -9302465.24645  21399755.7664   21399752.4534       1493.3474
        47.0004         35.5004
  -3713321.07048  -2868582.18746  20267649.3364   20267644.5904        600.3154
        48.0004         41.2504
  -8183257.31247  -6345988.56645  22516551.8754   22516550.1764       4271.0344
        45.5004         32.2504
   8649559.19148   6751186.39145  22017296.2814   22017292.0044      -1140.3554
        48.0004         34.2504
   2865245.93846   2258146.26244  24536724.3364   24536723.3164       3286.8834
        41.2504         25.2504
  -5342345.19147  -4121244.56245  23100056.8204   23100056.2624        567.6384
        43.0004         31.0004
 14  5 29 19 11 30.0000000  0 11G19G16G07G08G10G03G13G28G23G05G27
 -14168167.59047 -10988868.48845  22156152.9534   22156148.7384       2731.1124
        47.2504         35.2504
  19483633.43446  15179339.07843  24846695.9304   24846692.2274      -1908.8044
        41.0004         21.0004
  -8539353.82848  -6623425.57046  20716903.6024   20716898.8634       2300.3224
        48.7504         41.5004
 -13084563.49248 -10161084.00046  21837889.8594   21837886.3954       3150.4564
        49.0004         37.0004
  -5116704.69147  -3945711.74245  22416995.1254   22416992.9804        402.8424
        44.7504         33.7504
 -12002209.13347  -9336922.85545  21391340.6024   21391337.3714       1474.0214
        47.5004         35.2504
  -3730897.37148  -2882278.03146  20264304.8284   20264300.3164        585.8774
        48.7504         41.0004
  -8311133.94147  -6445632.57045  22492217.9844   22492216.0164       4262.5544
        45.7504         32.5004
   8684057.88348   6778068.37145  22023861.0234   22023857.1134      -1149.9564
        48.2504         33.7504
   2767048.90646   2181629.10543  24518038.3834   24518037.0824       3273.2344
        40.0004         23.7504
  -5358892.09047  -4134138.22345  23096908.2584   23096906.9184        551.5634
        43.5004         31.2504
 14  5 29 19 12  0.0000000  0 11G19G16G07G08G10G03G13G28G23G05G27
 -14249608.69947 -11052329.04345  22140655.4844   22140650.9494       2714.7044
        47.2504         35.5004
  19540824.16046  15223903.27343  24857578.7274   24857575.7544      -1906.3584
        40.5004         21.5004
  -8608273.23048  -6677128.98846  20703788.6254   20703784.3674       2297.3134
        48.0004         41.2504
 -13179051.27048 -10234710.79746  21819909.2344   21819905.7114       3149.5934
        48.5004         37.5004
  -5128384.06647  -3954812.61745  22414772.5164   22414771.0044        389.3134
        44.5004         33.2504
 -12045854.08647  -9370931.88745  21383035.5164   21383031.9574       1454.8324
        47.2504         35.5004
  -3748044.29348  -2895639.29746  20261042.3444   20261037.6484        571.5644
        49.5004         41.0004
  -8438759.00047  -6545080.56245  22467931.6564   22467929.6024       4254.1694
        45.2504         33.0004
   8718839.55147   6805170.83645  22030480.1884   22030475.8754      -1159.3894
        47.7504         33.7504
   2669258.69946   2105428.97743  24499429.7894   24499427.5594       3259.6744
        39.2504         22.5004
  -5374961.52347  -4146659.81645  23093850.4534   23093849.7234        535.6484
        43.7504         31.0004
 14  5 29 19 12 30.0000000  0 11G19G16G07G08G10G03G13G28G23G05G27
 -14330551.89547 -11115401.59845  22125253.0554   22125247.6604       2698.1074
        47.0004         35.5004
  19597943.12146  15268411.55143  24868447.9144   24868444.7464      -1903.9654
        40.0004         19.2504
  -8677098.19948  -6730758.82847  20690691.3444   20690686.7464       2294.1664
        49.0004         42.0004
 -13273509.59048 -10308314.65646  21801934.1174   21801931.2194       3148.6114
        49.7504         36.5004
  -5139655.55947  -3963595.66845  22412627.3054   22412625.9734        375.7164
        44.5004         33.5004
 -12088919.22747  -9404489.12945  21374840.3284   21374837.1804       1435.5054
        46.5004         34.5004
  -3764757.44548  -2908662.56246  20257861.5394   20257857.0044        557.1054
        49.2504         41.2504
  -8566127.57047  -6644328.69145  22443693.9774   22443691.7814       4245.6194
        44.5004         33.0004
   8753906.25047   6832495.41445  22037152.6414   22037148.9144      -1168.8904
        47.5004         34.0004
   2571880.40247   2029549.81644  24480898.8834   24480897.4734       3245.9434
        42.0004         25.7504
  -5390550.51647  -4158807.05145  23090884.4304   23090882.9494        519.6334
        45.0004         31.2504
 14  5 29 19 13  0.0000000  0 11G19G16G07G08G10G03G13G28G23G05G27
 -14410996.45747 -11178085.62545  22109944.1724   22109939.5904       2681.4854
        47.0004         35.5004
  19654987.47346  15312861.65643  24879302.8914   24879299.8134      -1901.4784
        40.2504         21.0004
  -8745829.82848  -6784315.93446  20677612.6724   20677607.8244       2291.0544
        48.7504         41.0004
 -13367939.56648 -10381896.42646  21783964.8834   21783961.4534       3147.6664
        48.7504         37.0004
  -5150522.68047  -3972063.61745  22410560.0634   22410557.8794        362.2374
        44.2504         33.5004
 -12131405.47747  -9437595.29345  21366755.7814   21366752.4614       1416.2084
        47.0004         35.0004
  -3781038.45748  -2921349.09846  20254763.3594   20254758.8364        542.7004
        50.7504         41.0004
  -8693239.89847  -6743377.14845  22419505.0004   22419503.3324       4237.0784
        45.2504         32.7504
   8789255.52747   6860040.17245  22043879.5234   22043875.8404      -1178.3094
        47.5004         33.5004
   2474913.93846   1953991.55144  24462446.1024   24462445.0704       3232.2154
        38.2504         25.0004
  -5405661.16447  -4170581.55945  23088008.5164   23088007.6214        503.6884
        44.5004         31.0004
 14  5 29 19 13 30.0000000  0 11G19G16G07G08G10G03G13G28G23G05G27
 -12915509.95747 -10012771.40645  22394525.8364   22394521.2584       2664.4504
        46.5004         35.5004
  21287380.97346  16584856.53143  25189937.1334   25189934.2274      -1899.1174
        39.5004         20.2504
  -7239037.48848  -5610192.01246  20964345.5554   20964340.7234       2287.5894
        48.2504         40.5004
 -11886910.45348  -9227847.71946  22065795.3444   22065791.9654       3146.3634
        49.0004         36.7504
  -3585559.13747  -2752611.57845  22708362.6564   22708360.5634        348.5494
        44.0004         33.5004
 -10597883.78947  -8242643.32445  21658575.0394   21658571.6764       1396.6104
        45.2504         35.0004
  -2221459.01248  -1706092.42246  20551541.7584   20551536.9534        528.0184
        50.0004         41.7504
  -7244662.79347  -5614615.64845  22695159.6414   22695157.7464       4228.0964
        44.7504         32.0004
  10400312.30947   8115408.95345  22350453.5314   22350450.1294      -1187.8934
        46.5004         33.7504
   3953791.94546   3106364.04344  24743867.7424   24743866.3594       3218.0664
        40.7504         24.0004
  -3844866.03147  -2954377.54345  23385018.2814   23385016.8094        487.4964
        44.5004         31.0004
 14  5 29 19 14  0.0000000  0 11G19G16G07G08G10G03G13G28G23G05G27
 -12994942.37147 -10074666.74245  22379410.3594   22379405.7974       2647.7474
        46.0004         35.5004
  21344279.00846  16629192.66843  25200764.2814   25200761.1524      -1896.6014
        40.5004         19.2504
  -7307572.25448  -5663595.71146  20951303.6024   20951298.5664       2284.4924
        48.5004         41.5004
 -11981274.95748  -9301378.46546  22047838.4144   22047834.7664       3145.4834
        48.7504         37.5004
  -3595614.18747  -2760446.75445  22706449.5164   22706447.0744        335.1684
        45.0004         33.0004
 -10639203.80947  -8274840.73045  21650712.0004   21650708.6374       1377.3344
        45.5004         35.0004
  -2236866.37548  -1718098.18746  20548609.6884   20548605.1954        513.5794
        49.5004         40.5004
  -7371249.85947  -5713254.80545  22671070.9224   22671069.2814       4219.5694
        44.7504         32.2504
  10436230.95747   8143397.38345  22357288.2504   22357285.0124      -1197.2884
        46.5004         33.2504
   3857662.15246   3031457.75844  24725575.8674   24725573.6844       3204.3264
        39.0004         25.2504
  -3859013.55147  -2965401.55145  23382325.0944   23382324.5824        471.5844
        42.7504         31.2504
 14  5 29 19 14 30.0000000  0 11G19G16G07G08G10G03G13G28G23G05G27
 -13073865.76647 -10136165.43045  22364391.9144   22364387.3834       2630.7804
        45.7504         35.7504
  21401100.77046  16673469.41443  25211577.2814   25211574.1174      -1894.0594
        39.0004         19.5004
  -7376008.51648  -5716922.66446  20938280.7734   20938276.0274       2281.2094
        48.5004         41.0004
 -12075606.73448  -9374883.70746  22029887.4064   22029884.3284       3144.3934
        49.0004         36.7504
  -3605266.83247  -2767968.36345  22704612.1564   22704610.4304        321.7554
        44.7504         33.0004
 -10679940.42247  -8306583.54745  21642959.9924   21642956.5634       1357.8874
        45.5004         35.2504
  -2251836.93448  -1729763.58646  20545761.0314   20545756.6604        499.0194
        49.5004         41.2504
  -7497573.15647  -5811688.43445  22647032.5554   22647030.4774       4210.7774
        44.7504         32.0004
  10472431.79747   8171605.68845  22364178.3204   22364173.5744      -1206.6954
        46.5004         34.0004
   3761952.14846   2956878.54344  24707362.2034   24707360.5274       3190.3334
        40.2504         25.7504
  -3872681.10247  -2976051.57845  23379725.3364   23379723.6804        455.5854
        43.5004         32.0004
 14  5 29 19 15  0.0000000  0 11G19G16G07G08G10G03G13G28G23G05G27
 -13152277.07447 -10197265.09045  22349470.3594   22349465.6524       2613.7104
        46.5004         35.5004
  21457846.23446  16717686.65243  25222375.8134   25222372.7544      -1891.5154
        37.7504         19.0004
  -7444344.05548  -5770171.12546  20925276.6564   20925271.7114       2277.8514
        48.7504         40.7504
 -12169904.03548  -9448362.08646  22011943.4064   22011939.5784       3143.2434
        48.2504         36.7504
  -3614517.49247  -2775176.74645  22702851.7114   22702850.0474        308.3554
        44.7504         33.7504
 -10720091.90247  -8337870.41445  21635319.5474   21635316.1484       1338.3834
        46.5004         35.5004
  -2266369.03948  -1741087.33246  20542995.8444   20542991.3244        484.4044
        50.2504         41.2504
  -7623629.93447  -5909914.39545  22623045.0704   22623042.8794       4201.8934
        45.0004         32.5004
  10508914.92647   8200033.97745  22371119.8284   22371116.1724      -1216.1044
        47.0004         33.5004
   3666664.89446   2882628.77243  24689228.9534   24689227.9694       3176.2424
        38.0004         23.5004
  -3885867.93047  -2986327.00845  23377215.4304   23377214.1094        439.5614
        43.2504         31.5004
 14  5 29 19 15 30.0000000  0 11G19G16G07G08G10G03G13G28G23G05G27
 -13230168.55547 -10257959.69145  22334648.1564   22334643.4844       2596.3834
        46.5004         35.5004
  21514519.33246  16761847.50443  25233159.9454   25233156.9574      -1889.1034
        38.0004         19.2504
  -7512572.59448  -5823336.20346  20912293.1334   20912288.4694       2274.2854
        48.5004         41.0004
 -12264161.03948  -9521809.06246  21994006.3834   21994003.3554       3141.9004
        49.2504         36.7504
  -3623362.18047  -2782068.78145  22701169.1254   22701166.8794        294.8234
        44.7504         32.7504
 -10759652.50847  -8368696.85245  21627791.1174   21627788.0234       1318.6874
        47.2504         35.5004
  -2280456.96548  -1752064.96546  20540314.8984   20540310.3674        469.5984
        50.2504         41.2504
  -7749413.22347  -6007927.23845  22599108.8524   22599106.6954       4192.7764
        44.7504         32.0004
  10545684.86347   8228685.73845  22378117.8444   22378113.3324      -1225.6654
        47.5004         33.5004
   3571807.79746   2808714.18444  24671178.6484   24671177.3714       3161.9034
        41.2504         25.2504
  -3898569.09447  -2996223.98045  23374798.5084   23374797.4964        423.3724
        43.0004         32.0004
 14  5 29 19 16  0.0000000  0 11G19G16G07G08G10G03G13G28G23G05G27
 -13307540.35947 -10318249.35545  22319924.5084   22319920.0354       2579.0604
        45.5004         35.0004
  21571116.22346  16805948.96143  25243929.9304   25243926.7734      -1886.5634
        36.7504         18.2504
  -7580695.73848  -5876419.16446  20899330.0704   20899325.2544       2270.7714
        48.5004         40.7504
 -12358379.73848  -9595226.18446  21976077.5864   21976073.8794       3140.6234
        49.0004         36.7504
  -3631805.25847  -2788647.88345  22699562.5784   22699560.9454        281.4364
        45.5004         32.7504
 -10798624.16847  -8399064.37945  21620375.3674   21620372.0554       1299.0554
        47.0004         35.5004
  -2294102.55548  -1762697.92246  20537718.1024   20537713.9144        454.8534
        48.5004         41.0004
  -7874923.70747  -6105727.51645  22575224.7504   22575222.9024       4183.6834
        44.0004         32.2504
  10582738.02747   8257558.20745  22385168.4384   22385164.9064      -1235.1054
        46.2504         32.7504
   3477379.94847   2735134.03244  24653209.7504   24653208.2584       3147.5954
        42.0004         24.7504
  -3910787.49646  -3005744.79345  23372473.3674   23372472.1054        407.2804
        41.2504         31.5004
