     2.11           OBSERVATION DATA    G (GPS)             RINEX VERSION / TYPE
teqc  2019Feb25     K Rivera            20250820 06:54:44UTCPGM / RUN BY / DATE
Linux 2.6.32-573.12.1.x86_64|x86_64|gcc -static|Linux 64|=+ COMMENT
teqc  2019Feb25                         20250820 06:52:53UTCCOMMENT
BIT 2 OF LLI FLAGS DATA COLLECTED UNDER A/S CONDITION       COMMENT
V511                                                        MARKER NAME
                                                            MARKER NUMBER
Katie Baraggiotta   University of California, Riverside     OBSERVER / AGENCY
0220413516          TRIMBLE R7          2.32                REC # / TYPE / VERS
1441040465          TRM57971.00                             ANT # / TYPE
 -2413170.2188 -4564294.3121  3734411.5108                  APPROX POSITION XYZ
        1.1763        0.0000        0.0000                  ANTENNA: DELTA H/E/N
     1     1                                                WAVELENGTH FACT L1/2
     7    L1    L2    C1    P1    P2    S1    S2            # / TYPES OF OBSERV
    18                                                      LEAP SECONDS
 SNR is mapped to RINEX snr flag value [0-9]                COMMENT
  L1 & L2: min(max(int(snr_dBHz/6), 0), 9)                  COMMENT
  2025     8     7     0    43   30.0000000     GPS         TIME OF FIRST OBS
                                                            END OF HEADER
 25  8  7  0 43 30.0000000  0  7G01G03G04G09G16G26G31
     10948.98456      5410.88753  24154572.3284                   24154575.5514
        38.2504         19.5004
    -49205.28558    -30601.74258  20133192.7664                   20133191.6174
        48.0004         50.2504
   -124957.83257    -77557.75856  20568235.0784                   20568232.5394
        45.5004         38.2504
   -171485.59857   -108026.23056  22515059.2274                   22515058.6994
        44.2504         41.5004
   -153824.50057    -99444.34055  21160927.6564                   21160924.0004
        44.5004         35.0004
    -50784.54357    -31567.35257  21661051.8364                   21661051.3594
        45.5004         43.5004
     14129.40657      8554.45756  22925324.5234                   22925321.8674
        43.2504         39.0004
 25  8  7  0 44  0.0000000  0  9G01G03G04G06G07G09G16G26G31
     19878.62546     12368.74642  24156272.4694                   24156275.9574
        38.0004         17.7504
    -94418.19547    -65832.63348  20124589.0704                   20124587.5274
        47.0004         50.5004
   -238906.03547   -166348.58246  20546551.8284                   20546548.7464
        46.0004         38.5004
   -190743.02756   -116184.00855  24398287.3984                   24398288.5004
        39.7504         34.5004
   -325387.30956   -189980.17655  24242948.1724                   24242948.2464
        40.5004         31.5004
   -331389.50047   -232626.61746  22484630.8204                   22484629.5634
        43.7504         40.5004
   -294301.33247   -208906.76245  21134195.5234                   21134191.8914
        45.5004         34.5004
    -97382.69547    -67877.62547  21652184.5704                   21652183.9964
        44.5004         43.2504
     25621.66447     17509.38746  22927511.6334                   22927508.0744
        45.2504         40.0004
 25  8  7  0 44 30.0000000  0  9G01G03G04G06G07G09G16G26G31
     28302.40646     18932.39143  24157875.3984                   24157879.0394
        38.0004         19.5004
   -139555.35247   -101004.49648  20116000.2734                   20115998.6254
        47.0004         50.7504
   -353141.39547   -255363.16446  20524813.3054                   20524810.8594
        46.5004         39.0004
   -288007.68746   -191974.68445  24379778.5314                   24379779.8524
        39.0004         33.7504
   -487765.63746   -316508.49645  24212048.0784                   24212048.5864
        40.2504         32.2504
   -491715.37547   -357555.85546  22454121.4614                   22454120.0554
        43.7504         40.5004
   -434705.19947   -318312.32845  21107478.1564                   21107474.2624
        46.5004         34.5004
   -143880.31247   -104109.55147  21643336.3524                   21643336.2504
        44.2504         43.7504
     36723.47747     26160.08246  22929624.9844                   22929621.3754
        45.0004         39.2504
 25  8  7  0 45  0.0000000  0  9G01G03G04G06G07G09G16G26G31
     36349.89546     25202.87143  24159407.6954                   24159410.4224
        39.7504         20.5004
   -184485.16448   -136014.79348  20107450.1334                   20107448.8014
        49.0004         50.5004
   -467530.69947   -344497.68746  20503046.1724                   20503042.7934
        46.0004         38.5004
   -385092.12946   -267624.94145  24361304.1094                   24361305.2584
        39.0004         33.2504
   -650314.67646   -443169.85545  24181115.4454                   24181116.0824
        40.0004         32.5004
   -652330.14147   -482710.17646  22423557.7034                   22423556.2234
        43.7504         41.0004
   -574901.28947   -427555.99245  21080799.4454                   21080795.7584
        46.2504         35.5004
   -190146.48047   -140161.13747  21634532.1334                   21634531.7814
        46.0004         43.5004
     47565.50447     34608.34446  22931687.3674                   22931684.8954
        44.5004         39.7504
 25  8  7  0 45 30.0000000  0  9G01G03G04G06G07G09G16G26G31
     44061.82846     31211.80143  24160874.7974                   24160878.9534
        39.0004         20.0004
   -229165.00048   -170830.30148  20098947.4694                   20098946.7344
        50.0004         51.7504
   -582029.60248   -433717.64846  20481257.8674                   20481254.3164
        48.2504         39.5004
   -481953.01646   -343100.96945  24342871.9304                   24342873.1134
        39.2504         32.5004
   -812990.39146   -569929.93445  24150159.1334                   24150159.7814
        39.2504         33.5004
   -813189.44547   -608055.05146  22392947.5704                   22392945.9694
        43.5004         39.5004
   -714843.72747   -536602.00445  21054169.0474                   21054165.7194
        46.2504         33.7504
   -236139.11347   -175999.58246  21625781.1094                   21625779.9614
        45.0004         40.5004
     58188.90647     42886.24246  22933710.2974                   22933706.7664
        45.0004         37.0004
 25  8  7  0 46  0.0000000  0  9G01G03G04G06G07G09G16G26G31
     51464.39146     36979.72743  24162283.8524                   24162288.0084
        38.2504         19.7504
   -273566.62147   -205429.00848  20090498.3754                   20090497.3524
        47.5004         50.5004
   -696608.19547   -522999.64846  20459454.0394                   20459450.9304
        47.0004         38.0004
   -578561.34446   -418380.22345  24324488.1334                   24324489.3484
        39.5004         33.5004
   -975763.28146   -696765.73044  24119184.3054                   24119184.6054
        37.0004         26.7504
   -974263.51647   -733567.30546  22362296.7894                   22362294.8054
        44.0004         40.5004
   -854500.91047   -645425.73845  21027593.3984                   21027589.4414
        46.2504         34.5004
   -281830.45747   -211603.23447  21617085.3674                   21617085.0514
        44.2504         43.5004
     68620.73447     51014.87146  22935694.1884                   22935690.9304
        44.5004         39.2504
 25  8  7  0 46 30.0000000  0  9G01G03G04G06G07G09G16G26G31
   1634001.68846   1270125.37543  24463431.2344                   24463434.7814
        39.5004         20.7504
   1257757.66448    987810.65248  20381899.7114                   20381898.6174
        48.2504         50.5004
    764185.31347    615281.00046  20737433.6954                   20737430.7074
        46.2504         39.0004
    900532.87946    734160.71545  24605950.6804                   24605951.9574
        40.0004         35.0004
    436822.64856    425098.44155  24387989.7424                   24387989.7934
        38.7504         31.5004
    439900.98447    368379.10546  22631402.5474                   22631401.1764
        43.2504         41.5004
    581581.49247    473599.55945  21300870.3594                   21300866.6174
        46.5004         35.2504
   1248226.50047    980648.93447  21908244.8834                   21908245.2194
        44.7504         43.0004
   1654306.28947   1286613.92246  23237441.0634                   23237436.9104
        44.7504         39.2504
 25  8  7  0 47  0.0000000  0  9G01G03G04G06G07G09G16G26G31
   1640850.83246   1275462.03543  24464734.1644                   24464738.7274
        40.5004         22.0004
   1213983.46548    953700.84048  20373569.8834                   20373568.4924
        49.0004         50.5004
    649523.58647    525934.19546  20715614.2344                   20715611.3554
        46.0004         38.7504
    804502.45746    659331.79745  24587675.5864                   24587677.8914
        39.5004         34.0004
    273930.36746    298169.60545  24356992.7194                   24356992.1024
        41.5004         31.7504
    278473.50847    242591.50446  22600683.8594                   22600682.9344
        42.5004         41.2504
    442576.04347    365283.66045  21274418.4924                   21274414.3134
        46.7504         34.5004
   1203206.82447    945568.64547  21899679.2664                   21899677.8754
        47.2504         43.5004
   1664423.58247   1294497.45746  23239365.7424                   23239363.0044
        44.7504         37.7504
 25  8  7  0 47 30.0000000  0  9G01G03G04G06G07G09G16G26G31
   1647444.33246   1280599.54343  24465989.2894                   24465993.2504
        41.2504         22.5004
   1170546.98348    919854.18148  20365304.5164                   20365302.7584
        49.5004         50.5004
    534846.89547    436575.74246  20693792.1804                   20693789.1334
        46.7504         39.0004
    708786.03546    584747.55145  24569462.4774                   24569463.5434
        40.2504         34.0004
    111004.88346    171214.86345  24325988.4144                   24325988.5204
        41.5004         33.0004
    116895.91847    116686.92646  22569935.7114                   22569935.3874
        43.0004         41.5004
    303925.59447    257244.39145  21248033.9454                   21248030.6134
        46.5004         35.2504
   1158546.11747    910768.08247  21891180.1804                   21891179.6954
        47.0004         43.2504
   1674405.88347   1302275.80146  23241265.4844                   23241262.3364
        45.2504         39.0004
 25  8  7  0 48  0.0000000  0  9G01G03G04G06G07G09G16G26G31
   1653793.06346   1285546.25844  24467198.2664                   24467201.9694
        41.5004         24.2504
   1127460.77347    886280.47348  20357105.3444                   20357104.2154
        47.5004         50.5004
    420169.71947    347216.90246  20671969.6174                   20671966.7274
        46.5004         38.7504
    613396.87146    510418.31645  24551310.6644                   24551311.4384
        40.0004         34.2504
    -51940.17246     44244.90645  24294981.5004                   24294981.0864
        39.5004         30.2504
    -44817.43047     -9323.41846  22539163.0704                   22539162.5784
        43.5004         40.7504
    165645.69947    149493.87545  21221720.0474                   21221716.6374
        45.7504         35.5004
   1114256.48047    876256.66447  21882752.2664                   21882751.4144
        44.5004         43.2504
   1684265.14847   1309958.29746  23243141.5164                   23243137.8524
        44.5004         38.7504
 25  8  7  0 48 30.0000000  0  9G01G03G04G06G07G09G16G26G31
   1659905.57846   1290308.93044  24468361.7584                   24468364.8444
        40.5004         24.0004
   1084735.28148    852987.84848  20348974.7894                   20348973.9024
        49.0004         50.5004
    305504.27347    257867.21946  20650149.9224                   20650146.8094
        46.5004         38.0004
    518346.05546    436352.73845  24533222.6954                   24533224.1294
        40.0004         34.7504
   -214893.15646    -82731.27045  24263972.0164                   24263972.7584
        40.0004         31.7504
   -206654.38747   -135430.07446  22508366.8984                   22508366.0944
        43.5004         41.5004
     27750.41047     42043.05145  21195479.7504                   21195476.2274
        46.2504         35.5004
   1070347.71147    842042.02047  21874396.3284                   21874396.0434
        46.0004         43.0004
   1694010.60547   1317552.07846  23244996.6174                   23244993.4574
        43.5004         38.5004
 25  8  7  0 49  0.0000000  0  9G01G03G04G06G07G09G16G26G31
   1665787.49246   1294891.86743  24469480.9774                   24469485.1334
        41.0004         23.0004
   1042377.96148    819982.09848  20340914.5004                   20340913.6484
        48.0004         50.5004
    190859.85247    168533.91446  20628333.2114                   20628330.1994
        47.0004         38.2504
    423641.71546    362557.14845  24515201.5314                   24515202.2384
        39.7504         34.7504
   -377844.68046   -209706.31245  24232963.6484                   24232962.5704
        41.7504         31.5004
   -368605.64847   -261625.81246  22477548.9924                   22477547.4924
        44.5004         41.5004
   -109749.82447    -65099.94946  21169314.3524                   21169310.8244
        46.5004         36.2504
   1026826.66847    808129.51647  21866115.2344                   21866113.8914
        45.2504         42.7504
   1703648.65247   1325062.14546  23246830.5554                   23246826.7384
        44.0004         38.0004
 25  8  7  0 49 30.0000000  0  9G01G03G04G06G07G09G16G26G31
   1671444.56646   1299299.60944  24470558.1724                   24470562.0004
        40.5004         25.5004
   1000396.23848    787269.03148  20332925.5634                   20332924.5784
        48.7504         50.5004
     76245.84847     79224.30546  20606522.5084                   20606519.8324
        46.5004         38.5004
    329291.94546    289037.81645  24497247.1644                   24497248.2504
        40.2504         34.5004
   -540785.87946   -336673.27745  24201957.1724                   24201956.7344
        40.7504         34.5004
   -530661.94547   -387903.37546  22446710.2664                   22446709.1914
        44.5004         41.5004
   -246844.00047   -171926.53945  21143226.1484                   21143222.3054
        47.5004         35.5004
    983700.23847    774524.50847  21857907.2424                   21857907.3324
        46.5004         42.5004
   1713186.18847   1332493.96146  23248644.9774                   23248641.8364
        44.5004         37.5004
 25  8  7  0 50  0.0000000  0  9G01G03G04G06G07G09G16G26G31
   1676883.56346   1303537.41843  24471592.8524                   24471597.1804
        40.2504         23.0004
    958798.68448    754855.31648  20325009.9774                   20325008.9224
        48.2504         50.5004
    -38327.32047    -10053.47746  20584720.0314                   20584717.3284
        46.5004         38.2504
    235305.97346    215801.98445  24479362.3524                   24479363.0234
        39.7504         34.7504
   -703706.87546   -463624.55545  24170953.1954                   24170952.1294
        39.7504         31.5004
   -692812.77347   -514254.59447  22415854.8284                   22415853.2194
        44.0004         42.0004
   -383519.93447   -278427.21946  21117217.6484                   21117213.7734
        47.2504         36.0004
    940976.45347    741233.23447  21849777.1414                   21849777.5554
        45.7504         42.7504
   1722630.84047   1339853.36346  23250442.5784                   23250438.8524
        44.0004         36.7504
 25  8  7  0 50 30.0000000  0  9G01G03G04G06G07G09G16G26G31
   1682107.09046   1307607.35544  24472587.6174                   24472591.9654
        41.2504         24.0004
    917589.49248    722744.21148  20317168.2344                   20317167.2464
        48.7504         50.5004
   -152853.46547    -99294.61746  20562926.8674                   20562923.5784
        47.0004         38.5004
    141688.64846    142853.40646  24461547.4614                   24461548.0634
        41.5004         36.0004
   -866602.11346   -590555.72345  24139954.8364                   24139955.5514
        39.0004         31.5004
   -855052.09847   -640674.78946  22384980.0084                   22384979.4304
        43.7504         41.5004
   -519770.41447   -384596.37545  21091289.4064                   21091285.8714
        47.2504         35.5004
    898658.93447    708258.52747  21841724.5164                   21841724.6684
        46.2504         42.5004
   1731986.28947   1347143.28946  23252222.1884                   23252219.6334
        43.0004         37.5004
 25  8  7  0 51  0.0000000  0  9G01G03G04G06G07G09G16G26G31
   1687117.85946   1311511.51643  24473540.6254                   24473545.5744
        39.5004         22.5004
    876773.21148    690939.28548  20309400.9924                   20309399.7774
        48.7504         50.2504
   -267326.08647   -188494.04746  20541143.1334                   20541139.9654
        47.5004         38.5004
     48445.21146     70196.18845  24443803.2664                   24443804.7814
        38.5004         34.5004
  -1029465.51646   -717462.14145  24108963.0314                   24108963.6254
        39.7504         33.0004
  -1017373.36347   -767158.81246  22354091.4844                   22354090.8364
        43.7504         41.7504
   -655587.42647   -490427.77746  21065444.6414                   21065441.4344
        47.5004         36.0004
    856751.59847    675603.45347  21833750.3984                   21833749.8444
        46.2504         42.7504
   1741255.75047   1354366.18046  23253986.7424                   23253984.5434
        42.5004         36.5004
 25  8  7  0 51 30.0000000  0  9G01G03G04G06G07G09G16G26G31
   1691921.51646   1315254.27743  24474455.7894                   24474459.9654
        37.0004         20.5004
    836357.03547    659446.12548  20301709.9844                   20301708.9304
        47.0004         50.2504
   -381736.03547   -277644.64546  20519371.7194                   20519368.7464
        46.5004         38.0004
    -44416.54346     -2163.64145  24426132.9614                   24426133.7974
        38.7504         34.5004
  -1192288.17646   -844336.76245  24077979.0944                   24077978.3054
        39.7504         30.5004
  -1179767.51646   -893699.63746  22323189.3754                   22323187.9224
        41.7504         41.7504
   -790960.64147   -595913.34046  21039684.2344                   21039680.1174
        47.0004         36.5004
    815261.11747    643273.20747  21825855.2344                   21825854.7074
        44.0004         42.7504
   1750445.85947   1361527.23046  23255735.3834                   23255733.1844
        42.0004         37.0004
 25  8  7  0 52  0.0000000  0  9G01G03G04G06G07G09G16G26G31
   1696520.16445   1318837.25443  24475329.6254                   24475335.5824
        33.5004         19.5004
    796344.61747    628267.57448  20294096.1724                   20294095.1724
        47.0004         50.2504
   -496077.51647   -366741.89146  20497613.6564                   20497610.6094
        47.0004         38.7504
   -136892.23846    -74222.61345  24408535.5164                   24408536.0824
        40.0004         34.7504
  -1355064.85246   -971175.56645  24047003.2894                   24047003.9804
        39.0004         32.5004
  -1342228.83647  -1020292.79347  22292273.7814                   22292272.2464
        43.7504         42.0004
   -925882.99247   -701047.59046  21014009.0474                   21014004.9734
        47.2504         36.5004
    774190.64547    611270.22347  21818039.7274                   21818039.0904
        44.0004         42.7504
   1759559.85547   1368628.99246  23257469.7894                   23257467.8674
        42.5004         36.5004
 25  8  7  0 52 30.0000000  0  9G01G03G04G06G07G09G16G26G31
                                  24476166.6414                   24476171.6334
        31.5004         17.7504
    756737.99648    597405.24248  20286559.2344                   20286557.9304
        48.5004         50.0004
   -610346.57047   -455782.70746  20475868.9384                   20475865.9384
        47.0004         38.2504
   -228979.23046   -145978.71945  24391011.9224                   24391012.7304
        40.0004         35.5004
  -1517792.07846  -1097975.85545  24016038.3444                   24016037.5394
        41.5004         33.7504
  -1504753.28947  -1146935.12947  22261346.1334                   22261345.3834
        43.0004         42.0004
  -1060349.13347   -805826.34845  20988420.9534                   20988417.2894
        47.0004         35.5004
    733541.53947    579595.58647  21810304.0234                   21810304.0234
        45.7504         42.7504
   1768598.95347   1375672.36746  23259190.2974                   23259187.9494
        42.5004         36.7504
 25  8  7  0 53  0.0000000  0  9G01G03G04G06G07G09G16G26G31
                                  24476964.1174                   24476970.8954
        31.2504         17.2504
    717544.30947    566864.66448  20279100.8284                   20279099.6764
        47.0004         50.0004
   -724533.92247   -544759.85546  20454139.3914                   20454136.5634
        46.2504         38.5004
   -320669.74246   -217425.85945  24373563.6804                   24373564.6724
        41.0004         35.0004
  -1680461.21946  -1224730.81645  23985083.3984                   23985081.9654
        41.2504         33.5004
  -1667331.64847  -1273619.49247  22230408.1024                   22230407.1764
        43.5004         42.2504
  -1194348.50447   -910241.38746  20962921.9304                   20962917.8634
        46.2504         36.2504
    693320.40647    548254.43447  21802650.4064                   21802650.1564
        44.2504         42.7504
   1777569.62147   1382662.43846  23260897.0634                   23260894.5124
        42.5004         36.0004
 25  8  7  0 53 30.0000000  0  9G01G03G04G06G07G09G16G26G31
   1709107.03545   1328643.91043  24477725.9844                   24477732.1604
        35.0004         19.7504
    678766.92248    536648.47748  20271721.8204                   20271720.8204
        48.5004         50.2504
   -838634.08247   -633669.06246  20432427.6174                   20432423.8404
        46.5004         39.2504
   -411959.64846   -288560.83645  24356191.3204                   24356192.5434
        39.5004         35.2504
  -1843067.19946  -1351436.55945  23954139.3054                   23954139.1994
        40.7504         32.0004
  -1829958.44547  -1400341.59047  22199461.8134                   22199460.2624
        44.5004         42.5004
  -1327874.40247  -1014287.49646  20937512.3834                   20937508.3364
        47.0004         36.0004
    653530.13347    517249.02047  21795078.9844                   21795078.1484
        45.7504         43.0004
   1786474.55147   1389601.30546  23262591.3834                   23262589.7384
        42.5004         36.7504
 25  8  7  0 54  0.0000000  0  9G01G03G04G06G07G09G16G26G31
   1712906.53546   1331604.17243  24478449.1564                   24478455.6884
        37.0004         20.0004
    640406.23448    506756.98448  20264422.0314                   20264420.9024
        49.0004         50.0004
   -952644.57047   -722508.39846  20410731.4614                   20410728.3444
        46.7504         39.0004
   -502848.05146   -359382.94745  24338896.1334                   24338897.3244
        38.7504         35.2504
  -2005608.05146  -1478091.60945  23923208.3134                   23923209.0704
        38.2504         32.2504
  -1992631.23047  -1527099.54347  22168506.5394                   22168505.2774
        44.0004         42.0004
  -1460923.31247  -1117961.91846  20912193.8914                   20912189.9064
        47.5004         36.0004
    614170.48447    486579.15247  21787588.9924                   21787588.6844
        45.5004         42.7504
   1795313.72747   1396488.91845  23264273.3524                   23264271.9804
        42.5004         34.7504
 25  8  7  0 54 30.0000000  0  9G01G03G04G06G07G09G16G26G31
   1716515.12546   1334415.65643  24479136.6174                   24479142.3484
        37.7504         20.2504
    602471.11747    477197.12148  20257203.5004                   20257202.2074
        47.5004         50.0004
  -1066554.28947   -811269.21146  20389055.2974                   20389052.0394
        47.2504         39.0004
   -593325.28146   -429884.68445  24321678.6334                   24321679.6094
        40.2504         35.2504
  -2168073.42646  -1604687.92645  23892291.9844                   23892290.2504
        40.2504         30.0004
  -2155338.89847  -1653884.67647  22137543.1954                   22137543.2894
        44.2504         42.7504
  -1593482.80148  -1221254.98046  20886968.6334                   20886964.9844
        48.0004         36.5004
    575249.82447    456251.35547  21780182.2504                   21780181.8444
        44.2504         42.5004
   1804095.48446   1403331.80145  23265944.5394                   23265943.0004
        41.5004         35.5004
 25  8  7  0 55  0.0000000  0  9G01G03G04G06G07G09G16G26G31
   1719937.93046   1337082.39543  24479788.5944                   24479794.1414
        38.0004         18.2504
    564968.11348    447973.96948  20250066.8834                   20250065.6564
        48.7504         49.5004
  -1180354.59847   -899944.76646  20367399.3054                   20367396.4144
        47.0004         39.0004
   -683384.29346   -500060.55945  24304541.1564                   24304541.6334
        39.7504         34.7504
  -2330455.23047  -1731218.93445  23861391.7584                   23861391.7704
        42.0004         31.5004
  -2318072.87947  -1780690.30547  22106576.6094                   22106575.4384
        44.2504         42.7504
  -1725543.07447  -1324159.03946  20861838.1484                   20861834.7544
        47.2504         36.5004
    536774.07047    426270.24647  21772860.8914                   21772860.4384
        45.5004         42.5004
   1812825.82847   1410134.62946  23267606.8594                   23267604.0084
        43.7504         36.5004
 25  8  7  0 55 30.0000000  0  9G01G03G04G06G07G09G16G26G31
   3298595.64146   2567204.89842  24780197.3914                   24780203.1254
        37.7504         16.2504
   2103320.69948   1646690.22348  20542805.6884                   20542804.3284
        49.0004         49.5004
    281382.79747    239071.39546  20645559.4454                   20645555.8524
        46.7504         39.0004
    802400.85546    657694.11345  24587277.0394                   24587277.9454
        40.2504         34.7504
   -917323.87547   -630077.46945  24130301.9924                   24130302.8984
        42.0004         34.7504
   -905403.18047   -679908.65647  22375398.3594                   22375397.1524
        44.5004         42.5004
   -281674.45747   -199066.55946  21136597.6884                   21136593.6094
        47.0004         36.5004
   2074166.23847   1624238.14847  22065417.1024                   22065416.4384
        46.0004         42.5004
   3396926.18047   2644498.49646  23569050.9224                   23569048.7544
        44.5004         36.5004
 25  8  7  0 56  0.0000000  0  9G01G03G04G06G07G09G16G26G31
   3301649.96946   2569584.55542  24780778.9924                   24780785.3164
        37.7504         15.5004
   2066689.10548   1618146.08248  20535834.9774                   20535833.6134
        49.2504         49.5004
    167815.21147    150577.18046  20623948.1414                   20623944.8674
        47.0004         38.5004
    713187.59446    588177.27045  24570299.3284                   24570300.4104
        39.5004         34.7504
  -1079526.05946   -756468.66445  24099435.7664                   24099434.0554
        41.2504         32.0004
  -1068175.73047   -806744.35247  22344423.8284                   22344422.2544
        44.0004         42.7504
   -412719.43047   -301179.47746  21111660.6724                   21111656.8404
        47.2504         37.2504
   2036585.85547   1594954.74247  22058264.8204                   22058264.6684
        45.2504         42.2504
   3405559.30147   2651225.57846  23570692.9304                   23570691.9064
        42.0004         36.7504
 25  8  7  0 56 30.0000000  0  9G01G03G04G06G07G09G16G26G31
   3304516.81646   2571818.16842  24781325.0394                   24781330.8984
        36.2504         14.7504
   2030492.00848   1589940.51648  20528946.5864                   20528945.0864
        48.0004         49.5004
     54366.19547     62175.35546  20602359.2974                   20602356.2854
        47.0004         39.0004
    624396.87146    518989.71945  24553403.8594                   24553404.8524
        40.5004         34.5004
  -1241637.16047   -882788.78545  24068586.9774                   24068585.0904
        42.5004         32.2504
  -1230965.41047   -933593.39147  22313446.0084                   22313444.4924
        44.2504         43.0004
   -543252.96547   -402893.87546  21086820.4304                   21086816.8554
        46.5004         36.5004
   1999451.19947   1566018.63347  22051198.5084                   22051198.5004
        45.0004         42.5004
   3414142.05946   2657913.39146  23572326.6094                   23572324.5864
        41.2504         36.5004
 25  8  7  0 57  0.0000000  0  9G01G03G04G06G07G09G16G26G31
   3307196.30946   2573905.65642  24781835.2584                   24781841.2424
        36.7504         16.7504
   1994730.93848   1562074.71948  20522141.7664                   20522140.8364
        49.0004         49.5004
    -58960.45747    -26131.12546  20580794.0314                   20580790.6374
        47.2504         39.2504
    536030.94146    450133.15245  24536588.3364                   24536589.1214
        38.5004         34.5004
  -1403654.03947  -1009035.50046  24037757.3204                   24037755.7114
        45.0004         36.5004
  -1393768.39547  -1060452.80547  22282465.4224                   22282464.0314
        44.5004         43.0004
   -673270.20347   -504205.94946  21062079.2424                   21062075.6764
        46.7504         37.2504
   1962763.16847   1537430.53147  22044217.8914                   22044217.1994
        46.2504         42.2504
   3422675.82847   2664563.03146  23573951.1334                   23573949.3204
        43.2504         37.2504
 25  8  7  0 57 30.0000000  0  9G01G03G04G06G07G09G16G26G31
   3309691.63346   2575849.70343  24782310.4224                   24782315.9024
        37.7504         19.0004
   1959410.29748   1534552.10248  20515420.5634                   20515419.1414
        49.0004         49.5004
   -172158.04347   -114337.02746  20559252.9144                   20559249.6334
        46.7504         38.5004
    448094.79346    381611.47745  24519855.0004                   24519855.2114
        39.2504         34.5004
  -1565570.61747  -1135204.08646  24006945.0554                   24006943.9184
        45.5004         36.0004
  -1556577.96147  -1187317.35947  22251483.6644                   22251482.3914
        45.0004         43.0004
   -802763.37947   -605109.67646  21037437.7194                   21037433.4454
        46.2504         37.0004
   1926525.64847   1509193.49647  22037322.2114                   22037321.5904
        46.2504         42.0004
   3431164.14847   2671177.28546  23575566.3984                   23575563.7894
        44.2504         37.2504
 25  8  7  0 58  0.0000000  0  9G01G03G04G06G07G09G16G26G31
   3312002.03146   2577649.62143  24782750.3674                   24782755.4264
        39.0004         20.2504
   1924530.56348   1507373.05148  20508783.2194                   20508781.9494
        49.0004         49.2504
   -285223.76247   -202440.17646  20537737.5004                   20537734.1724
        46.7504         38.7504
    360589.55146    313425.59845  24503202.8284                   24503203.6454
        40.5004         35.0004
  -1727384.71147  -1261292.82445  23976152.3444                   23976150.1994
        44.2504         34.5004
  -1719391.30947  -1314184.84847  22220501.4384                   22220500.2074
        45.7504         43.0004
   -931729.01247   -705602.33246  21012896.2424                   21012892.0984
        47.7504         37.7504
   1890738.58647   1481307.47347  22030511.5084                   22030511.2424
        45.5004         42.2504
   3439607.33247   2677756.36346  23577173.2734                   23577169.7894
        43.7504         36.7504
 25  8  7  0 58 30.0000000  0  9G01G03G04G06G07G09G16G26G31
   3314126.57446   2579304.70743  24783154.4064                   24783160.4884
        39.2504         22.0004
   1890092.09448   1480537.84048  20502229.6094                   20502228.3714
        48.2504         49.2504
   -398154.90247   -290438.45346  20516247.2274                   20516244.3754
        46.7504         39.0004
    273516.20346    245576.21145  24486633.1484                   24486634.1294
        40.7504         35.2504
  -1889094.21547  -1387300.02045  23945379.4304                   23945377.6334
        43.0004         34.0004
  -1882205.69547  -1441053.16447  22189519.1884                   22189517.6604
        45.7504         43.2504
  -1060163.51247   -805681.10946  20988455.8524                   20988451.8834
        47.0004         36.5004
   1855401.77047   1453772.27047  22023787.2584                   22023786.7814
        45.5004         42.0004
   3448005.61747   2684300.44146  23578770.6414                   23578767.4734
        44.0004         36.7504
 25  8  7  0 59  0.0000000  0  9G01G03G04G06G07G09G16G26G31
   3316066.12546   2580815.67243  24783523.6954                   24783530.2344
        39.5004         22.0004
   1856096.94947   1454048.08248  20495760.5004                   20495759.7894
        47.7504         49.2504
   -510947.04347   -378328.43046  20494783.9614                   20494780.1804
        47.7504         39.0004
    186877.42646    178065.48045  24470146.6954                   24470147.4884
        39.5004         34.7504
  -2050695.44947  -1513222.90245  23914627.4694                   23914627.7854
        43.2504         35.5004
  -2045016.64847  -1567918.80147  22158536.5004                   22158535.7584
        45.5004         43.2504
  -1188061.14847   -905341.55946  20964117.5314                   20964113.6024
        46.0004         37.0004
   1820516.71947   1426589.10547  22017149.1254                   22017148.4024
        45.0004         42.0004
   3456360.87147   2690810.94146  23580360.5634                   23580357.5784
        42.5004         36.0004
 25  8  7  0 59 30.0000000  0  9G01G03G04G06G07G09G16G26G31
   3317820.35846   2582182.20443  24783857.7894                   24783864.2194
        40.0004         22.5004
   1822545.97347   1427904.43048  20489376.4614                   20489374.9344
        47.0004         49.2504
   -623596.87547   -466107.51646  20473347.2424                   20473344.4064
        47.0004         39.0004
    100674.72346    110894.54345  24453742.4224                   24453743.4344
        37.7504         35.5004
  -2212185.89147  -1639059.47345  23883896.7894                   23883896.0554
        43.5004         35.5004
  -2207820.84847  -1694779.17647  22127555.5634                   22127555.0904
        45.5004         43.5004
  -1315418.09047  -1004580.68046  20939882.4144                   20939878.7424
        46.7504         37.5004
   1786083.80147   1399758.24246  22010596.7584                   22010595.9884
        43.2504         41.5004
   3464673.56347   2697288.26646  23581943.1334                   23581939.5744
        43.5004         36.0004
 25  8  7  1  0  0.0000000  0  9G01G03G04G06G07G09G16G26G31
   3319389.89546   2583404.83243  24784156.8134                   24784162.9804
        39.0004         21.7504
   1789440.89848   1402108.23048  20483076.5084                   20483075.1374
        48.0004         49.5004
   -736100.24647   -553772.47746  20451938.5474                   20451935.5004
        47.2504         39.0004
     14910.41046     44065.21545  24437422.2194                   24437423.6484
        39.5004         34.2504
  -2373561.74647  -1764806.73045  23853188.2504                   23853186.4264
        43.0004         34.7504
  -2370614.15247  -1821631.05947  22096577.7814                   22096576.7584
        46.5004         43.5004
  -1442229.33647  -1103394.58246  20915751.0394                   20915746.8794
        47.0004         37.0004
   1752104.15647   1373280.59447  22004130.8054                   22004129.9534
        45.0004         42.0004
   3472945.04747   2703733.50845  23583516.5554                   23583513.9844
        42.2504         35.2504
 25  8  7  1  0 30.0000000  0  9G01G03G04G06G07G09G16G26G31
   3320774.49646   2584483.35943  24784420.7584                   24784426.7464
        39.0004         21.5004
   1756782.62147   1376660.18448  20476861.7114                   20476860.8874
        47.5004         49.5004
   -848453.82847   -641320.71946  20430558.7424                   20430554.9344
        47.5004         38.5004
    -70413.92646    -22421.28945  24421185.2894                   24421186.7234
        40.2504         35.0004
  -2534820.64546  -1890462.80145  23822501.4844                   23822499.7504
        41.7504         35.0004
  -2533393.15247  -1948471.79347  22065602.3524                   22065600.8094
        44.5004         43.5004
  -1568490.65247  -1201779.97346  20891724.4534                   20891719.8984
        47.0004         37.2504
   1718578.10947   1347156.38746  21997750.7034                   21997750.3674
        45.0004         41.7504
   3481176.43847   2710147.54346  23585083.4144                   23585080.5944
        43.0004         36.0004
 25  8  7  1  1  0.0000000  0  9G01G03G04G06G07G09G16G26G31
   3321977.11346   2585420.11343  24784650.4384                   24784656.1994
        39.0004         20.7504
   1724575.21548   1351563.46548  20470733.1564                   20470732.0784
        48.5004         49.2504
   -960651.07847   -728747.13346  20409207.6254                   20409204.6054
        47.2504         39.0004
   -155293.69546    -88561.37545  24405033.1884                   24405034.1024
        39.2504         34.7504
  -2695956.77747  -2016023.23846  23791837.8204                   23791838.0864
        42.5004         36.2504
  -2696151.26647  -2075296.25847  22034630.3444                   22034628.8364
        45.7504         43.5004
  -1694194.68047  -1299731.10946  20867803.5784                   20867799.4184
        47.5004         37.2504
   1685509.26247   1321388.43446  21991458.3594                   21991457.5124
        45.0004         41.7504
   3489371.50847   2716533.28946  23586642.3054                   23586640.8444
        42.5004         36.7504
 25  8  7  1  1 30.0000000  0  9G01G03G04G06G07G09G16G26G31
   3322992.40646   2586210.89543  24784842.8054                   24784850.0904
        37.2504         19.5004
   1692814.35247   1326814.69948  20464689.2664                   20464687.7854
        47.5004         49.0004
  -1072693.79347   -816053.14546  20387886.7504                   20387883.7544
        47.5004         39.0004
   -239732.60246   -154357.93445  24388965.3984                   24388966.7624
        40.0004         35.5004
  -2856972.38746  -2141489.81245  23761197.1254                   23761196.6524
        40.7504         34.7504
  -2858890.23847  -2202105.80947  22003662.5634                   22003661.0084
        45.2504         43.7504
  -1819342.46547  -1397248.81646  20843988.5944                   20843984.7274
        46.7504         37.7504
   1652892.78147   1295972.98446  21985251.2584                   21985250.5594
        44.5004         41.2504
   3497525.84046   2722887.27345  23588194.4924                   23588191.0044
        41.2504         35.5004
 25  8  7  1  2  0.0000000  0  9G01G03G04G06G07G09G16G26G31
   3323821.63345   2586856.69543  24785001.2734                   24785008.4184
        35.7504         18.2504
   1661502.36748   1302415.71148  20458730.7194                   20458729.4144
        48.2504         49.0004
  -1184577.11347   -903234.94546  20366596.1334                   20366592.7974
        47.7504         39.0004
   -323727.67646   -219808.65645  24372981.8444                   24372982.6024
        39.7504         35.2504
  -3017863.06246  -2266858.98845  23730580.0394                   23730577.8634
        41.0004         32.5004
  -3021605.19947  -2328896.64547  21972697.7424                   21972696.4844
        45.7504         43.2504
  -1943928.67247  -1494328.92246  20820280.6954                   20820276.5234
        46.0004         37.7504
   1620730.47747   1270911.43046  21979130.8134                   21979130.3054
        44.7504         41.7504
   3505641.58647   2729211.17645  23589738.6174                   23589736.0594
        42.0004         35.7504
 25  8  7  1  2 30.0000000  0  9G01G03G04G06G07G09G16G26G31
   3324465.66045   2587358.11342  24785124.5164                   24785132.2814
        34.2504         15.5004
   1630641.11747   1278367.94148  20452857.9534                   20452856.8914
        47.7504         49.2504
  -1296296.64547   -990289.12146  20345336.6724                   20345333.6994
        47.0004         39.0004
   -407276.44946   -284911.59445  24357082.9614                   24357083.6764
        39.2504         34.7504
  -3178626.14846  -2392128.72745  23699988.3984                   23699988.4494
        40.5004         34.0004
  -3184291.70747  -2455665.30147  21941739.6414                   21941738.5824
        45.5004         43.5004
  -2067948.14547  -1590967.42246  20796680.7114                   20796676.2194
        46.5004         37.0004
   1589023.62547   1246204.78146  21973097.1414                   21973096.7424
        45.5004         41.7504
   3513720.41447   2735506.26646  23591276.2194                   23591273.4384
        43.2504         36.0004
 25  8  7  1  3  0.0000000  0  9G01G03G04G06G07G09G16G26G31
   3324920.313 5                  24785211.289
        32.250
   1600227.41047   1254668.90648  20447070.5314                   20447069.3324
        47.7504         49.0004
  -1407853.02047  -1077216.15646  20324107.9844                   20324104.8984
        47.5004         39.0004
   -490381.48846   -349668.76645  24341268.3594                   24341269.6684
        38.5004         35.2504
  -3339262.59446  -2517299.86746  23669420.2894                   23669420.7234
        41.5004         36.2504
  -3346950.28147  -2582412.19547  21910786.5314                   21910785.5554
        45.5004         44.0004
  -2191401.00447  -1687164.39846  20773188.3284                   20773184.4144
        46.5004         37.0004
   1557768.53147   1221850.15246  21967148.6644                   21967149.4884
        43.5004         41.2504
   3521759.42246   2741770.36346  23592806.4534                   23592803.6054
        41.5004         36.0004
 25  8  7  1  3 30.0000000  0  9G01G03G04G06G07G09G16G26G31
   3325186.746 5                  24785263.781
        32.250
   1570263.31647   1231320.21948  20441368.6564                   20441367.5784
        47.5004         49.0004
  -1519241.57047  -1164012.42646  20302911.6804                   20302908.2544
        47.7504         39.0004
   -573040.16446   -414078.12145  24325539.1484                   24325540.0274
        40.0004         35.5004
  -3499768.32847  -2642369.14845  23638877.1644                   23638875.3674
        42.0004         34.0004
  -3509576.21547  -2709133.65247  21879840.2274                   21879838.6684
        46.0004         43.7504
  -2314281.81247  -1782915.62146  20749804.4844                   20749800.6524
        46.0004         37.5004
   1526966.79347   1197848.78546  21961287.9694                   21961288.1564
        44.2504         41.2504
   3529760.68047   2748005.05945  23594328.4774                   23594325.6024
        42.5004         35.5004
 25  8  7  1  4  0.0000000  0  9G01G03G04G06G07G09G16G26G31
   4900679.62915                  25085069.375
        31.000
   3116165.40247   2435919.20748  20735543.6644                   20735543.0084
        47.5004         49.0004
    -55040.30548    -23076.37146  20581539.8054                   20581536.7114
        48.0004         38.7504
    920166.55546    749459.58645  24609687.4144                   24609687.8094
        39.5004         35.0004
  -2084720.34447  -1539734.10945  23908151.6484                   23908149.2194
        43.0004         34.5004
  -2096745.74647  -1608226.74647  22148692.4694                   22148691.6484
        45.5004         43.5004
   -861167.88747   -650619.01246  21026323.0004                   21026319.1054
        46.2504         37.0004
   3072034.50847   2401797.62146  22255305.0634                   22255304.2664
        44.5004         41.0004
   5113139.46146   3981806.65645  23895634.9534                   23895633.0234
        40.5004         35.0004
 25  8  7  1  4 30.0000000  0  9G01G03G04G06G07G09G16G26G31
                                  25085047.688
        31.500
   3087095.75847   2413267.49648  20730012.6564                   20730011.0634
        47.5004         49.2504
   -166090.02347   -109608.62146  20560407.8134                   20560404.5394
        47.0004         39.0004
    838397.69946    685743.57445  24594126.3834                   24594127.7234
        39.7504         34.0004
  -2244964.04747  -1664599.15246  23877659.5864                   23877658.8754
        44.5004         38.5004
  -2259303.06647  -1734894.74647  22117759.1954                   22117757.6804
        46.0004         43.5004
   -982900.14547   -745475.27046  21003158.3134                   21003154.0434
        46.5004         37.5004
   3042133.11747   2378497.81646  22249615.2894                   22249614.5394
        45.0004         41.0004
   5121060.68847   3987978.93445  23897143.0554                   23897140.3324
        42.0004         35.0004
 25  8  7  1  5  0.0000000  0  9G01G03G04G06G07G09G16G26G31
                                  25084990.484
        28.250
   3058476.59447   2390966.80548  20724566.0784                   20724565.0744
        47.5004         49.0004
   -276963.14147   -196003.24246  20539309.1954                   20539305.9144
        46.7504         39.0004
    757077.90246    622377.49245  24578651.9454                   24578653.1374
        40.2504         34.7504
  -2405070.67647  -1789357.44946  23847192.1954                   23847190.7464
        45.2504         38.0004
  -2421818.75047  -1861530.28947  22086833.8754                   22086831.8204
        46.2504         43.7504
  -1104050.02047   -839877.71946  20980104.1644                   20980099.8754
        45.5004         37.0004
   3012684.36347   2355550.72746  22244010.3834                   22244010.7934
        44.2504         41.2504
   5128944.90647   3994122.42245  23898644.0234                   23898641.2814
        42.0004         35.0004
 25  8  7  1  5 30.0000000  0  8G03G04G06G07G09G16G26G31
   3030307.07847   2369016.49248  20719205.6724                   20719204.3794
        47.5004         49.2504
   -387657.75847   -282258.77346  20518244.5474                   20518241.5394
        47.5004         38.5004
    676206.90646    559361.14145  24563262.7424                   24563263.6294
        40.0004         33.7504
  -2565039.10247  -1914007.98046  23816750.8204                   23816746.7074
        45.0004         36.0004
  -2584290.80547  -1988131.84047  22055915.9694                   22055914.3794
        45.5004         44.2504
  -1224615.06647   -933824.46546  20957161.2894                   20957156.6914
        45.7504         37.0004
   2983686.94947   2332955.32846  22238492.9454                   22238492.3834
        45.0004         41.0004
   5136791.78146   4000236.78145  23900137.6024                   23900134.5594
        41.0004         34.7504
 25  8  7  1  6  0.0000000  0  8G03G04G06G07G09G16G26G31
   3002585.66848   2347415.34848  20713930.7194                   20713929.9694
        48.0004         49.0004
   -498172.69547   -368374.29746  20497214.5864                   20497211.2934
        47.7504         39.0004
    595783.73446    496693.71945  24547958.9384                   24547959.2464
        40.0004         33.5004
  -2724869.20747  -2038550.70745  23786335.4224                   23786333.4534
        42.0004         35.7504
  -2746718.02347  -2114698.45747  22025006.7504                   22025005.6724
        44.0004         44.0004
  -1344593.59047  -1027314.17646  20934329.8054                   20934325.6294
        45.5004         37.7504
   2955138.84847   2310710.03546  22233059.9224                   22233060.0434
        44.2504         41.2504
   5144599.80146   4006320.89545  23901623.0394                   23901619.6214
        41.2504         34.0004
 25  8  7  1  6 30.0000000  0  8G03G04G06G07G09G16G26G31
   2975312.11347   2326163.18448  20708741.0474                   20708739.8674
        47.0004         49.0004
   -608505.53948   -454347.92246  20476218.8834                   20476215.5354
        48.0004         39.0004
    515808.70746    434375.54345  24532739.4384                   24532740.7544
        39.5004         33.5004
  -2884559.08646  -2162984.23045  23755946.6484                   23755946.5354
        41.7504         35.5004
  -2909097.86747  -2241228.15647  21994107.6484                   21994105.8984
        46.0004         44.0004
  -1463982.97747  -1120344.81246  20911610.9454                   20911606.4494
        45.5004         36.7504
   2927039.27747   2288814.24246  22227713.2504                   22227712.7274
        44.0004         41.0004
   5152369.09046   4012374.81345  23903100.2894                   23903098.5274
        39.0004         32.7504
 25  8  7  1  7  0.0000000  0  8G03G04G06G07G09G16G26G31
   2948484.87547   2305258.80148  20703635.8284                   20703634.6134
        47.5004         49.0004
   -718655.01647   -540178.65646  20455258.2114                   20455254.7464
        47.5004         39.2504
    436280.94946    372405.85245  24517606.4774                   24517607.6294
        40.0004         33.5004
  -3044108.03146  -2287307.98845  23725584.8914                   23725583.4414
        41.7504         33.5004
  -3071428.95347  -2367719.85547  21963216.3054                   21963215.1804
        45.2504         44.0004
  -1582781.60947  -1212915.13746  20889004.2424                   20888999.8874
        46.5004         37.0004
   2899386.28947   2267266.44146  22222451.7424                   22222450.5084
        44.7504         41.2504
   5160098.06647   4018397.34445  23904572.4384                   23904569.7154
        42.0004         35.5004
 25  8  7  1  7 30.0000000  0  8G03G04G06G07G09G16G26G31
   2922105.80947   2284703.64548  20698615.7424                   20698614.8954
        47.7504         49.0004
   -828616.54347   -625862.95346  20434333.1804                   20434329.8094
        47.2504         39.2504
    357202.77046    310786.48845  24502558.3134                   24502559.2854
        39.5004         33.7504
  -3203513.14847  -2411519.61345  23695251.2734                   23695249.2034
        42.0004         32.5004
  -3233706.63747  -2494169.94947  21932336.1174                   21932334.5274
        46.0004         44.0004
  -1700984.44547  -1305021.19946  20866511.3364                   20866507.0554
        46.0004         37.2504
   2872181.14847   2246067.62546  22217273.8914                   22217273.8054
        44.5004         41.0004
   5167789.02746   4024390.24245  23906035.2114                   23906033.7584
        41.0004         34.5004
 25  8  7  1  8  0.0000000  0  8G03G04G06G07G09G16G26G31
   2896172.47347   2264495.81648  20693680.9144                   20693679.9534
        46.2504         48.7504
   -938389.69147   -711400.44146  20413444.0084                   20413440.4534
        47.7504         39.5004
    278572.37946    249516.05945  24487595.8754                   24487596.1764
        40.0004         33.5004
  -3362774.44546  -2535619.20745  23664944.1484                   23664942.4384
        40.7504         32.7504
  -3395930.40647  -2620578.02747  21901465.7894                   21901464.3874
        45.5004         44.0004
  -1818590.85247  -1396662.51646  20844131.3364                   20844126.6214
        46.0004         37.0004
   2845420.97347   2225215.52746  22212181.6414                   22212181.6094
        43.5004         40.7504
   5175439.94147   4030351.86345  23907492.9304                   23907489.1844
        42.2504         35.0004
 25  8  7  1  8 30.0000000  0  8G03G04G06G07G09G16G26G31
   2870682.68047   2244633.59448  20688830.4454                   20688829.3134
        46.2504         48.7504
  -1047973.96548   -796790.75846  20392590.6884                   20392587.5004
        48.0004         39.2504
    200388.07846    188593.24245  24472717.0474                   24472718.4694
        39.5004         32.7504
  -3521892.25047  -2659606.97745  23634665.4694                   23634662.5434
        42.2504         32.0004
  -3558099.56647  -2746943.54347  21870605.8594                   21870604.3014
        46.2504         44.2504
  -1935599.97747  -1487838.40646  20821864.7344                   20821860.5274
        46.2504         36.0004
   2819103.06647   2204708.05546  22207173.1024                   22207173.1954
        43.0004         41.0004
   5183048.50446   4036280.59445  23908938.6954                   23908938.0354
        39.5004         34.5004
 25  8  7  1  9  0.0000000  0  8G03G04G06G07G09G16G26G31
   2845636.85948   2225117.32048  20684064.4144                   20684063.0704
        48.0004         48.5004
  -1157365.95747   -882031.24646  20371774.2424                   20371771.1334
        47.7504         39.7504
    122651.00046    128018.88345  24457925.0084                   24457925.1884
        40.0004         33.2504
  -3680864.09847  -2783480.98445  23604414.6254                   23604411.8674
        43.2504         33.5004
  -3720210.67647  -2873263.84047  21839757.4064                   21839755.7384
        46.0004         44.5004
  -2052008.19947  -1578546.06646  20799712.8364                   20799708.6294
        46.7504         36.7504
   2793227.48447   2184545.23846  22202249.8914                   22202249.5314
        45.0004         41.0004
   5190615.76247   4042177.05545  23910380.1724                   23910377.2384
        42.7504         34.7504
 25  8  7  1  9 30.0000000  0  8G03G04G06G07G09G16G26G31
   2821034.07047   2205946.27748  20679382.4844                   20679381.5864
        46.7504         48.5004
  -1266563.86348   -967120.49246  20350995.0004                   20350991.2114
        48.2504         39.5004
     45360.62946     67792.62945  24443216.7504                   24443217.1374
        39.0004         32.5004
  -3839689.10947  -2907240.63346  23574191.3914                   23574190.4414
        43.7504         36.0004
  -3882261.75447  -2999537.35947  21808920.3754                   21808918.2934
        47.0004         44.5004
  -2167813.42247  -1668783.86746  20777676.2274                   20777671.7814
        47.0004         36.7504
   2767792.68447   2164725.90646  22197409.0944                   22197408.8714
        43.0004         40.7504
   5198140.96946   4048040.77345  23911812.2504                   23911808.5274
        40.5004         32.7504
 25  8  7  1 10  0.0000000  0  8G03G04G06G07G09G16G26G31
   2796872.96148   2187119.39848  20674785.0864                   20674783.8444
        48.0004         48.5004
  -1375566.09047  -1052057.26646  20330252.0864                   20330248.4534
        47.7504         39.7504
    -31483.78946      7913.85545  24428593.4774                   24428594.2854
        39.5004         32.0004
  -3998366.63747  -3030885.38745  23543995.9534                   23543994.8054
        42.5004         35.2504
  -4044251.13747  -3125762.80147  21778094.0474                   21778092.7704
        46.0004         44.7504
  -2283013.98047  -1758550.50046  20755754.0394                   20755749.6054
        46.0004         36.0004
   2742796.91047   2145248.66846  22192653.2664                   22192652.6454
        45.2504         40.5004
   5205623.21946   4053871.07845  23913235.5634                   23913233.1094
        41.0004         33.7504
 25  8  7  1 10 30.0000000  0  8G03G04G06G07G09G16G26G31
   2773155.66447   2168638.33248  20670272.1174                   20670270.9064
        47.2504         48.5004
  -1484367.62947  -1136837.65646  20309547.7034                   20309544.1524
        47.7504         39.5004
   -107879.50846    -51615.28545  24414056.5784                   24414056.3284
        39.7504         32.0004
  -4156892.50047  -3154411.91445  23513828.4924                   23513825.5744
        43.2504         34.0004
  -4206173.63347  -3251936.11747  21747281.3284                   21747279.9104
        46.5004         45.0004
  -2397604.46547  -1847841.73846  20733948.2034                   20733944.0944
        47.2504         36.5004
   2718241.85247   2126114.83646  22187980.5004                   22187980.1454
        43.5004         40.5004
   5213065.55546   4059670.19145  23914651.9924                   23914650.0084
        41.2504         33.5004
 25  8  7  1 11  0.0000000  0  8G03G04G06G07G09G16G26G31
   2749883.61748   2150504.23048  20665843.4224                   20665842.3134
        48.7504         48.7504
  -1592964.11747  -1221458.26646  20288882.5084                   20288879.1484
        47.5004         40.0004
   -183824.59046   -110793.27045  24399604.3674                   24399604.8634
        38.5004         31.5004
  -4315263.20747  -3277817.47745  23483691.4064                   23483687.7974
        43.7504         34.0004
  -4368024.72747  -3378053.80547  21716482.2504                   21716480.8984
        47.0004         45.2504
  -2511580.71147  -1936654.36346  20712259.1564                   20712255.0434
        46.7504         36.7504
   2694128.47347   2107325.16446  22183392.0164                   22183391.2344
        44.0004         40.0004
   5220469.32047   4065439.34045  23916062.1024                   23916057.9184
        43.5004         33.0004
 25  8  7  1 11 30.0000000  0  8G03G04G06G07G09G16G26G31
   2727057.87548   2132717.89148  20661499.8754                   20661498.8134
        49.5004         48.5004
  -1701351.60947  -1305916.02746  20268257.2584                   20268253.7504
        47.7504         40.0004
   -259317.49246   -169618.90645  24385238.4064                   24385239.5704
        37.5004         31.7504
  -4473475.50447  -3401099.62946  23453585.0084                   23453582.7624
        44.0004         36.0004
  -4529800.41047  -3504112.72747  21685696.9384                   21685695.7344
        46.7504         45.0004
  -2624938.63747  -2024985.18446  20690687.7114                   20690683.8444
        47.5004         37.0004
   2670457.32047   2088880.09446  22178887.2114                   22178886.9844
        44.7504         40.0004
   5227836.18047   4071179.72345  23917463.4304                   23917459.3914
        43.0004         32.2504
 25  8  7  1 12  0.0000000  0  8G03G04G06G07G09G16G26G31
   2704679.37948   2115280.06348  20657241.3444                   20657240.6644
        48.2504         48.0004
  -1809526.10247  -1390207.82046  20247672.0864                   20247668.3444
        47.5004         39.7504
   -334356.66046   -228090.98045  24370958.9454                   24370959.1334
        37.2504         31.5004
  -4631527.03947  -3524256.57446  23423509.2664                   23423508.1454
        45.7504         38.0004
  -4691496.47347  -3630109.59847  21654928.0314                   21654925.9494
        47.2504         45.5004
  -2737674.32847  -2112831.12546  20669235.4614                   20669230.9774
        47.5004         37.5004
   2647228.95747   2070780.06346  22174467.3594                   22174466.4774
        43.2504         40.5004
   5235167.49647   4076892.30945  23918859.0474                   23918856.1174
        43.7504         33.0004
 25  8  7  1 12 30.0000000  0  8G03G04G06G07G09G16G26G31
   4258165.29748   3325788.52348  20952860.1484                   20952859.1214
        48.0004         48.2504
   -342064.72747   -246731.40246  20526920.6954                   20526917.5124
        47.5004         39.0004
   1166477.32446    941390.02345  24656558.1884                   24656558.6844
        39.5004         30.5004
  -3213993.71547  -2419685.10246  23693256.5944                   23693255.2704
        44.0004         37.5004
  -3277688.06647  -2528440.66047  21923966.7504                   21923964.7194
        46.2504         45.2504
  -1274364.73848   -972589.84846  20947693.6954                   20947689.4224
        48.0004         37.0004
   4199860.03947   3280622.44946  22469922.7424                   22469922.4964
        43.5004         39.7504
   6817880.00446   5310174.79745  24220037.5704                   24220034.7424
        41.5004         30.7504
 25  8  7  1 13  0.0000000  0  8G03G04G06G07G09G16G26G31
   4236669.56648   3309038.56648  20948769.2584                   20948768.3134
        48.0004         48.0004
   -449816.20747   -330693.57846  20506416.3674                   20506412.7154
        47.5004         39.2504
   1092335.44546    883617.10945  24642449.2344                   24642449.7894
        37.5004         30.5004
  -3371728.67247  -2542595.34446  23663240.5394                   23663237.3634
        45.0004         37.0004
  -3439227.39847  -2654315.41847  21893226.5944                   21893224.4224
        46.0004         45.5004
  -1385858.25447  -1059467.87946  20926477.0084                   20926472.4574
        47.2504         36.0004
   4177504.08647   3263202.19546  22465669.6174                   22465668.6724
        44.2504         40.2504
   6825130.21546   5315824.27045  24221417.0634                   24221414.9064
        40.5004         31.5004
 25  8  7  1 13 30.0000000  0  8G03G04G06G07G09G16G26G31
   4215615.45748   3292632.71548  20944762.9304                   20944761.7074
        48.2504         48.0004
   -557351.41047   -414487.23846  20485952.8914                   20485949.7854
        47.2504         39.5004
   1018643.21146    826194.58245  24628426.1804                   24628427.2194
        37.5004         31.5004
  -3529301.86747  -2665379.53146  23633255.6644                   23633251.7704
        45.0004         36.0004
  -3600683.36347  -2780125.19947  21862502.5004                   21862500.4734
        46.7504         45.5004
  -1496726.26647  -1145858.48846  20905379.8054                   20905375.3164
        47.5004         36.7504
   4155583.95747   3246121.55946  22461498.3914                   22461497.5434
        45.0004         39.5004
   6832340.99246   5321443.00045  24222789.3134                   24222787.2934
        41.0004         33.7504
 25  8  7  1 14  0.0000000  0  8G03G04G06G07G09G16G26G31
   4194999.94548   3276568.63348  20940840.0864                   20940839.0744
        48.2504         48.0004
   -664670.28547   -498112.32046  20465531.1094                   20465527.5354
        46.0004         40.0004
    945398.12146    769120.50045  24614487.4144                   24614489.4414
        36.7504         31.0004
  -3686714.23047  -2788038.43046  23603301.2504                   23603297.9774
        46.2504         37.5004
  -3762055.78547  -2905869.88747  21831794.2034                   21831792.2774
        46.0004         45.2504
  -1606968.78947  -1231761.71946  20884401.0864                   20884396.7114
        46.0004         36.7504
   4134096.15647   3229377.81646  22457408.8204                   22457408.3984
        44.7504         39.7504
   6839509.91847   5327029.16045  24224154.7584                   24224151.8054
        42.5004         34.5004
 25  8  7  1 14 30.0000000  0  8G03G04G06G07G09G16G26G31
   4174817.94148   3260842.35548  20936999.6564                   20936998.6054
        48.0004         48.0004
   -771774.88747   -581570.44946  20445149.2344                   20445145.9694
        46.5004         39.5004
    872595.72346    712391.34045  24600634.1884                   24600635.5234
        38.0004         31.0004
  -3843969.33647  -2910574.80946  23573376.2034                   23573373.9574
        44.7504         37.7504
  -3923346.49647  -3031550.91047  21801101.4384                   21801099.5514
        46.0004         45.5004
  -1716587.98847  -1317179.23846  20863540.9534                   20863536.8754
        47.7504         36.7504
   4113035.23447   3212966.68846  22453400.5554                   22453400.5164
        43.5004         39.5004
   6846632.61746   5332579.17645  24225509.7194                   24225507.6374
        39.7504         33.5004
 25  8  7  1 15  0.0000000  0  8G03G04G06G07G09G16G26G31
   4155066.02047   3245451.19948  20933240.9924                   20933240.0944
        46.5004         48.0004
   -878665.64147   -664861.94546  20424808.8914                   20424805.5594
        45.5004         39.2504
    800233.04546    656004.81645  24586864.2504                   24586864.7934
        38.7504         31.5004
  -4001068.05947  -3032989.32446  23543480.9534                   23543478.0434
        43.2504         36.5004
  -4084555.69547  -3157168.40647  21770424.8754                   21770422.8014
        46.5004         45.5004
  -1825583.76247  -1402110.98046  20842800.5864                   20842795.8594
        46.0004         37.2504
   4092397.23447   3196885.11746  22449474.2114                   22449473.0744
        42.2504         39.7504
   6853706.18846   5338091.09045  24226855.1174                   24226853.4104
        41.5004         34.2504
 25  8  7  1 15 30.0000000  0  8G03G04G06G07G09G16G26G31
   4135746.87548   3230397.27048  20929564.7344                   20929564.2234
        48.0004         48.0004
   -985336.66447   -747982.21946  20404510.2974                   20404506.5594
        47.0004         40.0004
    728313.14846    599963.31345  24573179.3834                   24573178.5744
        38.2504         31.0004
  -4158005.99247  -3155278.52345  23513616.0394                   23513613.2854
        42.7504         34.7504
  -4245677.37547  -3282717.70747  21739763.7584                   21739762.2114
        46.5004         45.7504
  -1933951.43047  -1486553.28946  20822178.2814                   20822173.8554
        46.7504         37.5004
   4072184.54747   3181134.94946  22445626.8444                   22445627.0474
        43.2504         40.0004
   6860734.43046   5343567.57845  24228192.7734                   24228191.2274
        39.7504         33.5004
 25  8  7  1 16  0.0000000  0  8G03G04G06G07G09G16G26G31
   4116858.38348   3215678.91448  20925970.3594                   20925969.5204
        48.2504         48.0004
  -1091787.11347   -830930.62146  20384253.5704                   20384250.1024
        47.0004         39.7504
    656834.64846    544265.76245  24559576.7114                   24559577.1054
        37.5004         30.0004
  -4314782.91447  -3277442.23045  23483782.5864                   23483780.2344
        42.2504         33.5004
  -4406710.39847  -3408197.92647  21709120.3524                   21709118.7274
        47.0004         45.5004
  -2041690.02747  -1570505.41046  20801676.2734                   20801671.7384
        47.2504         37.0004
   4052394.56647   3165714.15246  22441862.0634                   22441861.0004
        44.2504         40.0004
   6867715.46946   5349007.32845  24229521.7344                   24229518.7734
        40.2504         31.2504
 25  8  7  1 16 30.0000000  0  8G03G04G06G07G09G16G26G31
   4098398.88748   3201294.84448  20922457.7344                   20922456.8014
        48.0004         48.2504
  -1198015.35547   -913705.87546  20364038.5314                   20364035.4734
        46.5004         39.5004
    585796.28946    488911.19145  24546058.1804                   24546058.9494
        39.0004         31.0004
  -4471398.46547  -3399480.23445  23453979.0944                   23453978.1564
        42.7504         35.0004
  -4567653.13347  -3533607.79347  21678493.6414                   21678491.9224
        46.2504         45.2504
  -2148797.96548  -1653966.10546  20781294.5944                   20781289.9454
        48.0004         37.5004
   4033025.21147   3150621.12546  22438175.5634                   22438174.9964
        43.0004         39.0004
   6874648.41046   5354409.57045  24230840.5944                   24230838.6684
        39.0004         30.0004
 25  8  7  1 17  0.0000000  0  8G03G04G06G07G09G16G26G31
   4080367.47747   3187244.34448  20919026.4534                   20919025.3014
        47.5004         48.0004
  -1304019.22747   -996306.28946  20343867.0474                   20343863.1254
        47.0004         39.5004
    515197.62146    433899.21945  24532624.4224                   24532624.6214
        37.7504         31.5004
  -4627851.36346  -3521391.49645  23424206.8914                   23424206.0514
        41.5004         35.0004
  -4728503.07047  -3658945.34847  21647885.1954                   21647882.8674
        46.7504         45.2504
  -2255273.21547  -1736933.80146  20761032.5634                   20761028.0824
        46.5004         37.0004
   4014075.16447   3135854.83646  22434569.3594                   22434569.4654
        43.0004         39.2504
   6881533.23446   5359774.25445  24232150.2194                   24232148.4574
        37.5004         30.0004
 25  8  7  1 17 30.0000000  0  8G03G04G06G07G09G16G26G31
   4062762.74648   3173526.33247  20915676.4144                   20915675.4534
        48.2504         47.7504
  -1409796.96947  -1078730.50846  20323737.8524                   20323734.6334
        46.5004         39.5004
    445037.78546    379229.21945  24519272.2344                   24519273.5354
        37.5004         30.2504
  -4784140.80147  -3643175.38745  23394466.4534                   23394464.2034
        42.0004         35.5004
  -4889258.26647  -3784209.08647  21617294.3204                   21617292.3594
        46.2504         45.5004
  -2361114.84847  -1819407.77046  20740891.6024                   20740887.4454
        47.2504         37.0004
   3995542.71547   3121413.96146  22431042.6334                   22431042.9884
        42.7504         39.7504
   6888369.34846   5365101.04344  24233451.6884                   24233449.4734
        38.7504         29.7504
 25  8  7  1 18  0.0000000  0  8G03G04G06G07G09G16G26G31
   4045582.59047   3160139.14547  20912407.1174                   20912406.2344
        47.0004         47.5004
  -1515347.50447  -1160977.67646  20303652.3054                   20303649.3244
        47.0004         40.2504
    375315.18446    324899.89845  24506004.7664                   24506005.8874
        38.5004         30.0004
  -4940266.93747  -3764832.03146  23364756.5314                   23364754.0004
        43.7504         36.5004
  -5049917.44147  -3909398.00847  21586721.7974                   21586719.7384
        46.5004         45.5004
  -2466321.90247  -1901387.26246  20720871.1484                   20720866.9264
        47.0004         36.5004
   3977425.27047   3107296.44146  22427595.8054                   22427594.5944
        42.5004         39.2504
   6895155.41046   5370388.73845  24234743.9064                   24234741.2704
        39.7504         31.7504
 25  8  7  1 18 30.0000000  0  8G03G04G06G07G09G16G26G31
   4028827.65247   3147083.29747  20909219.3284                   20909217.7934
        46.7504         47.7504
  -1620667.02347  -1243044.84446  20283610.9064                   20283607.1884
        47.5004         39.5004
    306030.85246    270912.07445  24492821.2424                   24492821.3164
        38.0004         31.5004
  -5096226.94946  -3886359.20346  23335077.6804                   23335076.2234
        41.5004         36.7504
  -5210476.56247  -4034508.96947  21556168.6174                   21556166.4304
        46.2504         45.7504
  -2570890.70747  -1982869.41446  20700972.8984                   20700968.1294
        47.0004         36.7504
   3959723.06547   3093502.49646  22424227.2974                   22424226.2774
        42.5004         40.2504
   6901893.02746   5375638.82045  24236026.3594                   24236023.2114
        40.7504         31.7504
 25  8  7  1 19  0.0000000  0  8G03G04G06G07G09G16G26G31
   4012495.72347   3134357.07047  20906110.8054                   20906109.8054
        47.5004         47.7504
  -1725754.52047  -1324931.19946  20263613.4064                   20263609.8714
        47.0004         39.2504
    237183.05146    217264.42245  24479719.8914                   24479720.3014
        36.7504         31.2504
  -5252020.94147  -4007757.00846  23305431.5164                   23305429.8094
        44.0004         37.2504
  -5370934.40247  -4159541.00847  21525634.1094                   21525632.4574
        46.2504         45.7504
  -2674821.03547  -2063854.05146  20681195.3834                   20681191.0204
        46.5004         37.0004
   3942433.62147   3080030.18046  22420936.4064                   22420936.1994
        44.2504         39.5004
   6908580.60546   5380849.88745  24237297.2034                   24237295.9804
        38.7504         30.7504
 25  8  7  1 19 30.0000000  0  8G03G04G06G07G09G16G26G31
   3996584.98847   3121959.05147  20903083.0474                   20903082.5864
        47.2504         47.5004
  -1830608.57047  -1406635.66046  20243660.2034                   20243656.7424
        45.0004         40.2504
    168770.54346    163955.96145  24466701.6024                   24466701.7344
        38.0004         30.7504
  -5407648.35947  -4129025.08246  23275816.5784                   23275814.5434
        43.7504         37.5004
  -5531289.26647  -4284492.80547  21495119.3134                   21495118.0164
        46.5004         45.7504
  -2778111.70347  -2144340.25846  20661539.5704                   20661535.2154
        45.5004         36.7504
   3925554.64847   3066877.72346  22417724.8834                   22417723.4574
        43.0004         39.5004
   6915217.36346   5386021.37545  24238561.1254                   24238559.1214
        39.5004         32.2504
 25  8  7  1 20  0.0000000  0  8G03G04G06G07G09G16G26G31
   3981093.02347   3109887.32847  20900135.2974                   20900134.3134
        46.5004         47.5004
  -1935228.39847  -1488157.60246  20223751.3834                   20223748.2194
        47.7504         40.0004
    100791.37946    110985.15245  24453764.6484                   24453766.0634
        37.0004         30.2504
  -5563109.82847  -4250163.77746  23246233.0004                   23246230.8554
        42.7504         38.0004
  -5691540.14847  -4409363.58647  21464624.9064                   21464623.0864
        45.5004         45.7504
  -2880762.54747  -2224327.90246  20642005.8984                   20642001.2074
        46.7504         36.7504
   3909083.32447   3054042.87946  22414591.0394                   22414590.3754
        42.5004         39.7504
   6921801.95347   5391152.16445  24239814.9774                   24239812.4494
        42.0004         34.2504
 25  8  7  1 20 30.0000000  0  8G03G04G06G07G09G16G26G31
   3966017.69148   3098140.26647  20897266.7814                   20897265.8984
        48.0004         47.5004
  -2039612.77747  -1569496.07846  20203887.9454                   20203884.4574
        45.7504         40.0004
     33243.86346     58350.70345  24440910.8674                   24440911.8674
        36.0004         30.7504
  -5718404.91847  -4371172.84046  23216681.6334                   23216679.5164
        43.7504         38.2504
  -5851685.56247  -4534152.18447  21434150.2274                   21434148.2274
        45.7504         45.5004
  -2982772.75847  -2303816.34846  20622593.7664                   20622589.1484
        45.2504         37.0004
   3893017.27347   3041523.87946  22411532.1724                   22411533.2464
        43.5004         40.0004
   6928333.28946   5396241.40245  24241057.3914                   24241054.6054
        40.0004         31.5004
 25  8  7  1 21  0.0000000  0  8G03G04G06G07G09G16G26G31
   3951359.31347   3086718.09447  20894477.4144                   20894476.4454
        47.5004         47.2504
  -2143758.22347  -1650648.36746  20184069.7114                   20184066.3204
        47.0004         40.0004
    -33871.28146      6053.15245  24428140.4774                   24428140.1684
        37.5004         30.7504
  -5873531.10547  -4492050.31246  23187162.1024                   23187160.2894
        43.5004         37.7504
  -6011721.79347  -4658855.71147  21403696.0634                   21403693.9964
        46.2504         45.7504
  -3084139.57847  -2382803.44146  20603304.2274                   20603300.0084
        46.2504         37.0004
   3877356.28947   3029320.48846  22408553.1724                   22408551.7034
        44.2504         38.5004
   6934812.24246   5401289.93445  24242290.0944                   24242287.5124
        38.2504         30.7504
 25  8  7  1 21 30.0000000  0  8G03G04G06G07G09G16G26G31
   5512535.13347   4303218.69147  21191559.3754                   21191558.1524
        47.0004         47.0004
   -672241.14847   -504011.68746  20464089.9774                   20464086.6764
        47.5004         39.5004
   1474865.50446   1181692.16845  24715242.7344                   24715243.3054
        37.2504         31.0004
  -4453064.84847  -3385193.34846  23457467.8834                   23457466.5514
        42.7504         37.5004
  -4596223.09847  -3555869.67647  21673056.5704                   21673055.0004
        45.7504         46.0004
  -1609439.77747  -1233686.68446  20883930.3134                   20883926.1174
        46.5004         37.0004
   5437517.43846   4245030.46546  22705441.5784                   22705441.2584
        41.5004         39.5004
   8516656.78146   6633896.01245  24543305.2194                   24543302.8324
        39.7504         31.5004
 25  8  7  1 22  0.0000000  0  8G03G04G06G07G09G16G26G31
   5498704.89148   4292441.82447  21188927.3204                   21188926.4144
        48.0004         47.0004
   -775904.54347   -584788.35546  20444363.7664                   20444360.5904
        47.5004         40.0004
   1408610.82046   1130065.12945  24702635.1804                   24702635.5434
        37.7504         31.5004
  -4607853.32447  -3505807.66446  23428012.7504                   23428010.7584
        44.7504         38.2504
  -4756035.92647  -3680399.11747  21642646.0084                   21642643.6254
        46.2504         46.2504
  -1709516.89147  -1311668.82046  20864886.1564                   20864881.8094
        46.5004         37.0004
   5422659.92247   4233453.15646  22702614.4534                   22702614.6914
        44.5004         39.7504
   8523028.76646   6638861.14845  24544518.1644                   24544515.4224
        41.0004         34.5004
 25  8  7  1 22 30.0000000  0  9G27G03G04G06G07G09G16G26G31
   7580042.76656   5947195.81355  25138174.5864                   25138179.7034
        37.7504         31.7504
   5485286.48447   4281985.86747  21186373.7664                   21186373.1684
        47.0004         47.0004
   -879324.14147   -665375.04746  20424683.1564                   20424680.0944
        46.2504         39.5004
   1342784.83646   1078772.11345  24690108.6094                   24690109.2504
        38.2504         31.7504
  -4762471.85547  -3626289.53546  23398588.4924                   23398586.3954
        42.0004         36.5004
  -4915733.87547  -3804839.05147  21612256.0314                   21612253.7154
        46.2504         46.2504
  -1808947.28147  -1389147.02346  20845965.4844                   20845961.2584
        46.2504         36.5004
   5408201.48447   4222186.77346  22699863.5704                   22699862.8634
        43.5004         39.5004
   8529346.48046   6643783.97745  24545719.2664                   24545717.9614
        38.2504         30.5004
 25  8  7  1 23  0.0000000  0  9G27G03G04G06G07G09G16G26G31
   7405921.60246   5811517.17645  25105040.8834                   25105044.9964
        38.0004         32.0004
   5472273.28147   4271845.67247  21183897.6724                   21183897.1374
        46.0004         47.0004
   -982503.28547   -745774.36746  20405049.0704                   20405045.8984
        47.7504         40.0004
   1277381.29746   1027808.28145  24677662.9534                   24677664.1484
        38.5004         32.5004
  -4916924.54347  -3746642.16446  23369197.9304                   23369193.7584
        44.7504         36.7504
  -5075320.01247  -3929191.84047  21581887.8754                   21581885.5784
        47.0004         46.2504
  -1907735.31647  -1466124.68046  20827166.8984                   20827162.1524
        47.7504         36.5004
   5394134.95747   4211225.84446  22697186.3674                   22697185.4144
        42.5004         39.0004
   8535604.38346   6648660.19145  24546911.2504                   24546908.7774
        41.0004         31.5004
 25  8  7  1 23 30.0000000  0  9G27G03G04G06G07G09G16G26G31
   7231766.55946   5675812.15645  25071899.6804                   25071904.3404
        38.0004         32.2504
   5459660.91447   4262017.79347  21181497.7814                   21181497.1684
        47.5004         47.0004
  -1085443.01247   -825987.14146  20385460.5704                   20385456.9534
        47.2504         39.5004
   1212396.28546    977170.56645  24665296.0864                   24665297.7624
        38.5004         31.0004
  -5071213.66847  -3866867.41045  23339837.0004                   23339832.8594
        42.0004         35.5004
  -5234795.05147  -4053458.07847  21551540.4844                   21551538.3554
        46.0004         46.5004
  -2005882.64547  -1542603.08646  20808489.9454                   20808485.3914
        47.5004         36.7504
   5380455.71547   4200566.67246  22694583.4224                   22694583.6564
        44.2504         39.5004
   8541799.31347   6653487.39545  24548090.3284                   24548087.3204
        43.5004         34.0004
 25  8  7  1 24  0.0000000  0  9G27G03G04G06G07G09G16G26G31
   7057581.98045   5540084.14144  25038753.1804                   25038757.8054
        33.7504         26.5004
   5447448.36347   4252501.47347  21179173.9224                   21179172.9694
        47.0004         47.0004
  -1188140.94147   -906011.48846  20365917.8364                   20365914.6914
        47.5004         39.5004
   1147829.23046    926858.52345  24653010.1024                   24653010.8634
        37.5004         30.0004
  -5225338.07047  -3986964.20746  23310508.9384                   23310504.3204
        43.2504         36.0004
  -5394156.35547  -4177635.68747  21521214.7814                   21521213.2504
        46.0004         46.5004
  -2103387.48447  -1618580.85246  20789935.0084                   20789930.7424
        45.7504         36.7504
   5367162.46147   4190208.24246  22692054.6564                   22692054.0904
        45.0004         39.5004
   8547931.18047   6658265.47345  24549256.6644                   24549254.5664
        42.5004         32.5004
 25  8  7  1 24 30.0000000  0  9G27G03G04G06G07G09G16G26G31
   6883372.94545   5404337.08644  25005601.9924                   25005606.8984
        33.0004         25.5004
   5435635.15247   4243296.33647  21176925.9384                   21176925.1024
        46.5004         46.5004
  -1290594.18447   -985845.17646  20346421.5004                   20346418.0904
        47.2504         40.0004
   1083680.16046    876872.17244  24640803.8594                   24640803.7424
        38.0004         29.7504
  -5379295.89547  -4106931.28946  23281210.9224                   23281208.4844
        42.5004         36.2504
  -5553400.73847  -4301722.18747  21490911.7664                   21490909.5314
        44.7504         46.5004
  -2200247.77047  -1694056.36346  20771503.3444                   20771498.5394
        46.0004         36.2504
   5354254.29747   4180149.94546  22689596.8594                   22689596.5904
        44.2504         39.0004
   8554000.73047   6662994.93445  24550412.4614                   24550409.7814
        43.2504         33.2504
 25  8  7  1 25  0.0000000  0  9G27G03G04G06G07G09G16G26G31
   6709143.21145   5268573.90644  24972447.3284                   24972451.7774
        34.2504         25.7504
   5424219.85948   4234401.23447  21174753.8524                   21174753.0474
        48.0004         47.0004
  -1392800.73847  -1065486.63746  20326971.9694                   20326968.5394
        47.2504         40.0004
   1019947.96546    827210.72344  24628674.4384                   24628676.0824
        36.5004         28.5004
  -5533086.61747  -4226768.08646  23251946.3524                   23251943.8094
        44.5004         37.5004
  -5712525.84047  -4425715.72347  21460631.5634                   21460629.4414
        45.7504         46.7504
  -2296462.25847  -1769028.65246  20753194.1254                   20753189.7504
        46.2504         36.5004
   5341729.60547   4170390.41446  22687214.1884                   22687213.1094
        44.7504         39.5004
   8560007.81647   6667675.74245  24551555.2584                   24551552.7074
        42.5004         33.0004
 25  8  7  1 25 30.0000000  0  9G27G03G04G06G07G09G16G26G31
   6534899.07846   5132799.46144  24939289.6254                   24939294.1334
        36.5004         27.5004
   5413203.17647   4225816.75447  21172657.0944                   21172656.6724
        46.0004         46.7504
  -1494756.53147  -1144932.69146  20307570.2734                   20307567.0984
        47.0004         39.2504
    956633.86746    777875.02044  24616626.6644                   24616627.5434
        37.5004         28.5004
  -5686707.10246  -4346472.27046  23222711.9144                   23222710.7074
        41.7504         37.0004
  -5871527.29347  -4549612.92247  21430374.6644                   21430372.5634
        46.5004         47.0004
  -2392027.65647  -1843495.17646  20735008.7974                   20735003.9024
        46.7504         36.5004
   5329588.66847   4160929.93446  22684903.4534                   22684903.8634
        42.0004         39.0004
   8565954.07846   6672309.14145  24552686.4614                   24552684.2034
        41.7504         34.0004
 25  8  7  1 26  0.0000000  0  9G27G03G04G06G07G09G16G26G31
   6360643.95746   4997016.50044  24906130.5554                   24906134.1134
        37.2504         28.5004
   5402582.92247   4217541.19147  21170636.4304                   21170635.7854
        46.5004         46.5004
  -1596460.35947  -1224182.41446  20288217.1954                   20288213.7584
        47.5004         39.5004
    893736.02046    728863.66044  24604657.3054                   24604658.2424
        36.5004         29.2504
  -5840157.34047  -4466043.76246  23193512.9304                   23193508.8164
        45.5004         37.5004
  -6030403.56647  -4673412.55947  21400140.9924                   21400138.6024
        46.2504         47.0004
  -2486943.78147  -1917455.75046  20716946.8834                   20716941.9224
        47.5004         37.0004
   5317829.05147   4151766.55146  22682665.8364                   22682666.3014
        43.2504         38.5004
   8571838.60546   6676894.43444  24553806.2194                   24553803.8404
        39.5004         29.5004
 25  8  7  1 26 30.0000000  0  9G27G03G04G06G07G09G16G26G31
   6186382.28545   4861228.45344  24872968.4064                   24872972.6804
        35.0004         26.5004
   5392358.28947   4209573.89847  21168690.7664                   21168690.1954
        47.2504         46.0004
  -1697909.60947  -1303233.76646  20268911.7584                   20268908.0904
        47.0004         39.2504
    831254.00446    680176.35245  24592767.3204                   24592768.5664
        36.7504         30.0004
  -5993435.72747  -4585481.41846  23164342.7584                   23164341.1024
        42.7504         37.0004
  -6189151.70747  -4797112.35947  21369932.8054                   21369930.4924
        46.0004         46.7504
  -2581209.05147  -1990909.18046  20699008.8054                   20699004.0514
        47.2504         37.5004
   5306449.60547   4142899.41046  22680500.6094                   22680500.1524
        44.5004         38.0004
   8577661.93846   6681432.07845  24554914.7664                   24554912.6954
        40.5004         31.7504
 25  8  7  1 27  0.0000000  0  9G27G03G04G06G07G09G16G26G31
   6012117.59046   4725438.02744  24839807.3204                   24839810.3874
        37.5004         27.0004
   5382527.21147   4201913.27047  21166819.5234                   21166819.1374
        45.7504         46.0004
  -1799102.87547  -1382085.65646  20249654.8204                   20249651.9964
        46.0004         40.0004
    769186.18046    631811.72344  24580957.4224                   24580957.7194
        37.5004         28.2504
  -6146542.25047  -4704785.05946  23135209.0864                   23135206.4414
        45.0004         38.2504
  -6347769.98047  -4920710.95747  21339748.1254                   21339746.0474
        45.7504         47.0004
  -2674822.81648  -2063854.95346  20681194.7424                   20681189.7624
        48.0004         37.0004
   5295447.94547   4134326.70746  22678406.8674                   22678406.2974
        43.5004         37.5004
   8583423.42646   6685921.50045  24556010.2504                   24556008.7624
        41.5004         30.5004
 25  8  7  1 27 30.0000000  0  9G27G03G04G06G07G09G16G26G31
   5837854.44146   4589648.68044  24806646.0004                   24806649.7234
        37.0004         25.2504
   5373088.75847   4194558.58647  21165023.6484                   21165022.8094
        46.5004         45.7504
  -1900037.61747  -1460736.08646  20230448.2974                   20230444.7194
        47.0004         39.7504
    707532.04746    583769.50445  24569225.1644                   24569225.1804
        37.7504         30.0004
  -6299475.54747  -4823953.79746  23106105.8914                   23106104.4614
        45.0004         38.2504
  -6506255.50847  -5044206.12547  21309589.7664                   21309587.5164
        46.7504         47.0004
  -2767783.44548  -2136291.77746  20663505.1024                   20663499.9574
        48.5004         37.0004
   5284822.97747   4126047.46946  22676385.7034                   22676384.2034
        44.0004         38.0004
   8589123.07846   6690362.69545  24557095.0864                   24557093.4184
        38.7504         30.0004
 25  8  7  1 28  0.0000000  0  9G27G03G04G06G07G09G16G26G31
   5663598.77045   4453865.25444  24773485.6724                   24773489.3444
        35.7504         25.0004
   5364043.47747   4187510.26647  21163302.6094                   21163301.8594
        47.2504         45.7504
  -2000709.83647  -1539181.95746  20211290.6954                   20211287.4774
        46.5004         39.7504
    646292.55146    536050.35544  24557571.8134                   24557572.4774
        37.0004         28.5004
  -6452232.87147  -4942985.35946  23077037.4614                   23077034.8984
        44.0004         38.0004
  -6664603.91047  -5167594.43047  21279456.7584                   21279454.5554
        46.7504         47.2504
  -2860088.15647  -2208217.49646  20645939.9454                   20645935.1054
        47.7504         36.0004
   5274574.79747   4118061.85946  22674435.0634                   22674434.2934
        43.7504         37.5004
   8594762.88347   6694757.32445  24558168.8984                   24558166.3204
        42.7504         32.0004
 25  8  7  1 28 30.0000000  0  9G27G03G04G06G07G09G16G26G31
   5489354.98446   4318091.08644  24740328.4064                   24740331.9264
        36.2504         25.2504
   5355389.85247   4180767.12547  21161656.1564                   21161655.3054
        47.0004         46.0004
  -2101117.58647  -1617421.75046  20192183.9454                   20192180.2344
        46.5004         40.0004
    585466.55946    488653.46544  24545996.2814                   24545997.3444
        36.5004         28.5004
  -6604812.96947  -5061878.83646  23048002.8834                   23047999.2774
        43.5004         37.5004
  -6822812.90247  -5290874.10547  21249350.1954                   21249348.0664
        47.0004         47.2504
  -2951735.83247  -2279631.24246  20628499.5234                   20628494.6214
        47.5004         36.7504
   5264701.78547   4110368.55946  22672556.8444                   22672555.7934
        43.2504         37.5004
   8600342.69946   6699105.22344  24559229.8444                   24559228.0314
        38.2504         26.7504
 25  8  7  1 29  0.0000000  0  9G27G03G04G06G07G09G16G26G31
   5315125.06346   4182327.69543  24707173.5944                   24707176.5664
        36.7504         22.0004
   5347124.60947   4174326.63347  21160083.0394                   21160082.6334
        46.5004         46.0004
  -2201260.63347  -1695455.28946  20173127.4694                   20173123.7074
        46.5004         39.7504
    525051.22746    441576.52744  24534499.7734                   24534499.8594
        37.2504         29.0004
  -6757217.52347  -5180635.54346  23019000.3914                   23018997.9024
        42.0004         37.5004
  -6980881.86747  -5414044.67247  21219270.7974                   21219268.7584
        46.5004         47.2504
  -3042727.44547  -2350533.77746  20611184.5554                   20611180.1844
        46.5004         37.7504
   5255200.21946   4102964.73046  22670747.1804                   22670747.9344
        40.2504         37.0004
   8605860.44546   6703404.66445  24560280.4304                   24560277.9144
        41.7504         33.5004
 25  8  7  1 29 30.0000000  0  9G27G03G04G06G07G09G16G26G31
   5140914.92246   4046579.73044  24674021.6564                   24674025.1134
        37.5004         27.0004
   5339247.99647   4168188.96947  21158584.5864                   21158583.7344
        47.0004         45.7504
  -2301135.25847  -1773279.66046  20154121.7194                   20154118.2894
        47.5004         40.5004
    465047.00846    394819.98444  24523080.9224                   24523081.9694
        36.2504         28.5004
  -6909443.83647  -5299253.33246  22990033.0164                   22990030.5234
        44.0004         37.7504
  -7138806.69947  -5537102.92647  21189219.1024                   21189216.3594
        46.5004         47.2504
  -3133060.20347  -2420922.91046  20593994.8134                   20593989.7304
        46.5004         36.5004
   5246070.21547   4095850.38346  22669011.9144                   22669010.3324
        42.5004         37.0004
   8611317.79747   6707657.08645  24561318.9224                   24561316.6454
        43.7504         34.7504
 25  8  7  1 30  0.0000000  0  9G27G03G04G06G07G09G16G26G31
   6542153.11346   5138453.83644  24940668.5394                   24940672.3674
        37.2504         26.7504
   6907177.32447   5389952.02347  21456951.7814                   21456950.8284
        46.5004         45.5004
   -825317.50047   -623291.78946  20434960.7344                   20434956.9614
        46.2504         40.0004
   1980873.57446   1575983.47744  24811533.5704                   24811534.3364
        37.5004         29.0004
  -5486067.26647  -4190128.62546  23260891.9224                   23260889.2154
        43.5004         38.2504
  -5721161.17647  -4432444.02347  21458987.5084                   21458985.3404
        46.7504         47.2504
  -1647311.72747  -1263196.81646  20876723.6334                   20876718.6684
        47.0004         36.5004
   6812728.85947   5316623.35546  22967136.0474                   22967134.7814
        42.7504         37.2504
  10192133.12547   7939461.18845  24862138.7664                   24862135.9184
        42.0004         30.5004
 25  8  7  1 30 30.0000000  0  9G27G03G04G06G07G09G16G26G31
   6367990.04746   5002742.52344  24907526.8364                   24907529.6254
        37.5004         24.0004
   6900068.54747   5384412.68047  21455598.5554                   21455598.1884
        46.5004         45.5004
   -924654.04747   -700696.88746  20416057.1954                   20416053.6174
        45.7504         40.0004
   1921683.62146   1529861.38344  24800269.4454                   24800270.6644
        37.0004         28.5004
  -5637939.18747  -4308470.31246  23231991.7504                   23231988.9064
        44.0004         38.0004
  -5878795.41047  -4555275.85547  21428990.4694                   21428988.4654
        47.0004         47.5004
  -1736329.45348  -1332561.25446  20859783.6174                   20859778.9694
        48.0004         37.2504
   6804331.66847   5310080.06646  22965538.7424                   22965537.3794
        44.0004         37.2504
  10197464.55146   7943615.51643  24863153.5864                   24863151.0084
        38.2504         23.0004
 25  8  7  1 31  0.0000000  0  9G27G03G04G06G07G09G16G26G31
   6193856.79746   4867054.42644  24874390.0234                   24874392.9654
        38.0004         28.7504
   6893341.45347   5379170.73047  21454318.9304                   21454317.4924
        46.5004         45.2504
  -1023718.53547   -777889.98446  20397205.9454                   20397202.5634
        46.7504         39.7504
   1862899.05146   1484055.21944  24789083.5704                   24789083.8244
        37.2504         28.2504
  -5789632.84047  -4426673.09446  23203125.6174                   23203122.9924
        43.0004         38.0004
  -6036280.77347  -4677991.67247  21399021.9534                   21399019.7584
        45.7504         47.5004
  -1824688.01247  -1401412.05946  20842969.6644                   20842964.9654
        46.0004         37.5004
   6796298.26247   5303820.23846  22964009.0234                   22964009.8794
        42.5004         37.5004
  10202732.79345   7947720.61343  24864155.8204                   24864152.8134
        33.5004         18.2504
 25  8  7  1 31 30.0000000  0  9G27G03G04G06G07G09G16G26G31
   6019756.82046   4731392.30544  24841260.5234                   24841263.3834
        38.2504         27.0004
   6886993.91847   5374224.56347  21453110.5394                   21453110.2274
        45.5004         45.2504
  -1122509.53147   -854869.97346  20378406.5314                   20378403.4414
        46.0004         40.0004
   1804518.05546   1438563.48844  24777973.4224                   24777974.8484
        37.2504         28.7504
  -5941147.96947  -4544736.74246  23174293.6644                   23174290.8954
        43.5004         38.5004
  -6193615.38347  -4800590.02347  21369082.5234                   21369080.1884
        46.5004         47.5004
  -1912387.41847  -1469749.23846  20826281.3364                   20826276.3444
        47.5004         36.7504
   6788626.27746   5297842.07046  22962548.9304                   22962549.5084
        41.7504         36.0004
                                  24865146.9614                   24865144.5354
        30.0004         16.2504
 25  8  7  1 32  0.0000000  0  9G27G03G04G06G07G09G16G26G31
   5845693.83646   4595758.94144  24808136.9384                   24808140.1844
        37.0004         28.5004
   6881023.87947   5369572.53147  21451974.6484                   21451974.3834
        44.5004         45.2504
  -1221025.52747   -931635.68046  20359659.4924                   20359656.1564
        47.0004         40.2504
   1746539.09046   1393384.98844  24766941.6564                   24766942.2464
        37.7504         28.5004
  -6092483.77047  -4662660.66046  23145494.7194                   23145491.6564
        43.7504         38.2504
  -6350797.26247  -4923069.36747  21339171.8594                   21339169.3954
        46.5004         47.7504
  -1999427.71948  -1537572.82046  20809717.5784                   20809713.0704
        48.5004         37.2504
   6781313.48846   5292143.75046  22961157.6804                   22961157.8014
        41.5004         36.0004
  10213077.88714                  24866124.297
        27.500
 25  8  7  1 32 30.0000000  0  8G27G03G04G06G07G09G16G26
   5671670.32046   4460156.43445  24775020.9224                   24775024.1914
        37.2504         30.5004
   6875428.23447   5365212.23047  21450910.0084                   21450909.6254
        45.2504         45.2504
  -1319266.08647  -1008186.75846  20340965.1174                   20340961.9454
        46.5004         39.5004
   1688959.28546   1348517.59044  24755984.1334                   24755984.7624
        38.0004         28.0004
  -6243641.95747  -4780446.20746  23116730.5864                   23116727.7194
        43.7504         38.2504
  -6507825.60947  -5045429.08648  21309290.4454                   21309288.4264
        47.0004         48.0004
  -2085809.36347  -1604883.17646  20793279.8134                   20793274.8834
        47.2504         37.0004
   6774356.49647   5286722.68446  22959834.7734                   22959833.8164
        43.2504         37.2504
 25  8  7  1 33  0.0000000  0  8G27G03G04G06G07G09G16G26
   5497693.28146   4324590.03944  24741912.7504                   24741916.9734
        36.0004         26.0004
   6870208.13747   5361144.58247  21449916.9384                   21449916.0634
        46.0004         45.2504
  -1417226.42247  -1084519.49246  20322323.8284                   20322320.6454
        46.5004         40.2504
   1631780.15646   1303962.38344  24745103.1884                   24745103.8714
        37.5004         26.2504
  -6394618.81647  -4898090.46546  23088000.3284                   23087997.5824
        43.0004         38.5004
  -6664695.21947  -5167665.11348  21279439.2034                   21279436.8284
        46.5004         48.0004
  -2171528.95748  -1671677.64146  20776968.2424                   20776962.9534
        48.2504         37.0004
   6767756.27047   5281579.64546  22958578.1174                   22958577.6764
        42.7504         37.5004
 25  8  7  1 33 30.0000000  0  8G27G03G04G06G07G09G16G26
   5323765.24246   4189061.85944  24708815.9144                   24708819.4844
        37.7504         27.5004
   6865360.44947   5357367.11347  21448994.5164                   21448993.6024
        45.5004         45.2504
  -1514906.11747  -1160633.53946  20303736.0634                   20303732.6054
        47.0004         40.0004
   1574998.94946   1259717.22344  24734298.2034                   24734298.5204
        37.0004         27.5004
  -6545415.01647  -5015593.91446  23059304.9614                   23059301.9884
        45.2504         38.5004
  -6821405.21547  -5289776.76648  21249617.7114                   21249615.6294
        47.5004         48.0004
  -2256587.50047  -1737957.00846  20760781.8834                   20760776.9884
        47.7504         36.5004
   6761509.42247   5276711.93846  22957389.4924                   22957389.1174
        42.7504         37.2504
 25  8  7  1 34  0.0000000  0  8G27G03G04G06G07G09G16G26
   5149886.21946   4053571.89144  24675727.5784                   24675730.8834
        38.0004         26.7504
   6860879.50447   5353875.41447  21448141.5394                   21448141.1724
        45.2504         45.2504
  -1612307.27047  -1236530.53946  20285201.4304                   20285197.8984
        46.5004         40.5004
   1518610.27346   1215777.94944  24723567.2344                   24723568.4614
        36.5004         28.7504
  -6696033.77747  -5132959.08646  23030643.0084                   23030639.8984
        43.7504         38.5004
  -6977957.25847  -5411765.34448  21219826.8754                   21219824.8594
        47.0004         48.0004
  -2340988.44148  -1803723.96546  20744720.8364                   20744716.1994
        48.5004         37.0004
   6755610.01247   5272114.98846  22956266.9304                   22956266.8634
        43.5004         38.5004
 25  8  7  1 34 30.0000000  0  8G27G03G04G06G07G09G16G26
   4976062.61746   3918125.09444  24642650.7034                   24642653.7704
        38.2504         29.5004
   6856765.78947   5350669.87947  21447358.6024                   21447358.4024
        45.7504         45.0004
  -1709425.75047  -1312207.27746  20266720.3444                   20266716.9574
        46.5004         40.2504
   1462614.94946   1172145.18444  24712912.1254                   24712913.4654
        37.0004         27.0004
  -6846472.27347  -5250183.83246  23002015.1174                   23002013.0704
        44.0004         39.2504
  -7134346.76647  -5533627.27748  21190066.9844                   21190064.2894
        46.5004         48.0004
  -2424729.09048  -1868976.39846  20728785.4384                   20728780.9454
        48.2504         37.0004
   6750058.48047   5267789.07046  22955210.6254                   22955210.6294
        42.5004         38.0004
 25  8  7  1 35  0.0000000  0  8G27G03G04G06G07G09G16G26
   4802296.05146   3782722.75844  24609583.9064                   24609586.5354
        38.5004         28.7504
   6853015.27047   5347747.34047  21446644.9614                   21446644.3094
        45.0004         44.7504
  -1806261.96947  -1387664.06246  20248292.9774                   20248289.4774
        46.2504         40.0004
   1407009.34845   1128816.11744  24702331.4844                   24702331.5434
        35.5004         26.7504
  -6996732.33647  -5367269.52046  22973421.6954                   22973419.1334
        44.5004         39.2504
  -7290573.68047  -5655362.51648  21160338.0164                   21160335.4184
        46.2504         48.0004
  -2507811.14548  -1933715.64146  20712975.7734                   20712970.9414
        48.5004         37.0004
   6744850.44547   5263730.86346  22954219.2814                   22954219.4454
        43.5004         39.2504
 25  8  7  1 35 30.0000000  0  8G27G03G04G06G07G09G16G26
   4628592.74246   3647369.68444  24576528.3594                   24576531.4774
        36.5004         26.0004
   6849628.35947   5345108.13747  21446000.3364                   21446000.2974
        45.7504         45.0004
  -1902811.94947  -1462897.81646  20229919.9774                   20229916.9304
        47.2504         40.0004
   1351794.08246   1085791.20344  24691823.4144                   24691824.1334
        36.7504         26.0004
  -7146811.40647  -5484214.17646  22944862.9384                   22944859.4144
        44.2504         39.2504
  -7446633.55947  -5776967.59848  21130640.8524                   21130638.9264
        47.0004         48.0004
  -2590232.22748  -1997939.84046  20697291.4614                   20697286.7194
        48.2504         37.2504
   6739986.20346   5259940.51246  22953293.2814                   22953293.9184
        41.2504         37.5004
 25  8  7  1 36  0.0000000  0  8G27G03G04G06G07G09G16G26
   4454956.25846   3512068.69144  24543487.0474                   24543489.7074
        36.5004         25.2504
   6846602.77347   5342750.48047  21445425.0394                   21445424.5744
        45.2504         45.2504
  -1999074.28147  -1537907.42646  20211601.7194                   20211598.7114
        45.5004         39.5004
   1296967.25046   1043068.96544  24681390.8984                   24681390.8324
        36.7504         26.0004
  -7296708.87947  -5601017.30946  22916338.5004                   22916335.2894
        44.5004         39.5004
  -7602524.51647  -5898441.05948  21100975.8364                   21100973.4654
        46.7504         48.2504
  -2671992.54748  -2061649.16046  20681732.4454                   20681727.7934
        48.0004         36.7504
   6735463.26647   5256416.09846  22952434.1884                   22952433.1914
        42.5004         38.5004
 25  8  7  1 36 30.0000000  0  8G27G03G04G06G07G09G16G26
   4281386.68846   3376819.87544  24510457.0944                   24510460.5084
        36.5004         29.7504
   6843932.82047   5340669.93847  21444916.5944                   21444916.4774
        45.5004         44.7504
  -2095051.05147  -1612694.52046  20193338.2424                   20193334.5904
        46.2504         40.2504
   1242523.54346   1000645.23844  24671030.6804                   24671030.9384
        37.7504         26.5004
  -7446428.35947  -5717681.76646  22887847.5084                   22887844.5864
        44.5004         40.0004
  -7758248.13347  -6019784.12548  21071342.2504                   21071340.6094
        47.0004         48.5004
  -2753095.59047  -2124846.32446  20666299.5864                   20666295.0744
        47.5004         37.5004
   6731275.78946   5253153.12946  22951636.2504                   22951636.2584
        40.5004         37.7504
 25  8  7  1 37  0.0000000  0  8G27G03G04G06G07G09G16G26
   4107887.07446   3241625.53544  24477441.7814                   24477444.2974
        37.0004         29.2504
   6841615.60547   5338864.25847  21444476.1334                   21444475.8204
        45.0004         44.2504
  -2190741.45347  -1687258.46546  20175128.7114                   20175125.3954
        47.7504         39.5004
   1188460.22346    958517.94544  24660742.4694                   24660744.0824
        37.5004         27.5004
  -7595970.27047  -5834207.86346  22859390.0554                   22859387.6914
        45.5004         40.2504
  -7913803.15247  -6140995.80948  21041741.4144                   21041739.1094
        47.0004         48.5004
  -2833542.26647  -2187532.02046  20650991.3284                   20650986.1454
        47.7504         36.2504
   6727420.69547   5250149.12946  22950902.7664                   22950902.7854
        42.5004         36.7504
 25  8  7  1 37 30.0000000  0  8G27G03G04G06G07G09G16G26
   3934463.12546   3106490.20745  24444439.2274                   24444442.6294
        38.2504         30.0004
   6839651.09447   5337333.40247  21444102.4384                   21444101.7274
        45.2504         45.0004
  -2286141.94147  -1761596.50846  20156975.1884                   20156971.2814
        45.0004         39.2504
   1134777.68846    916687.29744  24650527.2274                   24650528.3284
        37.7504         28.5004
  -7745332.51247  -5950593.94546  22830967.9694                   22830965.0434
        46.7504         41.0004
  -8069185.49647  -6262072.92648  21012173.3984                   21012170.6994
        47.0004         48.5004
  -2913330.24647  -2249704.45346  20635807.8134                   20635803.2544
        47.7504         36.5004
   6723897.77046   5247403.97746  22950231.8674                   22950232.6254
        40.5004         37.2504
 25  8  7  1 38  0.0000000  0  8G27G03G04G06G07G09G16G26
   3761118.84446   2971416.95744  24411453.9924                   24411455.8554
        37.5004         29.5004
   6838037.33647   5336075.87547  21443794.7344                   21443794.6334
        44.5004         45.0004
  -2381250.72747  -1835707.23046  20138876.2114                   20138872.8284
        47.0004         40.0004
   1081474.19946    875152.10544  24640384.0944                   24640384.0044
        40.2504         28.5004
  -7894514.30947  -6066839.41446  22802579.8054                   22802576.4344
        46.0004         41.0004
  -8224392.84047  -6383013.68448  20982638.2734                   20982635.6414
        46.5004         48.7504
  -2992459.53948  -2311363.62146  20620750.7114                   20620745.2194
        48.2504         37.0004
   6720704.95747   5244916.02346  22949624.9064                   22949625.4574
        42.2504         38.0004
 25  8  7  1 38 30.0000000  0  8G27G03G04G06G07G09G16G26
   5163283.06346   4064012.64144  24678275.9384                   24678279.0434
        38.5004         28.2504
   8412191.66847   6562689.57447  21743346.9614                   21743346.6174
        45.0004         44.5004
   -900643.77347   -681987.52346  20420626.3444                   20420622.7814
        46.2504         40.7504
   2603969.15846   2061511.72944  24930104.8984                   24930106.0004
        38.7504         28.0004
  -6468091.32447  -4955340.89546  23074018.8284                   23074015.7384
        46.0004         41.0004
  -6803998.66847  -5276212.99648  21252930.3594                   21252927.6644
        47.7504         48.5004
  -1495508.54348  -1144908.27346  20905609.8284                   20905605.5594
        48.2504         36.7504
   8293259.37947   6470283.07046  23248871.9384                   23248872.3284
        42.0004         38.0004
 25  8  7  1 39  0.0000000  0  8G27G03G04G06G07G09G16G26
   4990110.27746   3929072.98445  24645322.6724                   24645325.3954
        39.0004         30.2504
   8411274.04747   6561974.49647  21743172.3204                   21743172.4064
        44.7504         44.5004
   -995163.59047   -755639.31646  20402639.4774                   20402636.2624
        46.5004         40.0004
   2551419.27046   2020563.69144  24920105.2734                   24920106.6334
        38.7504         27.5004
  -6616911.14147  -5071304.30946  23045699.2974                   23045695.6214
        46.0004         41.0004
  -6958848.99247  -5396875.54748  21223463.1644                   21223460.6214
        47.0004         48.7504
  -1573319.99647  -1205540.54346  20890803.0944                   20890798.1094
        47.5004         36.0004
   8290720.87946   6468304.97346  23248388.9774                   23248389.5274
        40.2504         37.0004
 25  8  7  1 39 30.0000000  0  8G27G03G04G06G07G09G16G26
   4817024.22746   3794200.90645  24612384.9144                   24612387.8914
        39.0004         30.2504
   8410696.58647   6561524.45747  21743062.3984                   21743062.1414
        45.0004         44.7504
  -1089391.32447   -829063.51246  20384708.7584                   20384705.2424
        45.5004         39.7504
   2499238.71946   1979903.48444  24910175.3594                   24910177.0124
        39.5004         28.5004
  -6765554.05147  -5187129.87546  23017413.4064                   23017410.2974
        45.7504         41.0004
  -7113522.34447  -5517400.19948  21194029.8914                   21194027.3794
        47.5004         48.5004
  -1650477.44948  -1265663.20346  20876120.7034                   20876115.4384
        48.5004         36.7504
   8288501.38746   6466575.48246  23247966.1024                   23247966.2894
        40.7504         36.7504
 25  8  7  1 40  0.0000000  0  8G27G03G04G06G07G09G16G26
   4644032.90646   3659402.62945  24579465.5554                   24579468.5204
        39.5004         30.7504
   8410461.39847   6561341.13747  21743017.5084                   21743017.7034
        44.5004         44.2504
  -1183321.17247   -902255.59046  20366834.5314                   20366830.7504
        47.0004         40.2504
   2447429.86346   1939532.91444  24900316.4224                   24900317.1994
        39.5004         28.7504
  -6914015.39147  -5302813.96546  22989162.3444                   22989158.7424
        46.0004         40.7504
  -7268012.43747  -5637782.04748  21164631.4534                   21164628.7344
        47.0004         48.5004
  -1726976.75048  -1325273.01246  20861563.1804                   20861558.4964
        48.5004         36.0004
   8286602.84846   6465096.08646  23247604.6024                   23247604.6764
        41.2504         36.7504
 25  8  7  1 40 30.0000000  0  8G27G03G04G06G07G09G16G26
   4471139.55146   3524680.71944  24546564.3134                   24546567.3094
        38.2504         29.7504
   8410565.83647   6561422.44947  21743037.2814                   21743037.3404
        44.0004         44.0004
  -1276952.12547   -975214.76646  20349017.0554                   20349013.5124
        47.0004         40.0004
   2395990.41846   1899450.17244  24890528.3914                   24890529.0554
        39.2504         29.7504
  -7062295.99247  -5418357.22746  22960944.7584                   22960941.6414
        45.5004         40.0004
  -7422317.67647  -5758019.85948  21135267.7034                   21135265.2464
        47.5004         48.7504
  -1802818.76248  -1384370.66846  20847131.0004                   20847126.1414
        48.0004         36.0004
   8285022.58246   6463864.67646  23247304.7584                   23247303.6214
        40.5004         36.0004
 25  8  7  1 41  0.0000000  0  8G27G03G04G06G07G09G16G26
   4298347.62146   3390037.87544  24513684.0634                   24513686.3364
        39.0004         29.5004
   8411007.37547   6561766.44147  21743121.5554                   21743121.5274
        43.5004         43.7504
  -1370282.94147  -1047940.06646  20331256.7504                   20331253.5274
        46.2504         39.5004
   2344918.03146   1859653.46545  24880809.3444                   24880810.6174
        39.7504         30.7504
  -7210395.69147  -5533759.49246  22932762.0004                   22932759.2304
        45.5004         40.0004
  -7576436.25447  -5878112.21948  21105940.0234                   21105937.5904
        47.0004         48.5004
  -1878003.92647  -1442956.48446  20832823.5784                   20832818.9384
        47.7504         36.7504
   8283757.89846   6462879.16046  23247064.9304                   23247063.5474
        40.2504         37.0004
 25  8  7  1 41 30.0000000  0  8G27G03G04G06G07G09G16G26
   4125657.84446   3255474.59445  24480821.0944                   24480824.2584
        39.5004         30.0004
   8411780.72747   6562368.99247  21743269.2424                   21743268.4494
        46.2504         44.0004
  -1463315.18047  -1120432.70346  20313553.2664                   20313550.2504
        46.2504         40.0004
   2294207.70346   1820138.87945  24871159.4774                   24871160.6094
        39.0004         30.5004
  -7358317.38347  -5649023.07846  22904613.2034                   22904610.5824
        44.5004         39.7504
  -7730369.23847  -5998059.95348  21076647.9924                   21076645.3874
        47.2504         49.0004
  -1952535.68048  -1501033.15246  20818640.7814                   20818635.7384
        48.0004         36.5004
   8282803.43446   6462135.43046  23246882.1644                   23246881.2464
        41.0004         37.0004
 25  8  7  1 42  0.0000000  0  8G27G03G04G06G07G09G16G26
   3953077.32046   3120996.44944  24447980.1644                   24447982.9184
        39.0004         29.0004
   8412887.08647   6563231.03947  21743479.2114                   21743479.4344
        45.7504         43.7504
  -1556044.01647  -1192688.93046  20295907.7194                   20295904.0514
        46.0004         40.0004
   2243860.87946   1780907.52345  24861579.1724                   24861581.2704
        40.2504         33.0004
  -7506057.35547  -5764145.04746  22876498.8284                   22876496.6604
        44.5004         39.5004
  -7884111.16047  -6117858.80548  21047391.2584                   21047389.0704
        47.5004         49.0004
  -2026411.00447  -1558598.32446  20804582.4064                   20804577.7774
        47.5004         37.2504
   8282160.21546   6461634.17646  23246759.6954                   23246759.6174
        40.7504         36.5004
 25  8  7  1 42 30.0000000  0  8G27G03G04G06G07G09G16G26
   3780608.16046   2986605.09044  24415160.5084                   24415163.1414
        37.7504         28.5004
   8414322.54747   6564349.52047  21743752.3054                   21743752.3714
        44.7504         43.5004
  -1648469.54347  -1264708.80946  20278319.8674                   20278316.1024
        47.0004         40.0004
   2193873.84846   1741956.53145  24852067.0704                   24852068.0004
        38.7504         30.7504
  -7653617.28147  -5879126.71546  22848419.9534                   22848416.1844
        45.5004         40.0004
  -8037661.54747  -6237508.42248  21018171.4064                   21018169.4024
        47.2504         49.0004
  -2099631.88748  -1615653.53946  20790648.9384                   20790644.1804
        48.0004         37.2504
   8281824.37146   6461372.39145  23246696.8594                   23246695.6414
        40.2504         35.5004
 25  8  7  1 43  0.0000000  0  8G27G03G04G06G07G09G16G26
   3608254.34846   2852303.62144  24382361.6954                   24382365.4844
        37.7504         29.2504
   8416085.18847   6565722.93447  21744088.1954                   21744087.9924
        45.0004         43.5004
  -1740590.03547  -1336491.00446  20260789.9844                   20260786.2894
        46.2504         39.7504
   2144245.06346   1703284.70345  24842622.5164                   24842623.9494
        39.2504         31.0004
  -7800996.55547  -5993967.63346  22820374.5704                   22820371.2274
        45.7504         40.2504
  -8191018.08647  -6357006.98448  20988989.1954                   20988986.2624
        47.5004         49.0004
  -2172198.43448  -1672198.87546  20776840.3914                   20776835.6604
        48.0004         37.0004
   8281793.65646   6461348.48046  23246689.8204                   23246689.7234
        41.0004         36.0004
 25  8  7  1 43 30.0000000  0  8G27G03G04G06G07G09G16G26
   3436018.57446   2718094.12945  24349587.2504                   24349589.7854
        39.0004         30.0004
   8418171.63347   6567348.66047  21744485.7194                   21744485.1414
        46.0004         43.0004
  -1832405.14547  -1408035.23846  20243318.0704                   20243314.1764
        45.5004         39.2504
   2094971.29346   1664889.49645  24833245.8284                   24833247.3634
        39.5004         30.5004
  -7948196.46947  -6108668.78546  22792363.2344                   22792360.0824
        45.5004         40.5004
  -8344179.81247  -6476353.74248  20959843.1804                   20959840.9494
        47.2504         49.2504
  -2244112.22748  -1728235.57446  20763155.5394                   20763150.5124
        48.0004         37.0004
   8282064.81646   6461559.66445  23246742.5634                   23246742.0084
        40.0004         34.5004
 25  8  7  1 44  0.0000000  0  8G27G03G04G06G07G09G16G26
   3263902.23446   2583977.71145  24316834.8364                   24316836.1954
        39.5004         30.0004
   8420577.24247   6569223.10947  21744942.8364                   21744942.5514
        46.0004         43.2504
  -1923915.72747  -1479342.18046  20225904.0784                   20225900.3134
        45.7504         40.2504
   2046048.12146   1626767.45745  24823936.5004                   24823938.5984
        39.0004         31.2504
  -8095218.81247  -6223231.57046  22764385.7274                   22764382.5164
        46.2504         41.0004
  -8497146.96947  -6595548.89548  20930734.4774                   20930731.7424
        47.0004         49.2504
  -2315376.17248  -1783765.91046  20749594.6484                   20749589.4144
        48.0004         36.5004
   8282633.03546   6462002.43045  23246849.5554                   23246849.7584
        39.2504         33.5004
 25  8  7  1 44 30.0000000  0  8G27G03G04G06G07G09G16G26
   3091909.79346   2449957.81645  24284105.2424                   24284107.7424
        39.2504         31.0004
   8423300.51247   6571345.07047  21745461.1094                   21745461.0904
        44.5004         43.5004
  -2015119.59447  -1550410.11746  20208548.8134                   20208544.9024
        45.7504         40.0004
   1997474.35946   1588917.71945  24814693.5474                   24814693.9844
        38.5004         30.5004
  -8242062.64847  -6337655.26246  22736442.2894                   22736439.1764
        45.7504         40.7504
  -8649916.77747  -6714590.27348  20901663.3754                   20901660.9734
        47.5004         49.5004
  -2385990.14547  -1838789.76646  20736157.2814                   20736152.1294
        47.7504         37.2504
   8283496.77046   6462675.41845  23247016.0474                   23247014.1454
        40.7504         34.5004
 25  8  7  1 45  0.0000000  0  8G27G03G04G06G07G09G16G26
   2920041.27046   2316034.48845  24251399.0394                   24251401.0784
        38.7504         30.2504
   8426335.48847   6573709.91847  21746039.1024                   21746038.7544
        45.7504         43.2504
  -2106018.91847  -1621240.76246  20191251.3984                   20191247.4264
        46.5004         39.7504
   1949244.15246   1551335.70345  24805515.4224                   24805517.2664
        39.0004         31.0004
  -8388731.82447  -6451942.84846  22708531.8204                   22708528.6644
        46.2504         41.2504
  -8802490.75847  -6833479.05948  20872629.1954                   20872626.7814
        47.2504         49.5004
  -2455958.10447  -1893310.23546  20722842.5394                   20722837.3484
        47.2504         37.0004
   8284649.93846   6463574.00045  23247232.7274                   23247233.8054
        38.5004         33.5004
 25  8  7  1 45 30.0000000  0  9G27G03G04G06G07G09G16G26G08
   2748296.85946   2182207.87145  24218716.7814                   24218719.3874
        39.7504         32.0004
   8429676.36347   6576313.12947  21746675.0634                   21746674.3554
        45.7504         42.5004
  -2196615.82047  -1691835.73846  20174010.6024                   20174007.5124
        45.2504         39.7504
   1901351.88746   1514016.95745  24796402.2894                   24796403.2734
        40.0004         31.7504
  -8535229.71947  -6566096.96546  22680654.1254                   22680650.9734
        46.0004         41.0004
  -8954870.43048  -6952216.43748  20843632.8594                   20843629.9614
        48.0004         49.7504
  -2525284.20347  -1947330.56246  20709650.0234                   20709645.6214
        47.7504         37.0004
   8286086.69146   6464693.49245  23247506.8754                   23247507.9064
        40.2504         33.2504
  10467426.56655   8430001.89853  24724640.3834                   24724647.0944
        32.2504         22.2504
 25  8  7  1 46  0.0000000  0  9G27G03G04G06G07G09G16G26G08
   2576684.19546   2048483.89845  24186060.4844                   24186062.8204
        40.2504         32.0004
   8433324.53547   6579155.80547  21747369.2194                   21747368.9774
        45.5004         42.7504
  -2286905.10547  -1762191.02046  20156829.7274                   20156825.6024
        45.7504         39.7504
   1853799.30546   1476962.92245  24787353.4064                   24787354.6914
        39.0004         32.0004
  -8681552.40247  -6680114.54346  22652809.5864                   22652806.6334
        46.0004         40.5004
  -9107049.87147  -7070797.80548  20814673.5084                   20814671.4774
        47.7504         49.5004
  -2593965.15647  -2000848.17646  20696580.8134                   20696575.6564
        47.2504         37.0004
   8287808.47346   6466035.10245  23247834.8284                   23247834.3984
        37.2504         31.7504
  10286741.15645   8289208.46143  24690256.8054                   24690263.6174
        32.5004         22.7504
 25  8  7  1 46 30.0000000  0  9G27G03G04G06G07G09G16G26G08
   3980634.26446   3142471.14745  24453224.0314                   24453224.7854
        40.7504         31.7504
  10012699.17247   7809837.27247  22047913.7974                   22047913.8364
        45.5004         43.0004
   -801460.72147   -604701.88646  20439499.6254                   20439496.5474
        45.0004         39.5004
   3382007.45546   2667774.40945  25078160.8594                   25078162.8444
        38.0004         31.0004
  -7252273.13247  -5566390.35946  22924792.6484                   22924788.9964
        46.2504         40.5004
  -7683600.40647  -5961616.36848  21085546.7114                   21085544.5554
        47.5004         49.7504
  -1086577.98947   -826260.76146  20983427.0704                   20983421.8954
        47.7504         37.0004
   9865234.37047   7695198.10445  23548010.8834                   23548010.1374
        42.0004         34.5004
  11681364.12645   9375928.03344  24955644.4534                   24955650.9414
        33.0004         25.0004
 25  8  7  1 47  0.0000000  0 10G27G03G04G06G07G09G16G26G30G08
   3809308.75446   3008970.92645  24420621.3284                   24420622.5704
        40.5004         32.7504
  10016967.56647   7813163.22347  22048726.3524                   22048726.3484
        45.2504         43.0004
   -891117.87947   -674564.60246  20422438.8054                   20422435.5314
        45.5004         39.5004
   3335140.46146   2631254.62145  25069243.8284                   25069244.8094
        38.0004         31.5004
  -7398232.34847  -5680124.74246  22897016.8984                   22897014.0434
        44.2504         40.2504
  -7835360.66047  -6079871.09048  21056667.9064                   21056665.5864
        47.5004         49.7504
  -1153958.71547   -878765.20746  20970604.8054                   20970599.7504
        47.0004         36.7504
   9867531.51247   7696988.10945  23548446.3594                   23548446.7664
        42.5004         35.2504
  12330359.38356   9648689.92254  25491831.2114                   25491835.1914
        37.2504         25.0004
  11500455.90645   9234960.99643  24921217.3984                   24921224.1914
        32.7504         22.7504
 25  8  7  1 47 30.0000000  0 10G27G03G04G06G07G09G16G26G30G08
   3638130.77346   2875585.69145  24388046.6954                   24388049.1294
        39.7504         33.2504
  10021540.99247   7816726.86347  22049596.6804                   22049596.7624
        46.2504         43.2504
   -980458.46947   -744180.63746  20405437.6254                   20405434.2664
        46.0004         39.7504
   3288611.44946   2594998.17645  25060389.6334                   25060390.2584
        39.2504         33.0004
  -7544011.32847  -5793718.64546  22869276.4534                   22869273.0164
        45.7504         40.2504
  -7986909.75847  -6197961.27348  21027829.1564                   21027826.5944
        47.0004         49.7504
  -1220692.00047   -930765.15646  20957906.0004                   20957901.2194
        47.2504         37.2504
   9870111.24646   7698998.24645  23548937.5084                   23548937.2894
        40.0004         34.5004
  12156964.82845   9513577.50043  25458835.4224                   25458838.0044
        34.0004         21.5004
  11319439.34045   9093909.52043  24886771.6644                   24886777.1564
        32.5004         22.0004
 25  8  7  1 48  0.0000000  0 10G27G03G04G06G07G09G16G26G30G08
   3467100.66446   2742315.64545  24355500.8204                   24355502.3984
        40.0004         31.5004
  10026413.64847   7820523.68447  22050523.9924                   22050523.7234
        45.7504         43.0004
  -1069484.50047   -813551.57446  20388496.6954                   20388493.3164
        46.0004         40.0004
   3242414.77746   2559000.68845  25051598.0944                   25051600.0904
        37.7504         32.2504
  -7689613.41847  -5907174.76646  22841569.0234                   22841565.9304
        45.5004         40.2504
  -8138249.07447  -6315887.98848  20999030.3594                   20999027.6764
        47.7504         50.0004
  -1286781.77747   -982263.68046  20945329.5864                   20945324.4964
        47.0004         36.7504
   9872967.69546   7701224.01645  23549480.6724                   23549481.9964
        40.5004         33.5004
  11983654.46145   9378530.78144  25425855.2274                   25425858.1484
        35.2504         27.5004
  11138314.20355   8952773.44953  24852303.8364                   24852310.9654
        31.7504         22.2504
 25  8  7  1 48 30.0000000  0 10G27G03G04G06G07G09G16G26G30G08
   3296221.73446   2609163.39845  24322982.9144                   24322985.3594
        40.2504         32.2504
  10031582.78947   7824551.51247  22051506.9534                   22051507.9414
        44.5004         43.0004
  -1158194.94947   -882676.58646  20371615.5784                   20371612.2734
        46.0004         39.7504
   3196547.89546   2523260.21545  25042869.4774                   25042871.7584
        37.5004         30.7504
  -7835039.18047  -6020493.47746  22813895.3674                   22813892.1844
        45.5004         40.5004
  -8289376.88348  -6433649.90248  20970271.6954                   20970269.3594
        48.0004         50.0004
  -1352229.10547  -1033261.58646  20932874.9064                   20932870.5314
        47.0004         36.5004
   9876098.20746   7703663.33245  23550076.2734                   23550078.1294
        39.0004         34.5004
  11810428.88346   9243550.09044  25392891.1414                   25392894.2704
        38.5004         28.5004
  10957083.27345   8811554.90643  24817817.9064                   24817823.2464
        33.5004         20.2504
 25  8  7  1 49  0.0000000  0 10G27G03G04G06G07G09G16G26G30G08
   3125497.55546   2476131.74245  24290495.8364                   24290497.8364
        40.2504         32.2504
  10037045.81647   7828808.33647  22052546.4224                   22052547.5314
        43.5004         42.7504
  -1246588.67247   -951554.81246  20354794.8594                   20354791.6844
        45.0004         40.0004
   3151008.42646   2487774.85945  25034204.0784                   25034205.9064
        37.0004         30.7504
  -7980288.49647  -6133674.67646  22786255.7664                   22786251.9804
        44.5004         41.0004
  -8440291.35547  -6551245.57448  20941553.6644                   20941550.9184
        47.2504         50.0004
  -1417035.19947  -1083759.83246  20920543.1804                   20920538.1094
        46.7504         37.0004
   9879499.98847   7706314.06646  23550725.0864                   23550724.8914
        42.5004         37.2504
  11637288.28946   9108635.62144  25359943.4384                   25359946.6174
        36.7504         27.5004
  10775749.23845   8670255.96143  24783310.5944                   24783316.9144
        35.2504         22.2504
 25  8  7  1 49 30.0000000  0 10G27G03G04G06G07G09G16G26G30G08
   2954931.31346   2343223.16045  24258037.4844                   24258038.8404
        38.7504         31.2504
  10042799.87147   7833291.93847  22053642.2424                   22053642.2424
        44.7504         43.2504
  -1334664.73047  -1020185.50446  20338034.8834                   20338031.1374
        46.0004         39.5004
   3105793.75846   2452542.59445  25025599.0084                   25025602.0084
        36.5004         30.7504
  -8125361.64147  -6246718.63346  22758649.4064                   22758645.6334
        46.2504         41.0004
  -8590990.84047  -6668673.71548  20912876.4844                   20912873.7424
        47.5004         49.7504
  -1481201.44147  -1133759.49246  20908332.6334                   20908327.6294
        46.2504         36.7504
   9883170.28947   7709174.02745  23551423.3364                   23551421.0984
        43.5004         35.5004
  11464232.74246   8973787.35543  25327011.6414                   25327014.6214
        36.0004         22.7504
  10594315.17246   8528879.02043  24748784.1564                   24748790.2734
        36.0004         22.5004
 25  8  7  1 50  0.0000000  0 10G27G03G04G06G07G09G16G26G30G08
   2784527.89846   2210441.46945  24225611.0004                   24225612.7074
        39.5004         31.2504
  10048843.73047   7838001.37547  22054792.4694                   22054792.1374
        44.5004         43.0004
  -1422420.60247  -1088566.70746  20321335.4774                   20321331.8054
        45.2504         39.5004
   3060902.72346   2417562.48845  25017057.6724                   25017059.3984
        36.7504         30.0004
  -8270257.55147  -6359624.47746  22731076.2814                   22731072.6914
        46.2504         41.2504
  -8741472.11347  -6785931.83648  20884240.6884                   20884238.3094
        46.0004         49.7504
  -1544727.50047  -1183260.29746  20896243.7344                   20896239.0204
        45.7504         37.5004
   9887107.87147   7712242.20745  23552172.9844                   23552171.9344
        43.5004         35.5004
  11291264.09046   8839006.74644  25294096.7194                   25294099.6334
        37.5004         25.5004
  10412785.30546   8387427.50444  24714240.6094                   24714246.4184
        37.5004         27.2504
 25  8  7  1 50 30.0000000  0 10G27G03G04G06G07G09G16G26G30G08
   2614294.67246   2077792.39745  24193216.9144                   24193218.0474
        38.0004         30.5004
  10055178.66847   7842937.60547  22055997.9304                   22055998.1564
        45.0004         42.7504
  -1509851.26647  -1156694.50046  20304697.8984                   20304694.5164
        45.7504         40.0004
   3016336.75846   2382835.71144  25008576.2894                   25008578.7774
        36.7504         29.0004
  -8414972.74647  -6472389.49646  22703538.1414                   22703534.3754
        46.0004         41.5004
  -8891729.37947  -6903015.40648  20855647.4224                   20855645.2384
        47.2504         50.0004
  -1607610.64847  -1232260.14546  20884277.6334                   20884272.7194
        46.5004         36.7504
   9891313.96947   7715519.69945  23552973.0864                   23552971.0744
        43.5004         35.2504
  11118386.63745   8704297.24244  25261198.4614                   25261202.3594
        35.5004         26.0004
  10231166.50446   8245906.73044  24679678.5864                   24679684.8014
        37.0004         28.5004
 25  8  7  1 51  0.0000000  0 10G27G03G04G06G07G09G16G26G30G08
   2444232.14546   1945276.32045  24160854.4694                   24160855.6564
        39.5004         32.0004
  10061798.91047   7848096.18047  22057257.5394                   22057257.6684
        45.2504         42.7504
  -1596958.67647  -1224570.40246  20288122.1644                   20288118.5824
        45.7504         39.5004
   2972090.32846   2348357.88344  25000157.4144                   25000158.3714
        36.7504         28.2504
  -8559510.34447  -6585016.13346  22676033.1644                   22676029.4184
        46.7504         41.5004
  -9041763.89547  -7019925.38748  20827097.2424                   20827094.3754
        47.0004         50.0004
  -1669855.10247  -1280762.30546  20872432.9064                   20872427.9144
        46.0004         36.2504
   9895782.89547   7719001.91445  23553823.1174                   23553822.5864
        43.0004         35.0004
  10945597.62145   8569656.77343  25228318.5004                   25228321.1914
        34.2504         22.5004
  10049458.64846   8104316.51644  24645101.2034                   24645106.1454
        39.2504         27.2504
 25  8  7  1 51 30.0000000  0 10G27G03G04G06G07G09G16G26G30G08
   2274345.39846   1812897.22745  24128526.5474                   24128527.3984
        40.2504         32.5004
  10068703.57047   7853476.35547  22058571.5864                   22058571.7734
        44.5004         42.2504
  -1683739.98447  -1292192.19546  20271607.8754                   20271604.3634
        45.7504         40.0004
   2928162.72746   2314128.50444  24991798.9694                   24991799.9614
        36.2504         29.0004
  -8703868.79347  -6697503.14846  22648562.6254                   22648558.9734
        46.2504         41.5004
  -9191572.03147  -7136658.98048  20798589.2114                   20798586.5594
        47.5004         50.0004
  -1731460.40247  -1328766.41846  20860710.0864                   20860705.1294
        46.2504         37.2504
   9900513.75446   7722688.25445  23554722.4224                   23554721.9344
        41.2504         32.7504
  10772899.26646   8435086.72344  25195455.0314                   25195457.9494
        37.5004         24.5004
   9867666.41046   7962660.47744  24610506.2664                   24610511.8874
        37.7504         27.0004
 25  8  7  1 52  0.0000000  0 10G27G03G04G06G07G09G16G26G30G08
   2104636.99646   1680657.10945  24096230.9384                   24096232.3634
        39.5004         31.5004
  10075889.01647   7859075.32047  22059939.3134                   22059939.3834
        45.0004         42.2504
  -1770195.02347  -1359559.77046  20255156.3754                   20255152.5394
        45.2504         40.0004
   2884550.41045   2280144.78544  24983498.8134                   24983501.5124
        34.2504         29.2504
  -8848049.00847  -6809851.29746  22621125.8444                   22621122.6134
        45.2504         41.5004
  -9341152.93047  -7253215.50048  20770125.3204                   20770122.4344
        47.7504         50.0004
  -1792428.76647  -1376274.22746  20849108.3674                   20849103.0164
        46.0004         37.7504
   9905502.93846   7726575.87545  23555671.3834                   23555674.1214
        41.0004         35.5004
  10600290.82845   8300586.90243  25162608.4144                   25162611.4844
        34.5004         22.5004
   9685791.89146   7820940.37544  24575896.7734                   24575901.6214
        37.5004         28.2504
 25  8  7  1 52 30.0000000  0 10G27G03G04G06G07G09G16G26G30G08
   1935112.06646   1548559.93045  24063971.2194                   24063973.5514
        38.5004         32.0004
  10083354.25047   7864892.31346  22061359.2344                   22061360.0204
        45.0004         41.0004
  -1856321.05547  -1426670.95746  20238766.6024                   20238762.8404
        45.5004         39.7504
   2841252.53145   2246406.14544  24975259.8914                   24975261.9064
        35.2504         28.7504
  -8992050.12147  -6922059.89846  22593723.5234                   22593719.7934
        46.7504         41.2504
  -9490503.05547  -7369592.19148  20741704.6094                   20741702.1724
        47.7504         49.7504
  -1852759.62947  -1423285.27746  20837627.4454                   20837622.2734
        47.5004         37.2504
   9910749.47346   7730664.09845  23556669.4384                   23556670.1024
        38.7504         33.2504
  10427774.36746   8166158.75044  25129779.2344                   25129782.0354
        39.2504         28.2504
   9503839.61345   7679159.75044  24541271.9384                   24541277.5594
        35.5004         27.5004
 25  8  7  1 53  0.0000000  0 10G27G03G04G06G07G09G16G26G30G08
   1765773.90246   1416608.31345  24031747.4844                   24031748.9184
        38.7504         32.5004
  10091096.36747   7870925.05946  22062832.8914                   22062832.7344
        44.7504         41.5004
  -1942117.18747  -1493525.08646  20222440.5944                   20222436.9344
        46.0004         39.5004
   2798266.39845   2212910.32844  24967079.8364                   24967081.5124
        33.7504         28.5004
  -9135872.35247  -7034129.10546  22566354.9774                   22566351.3834
        45.5004         41.5004
  -9639620.73848  -7485787.77348  20713328.2894                   20713326.0514
        48.2504         50.0004
  -1912454.72347  -1469800.92246  20826267.7584                   20826262.4654
        47.5004         37.5004
   9916250.52746   7734950.55945  23557717.0314                   23557716.9964
        40.5004         34.2504
  10255350.03546   8031802.26644  25096968.2194                   25096970.6804
        39.2504         27.0004
   9321812.35946   7537320.62544  24506633.1724                   24506638.8014
        38.7504         29.0004
 25  8  7  1 53 30.0000000  0 10G27G03G04G06G07G09G16G26G30G08
   1596625.78946   1284804.78545  23999560.1804                   23999560.8404
        38.0004         31.0004
  10099112.59847   7877171.38746  22064359.1484                   22064358.9694
        45.0004         41.5004
  -2027582.44547  -1560121.39546  20206176.9384                   20206173.4144
        47.0004         39.5004
   2755589.28945   2179655.37944  24958958.9614                   24958961.0354
        34.0004         26.7504
  -9279515.95347  -7146059.12946  22539019.8204                   22539016.6994
        45.5004         41.5004
  -9788504.23048  -7601800.85948  20684996.9064                   20684994.5984
        48.0004         50.0004
  -1971515.14847  -1515822.02346  20815029.3134                   20815024.0204
        46.7504         37.2504
   9922003.28146   7739433.18845  23558811.1334                   23558811.7544
        40.5004         34.0004
  10083017.91446   7897517.78544  25064173.6564                   25064176.8984
        37.0004         27.2504
   9139713.05546   7395425.33644  24471980.8364                   24471986.0314
        37.0004         29.0004
 25  8  7  1 54  0.0000000  0 10G27G03G04G06G07G09G16G26G30G08
   1427671.30146   1153152.11745  23967408.4924                   23967409.6914
        39.0004         31.2504
  10107400.25847   7883629.21546  22065936.7114                   22065935.5594
        45.2504         40.7504
  -2112715.71547  -1626459.00446  20189976.6804                   20189972.9184
        46.5004         40.0004
   2713218.69145   2146639.24644  24950895.9614                   24950897.6914
        34.0004         27.5004
  -9422981.02747  -7257850.01646  22511719.4064                   22511716.4494
        46.0004         41.5004
  -9937151.63748  -7717629.98448  20656710.1254                   20656707.7974
        48.2504         50.0004
  -2029942.56647  -1561349.87146  20803910.3054                   20803905.3634
        46.7504         36.7504
   9928005.21146   7744110.00045  23559953.3054                   23559953.3714
        38.7504         32.0004
   9910778.55146   7763305.52344  25031397.8134                   25031400.6254
        37.7504         28.2504
   8957544.80946   7253476.37945  24437314.9774                   24437320.6094
        36.7504         30.2504
 25  8  7  1 54 30.0000000  0 10G27G03G04G06G07G09G16G26G30G08
   1258914.03146   1021653.12145  23935294.4224                   23935296.3954
        38.2504         30.0004
  10115956.82047   7890296.59446  22067564.9144                   22067564.5354
        45.0004         40.5004
  -2197515.74647  -1692536.94946  20173839.7814                   20173836.2074
        45.5004         39.2504
   2671152.30945   2113860.14844  24942890.3204                   24942892.4884
        34.5004         27.2504
  -9566267.88747  -7369502.05546  22484453.0864                   22484449.6334
        46.0004         41.7504
 -10085560.88348  -7833273.53948  20628468.9304                   20628466.5904
        48.2504         50.0004
  -2087738.04347  -1606385.28946  20792911.8754                   20792907.3674
        46.5004         37.2504
   9934253.86746   7748978.95345  23561142.4304                   23561144.1684
        39.0004         33.5004
   9738632.35245   7629165.86344  24998638.5864                   24998641.8874
        35.5004         26.0004
   8775310.62946   7111476.03145  24402636.9064                   24402642.3674
        37.2504         30.0004
 25  8  7  1 55  0.0000000  0 10G27G03G04G06G07G09G16G26G30G08
   2665785.08446   2117916.46445  24203012.9454                   24203014.4694
        38.7504         30.2504
  11700201.34847   9124772.77746  22369035.8284                   22369034.6764
        43.7504         39.7504
   -706556.62547   -530750.63346  20457559.3364                   20457556.3324
        46.0004         40.0004
   4204810.84845   3308918.73044  25234736.4614                   25234737.9844
        34.7504         27.0004
  -8133949.71547  -6253409.88346  22757013.9384                   22757010.7934
        45.7504         41.7504
  -8658303.19548  -6721124.66448  20900067.0394                   20900064.4224
        48.5004         50.2504
   -569479.05947   -423326.32446  21081827.3054                   21081822.0204
        45.7504         36.5004
  11516168.31346   8981639.57045  23862171.9384                   23862171.9844
        39.2504         35.0004
  11142007.45346   8722705.21144  25265692.3284                   25265695.0474
        38.7504         29.2504
  10168441.82045   8197033.11744  24667740.5554                   24667745.8204
        35.2504         29.0004
 25  8  7  1 55 30.0000000  0 10G27G03G04G06G07G09G16G26G30G08
   2497436.87146   1986736.20745  24170977.8524                   24170978.8204
        39.7504         31.7504
  11709291.84847   9131856.21546  22370766.2584                   22370766.8594
        45.0004         41.2504
   -790682.77047   -596303.47346  20441551.2734                   20441547.4304
        45.5004         39.0004
   4163349.20345   3276610.88344  25226846.4694                   25226849.1914
        35.5004         27.7504
  -8276876.20747  -6364781.11346  22729816.1884                   22729812.6914
        46.0004         41.7504
  -8806226.25447  -6836389.35948  20871918.1564                   20871915.7384
        47.2504         50.2504
   -626010.68447   -467376.93746  21071069.7344                   21071064.4804
        45.7504         36.2504
  11522906.64546   8986890.14545  23863454.4774                   23863453.6764
        38.2504         31.5004
  10970052.82046   8588714.82444  25232970.0784                   25232972.2344
        36.5004         26.7504
   9986089.42646   8054940.67644  24633039.8754                   24633044.1884
        36.5004         29.2504
 25  8  7  1 56  0.0000000  0 10G27G03G04G06G07G09G16G26G30G08
   2329296.11346   1855717.58645  24138981.6954                   24138983.0744
        40.0004         32.5004
  11718643.00047   9139142.73046  22372545.5944                   22372545.3874
        44.0004         41.0004
   -874472.64847   -661594.28946  20425606.2734                   20425602.8404
        46.7504         39.5004
   4122183.68446   3244533.76644  25219013.7504                   25219014.8244
        36.0004         26.5004
  -8419625.42247  -6476014.21146  22702651.4064                   22702648.1254
        45.0004         41.7504
  -8953905.82048  -6951464.31648  20843815.4454                   20843812.6564
        48.0004         50.5004
   -681914.77047   -510938.55146  21060431.6644                   21060426.7974
        46.0004         36.2504
  11529883.52346   8992326.73445  23864780.6564                   23864782.0274
        36.2504         32.5004
  10798192.09446   8454797.66044  25200266.0784                   25200268.7584
        36.5004         27.7504
   9803680.03946   7912803.71144  24598328.4774                   24598332.8954
        37.2504         29.5004
 25  8  7  1 56 30.0000000  0 10G27G03G04G06G07G09G16G26G30G08
   2161367.88746   1724864.60545  24107025.8984                   24107026.4494
        40.7504         32.5004
  11728253.66047   9146631.48046  22374374.1724                   22374373.9024
        43.5004         40.5004
   -957923.56647   -726620.97346  20409726.1644                   20409722.3754
        46.5004         39.5004
   4081313.53546   3212686.82044  25211236.1334                   25211238.1094
        36.5004         26.0004
  -8562195.60547  -6587107.80547  22675521.7734                   22675517.9414
        46.5004         42.0004
  -9101338.24247  -7066346.69948  20815759.9844                   20815757.4804
        47.5004         50.5004
   -737191.34847   -554011.19546  21049912.8834                   21049907.6174
        45.5004         36.7504
  11537098.05146   8997948.35545  23866154.0864                   23866156.0984
        37.5004         32.2504
  10626427.25445   8320955.15643  25167579.1644                   25167582.8244
        34.5004         23.7504
   9621218.43046   7770626.11745  24563607.2344                   24563612.4574
        36.7504         31.5004
 25  8  7  1 57  0.0000000  0 10G27G03G04G06G07G09G16G26G30G08
   1993656.61346   1594180.62945  24075110.9304                   24075111.9264
        40.7504         32.5004
  11738122.09047   9154321.09046  22376252.0004                   22376253.1764
        43.2504         41.2504
  -1041033.59447   -791382.02346  20393910.9844                   20393907.3984
        45.7504         38.7504
   4040736.93846   3181068.60544  25203514.8914                   25203517.0274
        36.5004         28.0004
  -8704586.42247  -6698061.61747  22648425.1334                   22648421.9344
        46.0004         42.0004
  -9248520.71948  -7181034.31648  20787752.1564                   20787749.5634
        48.0004         50.5004
   -791840.78147   -596595.15246  21039513.3364                   21039508.3794
        46.2504         36.7504
  11544548.50446   9003753.94145  23867573.7974                   23867571.9414
        39.7504         33.0004
  10454759.45346   8187188.33244  25134912.7114                   25134914.8134
        36.5004         28.0004
   9438708.60246   7628410.96944  24528875.1094                   24528880.8674
        37.0004         29.7504
 25  8  7  1 57 30.0000000  0 10G27G03G04G06G07G09G16G26G30G08
   1826165.27346   1463668.06645  24043239.1564                   24043239.3014
        41.5004         33.0004
  11748245.09847   9162209.06346  22378178.3594                   22378178.5434
        43.5004         41.2504
  -1123802.08247   -855876.95346  20378160.2194                   20378157.3754
        46.5004         39.0004
   4000450.79346   3149676.77344  25195848.4304                   25195850.3134
        36.5004         28.5004
  -8846798.49247  -6808876.16847  22621363.6884                   22621359.6844
        46.0004         42.2504
  -9395451.81248  -7295526.05148  20759792.1884                   20759789.6684
        48.5004         50.5004
   -845865.31647   -638692.18046  21029232.8284                   21029227.7114
        47.0004         36.2504
  11552231.89846   9009740.85245  23869037.1174                   23869035.8524
        41.5004         35.5004
  10283188.62545   8053497.02744  25102263.3754                   25102266.1374
        33.2504         26.2504
   9256153.00846   7486160.14845  24494137.2894                   24494141.3874
        37.5004         30.5004
 25  8  7  1 58  0.0000000  0 10G27G03G04G06G07G09G16G26G30G08
   1658894.91846   1333327.68045  24011408.0864                   24011408.7114
        41.0004         33.2504
  11758617.58647   9170291.41846  22380153.5634                   22380152.1174
        45.5004         41.0004
  -1206230.43747   -920106.83246  20362474.7974                   20362471.3094
        46.0004         39.0004
   3960450.06645   3118507.27744  25188236.4694                   25188237.8444
        35.0004         27.0004
  -8988834.70347  -6919553.66847  22594334.8364                   22594330.8284
        46.0004         42.2504
  -9542132.02047  -7409822.28548  20731879.8284                   20731877.1134
        47.5004         50.5004
   -899268.71947   -680305.21946  21019070.4534                   21019065.6954
        45.7504         36.7504
  11560143.20746   9015905.33244  23870541.9694                   23870540.5744
        39.2504         27.5004
  10111712.55546   7919879.60544  25069632.5004                   25069635.0354
        36.7504         28.0004
   9073552.57046   7343874.32445  24459389.2974                   24459393.9024
        40.0004         33.2504
 25  8  7  1 58 30.0000000  0 10G27G03G04G06G07G09G16G26G30G08
   1491851.35946   1203164.04345  23979620.3524                   23979621.3094
        40.7504         31.0004
  11769239.10247   9178567.83246  22382174.1094                   22382174.7704
        43.2504         41.0004
  -1288315.29348   -984069.05146  20346855.2114                   20346851.1884
        48.0004         39.7504
   3920734.55945   3087560.01644  25180679.0474                   25180680.5354
        35.2504         25.2504
  -9130692.86747  -7030092.43447  22567340.0704                   22567336.0514
        46.0004         42.5004
  -9688557.16048  -7523919.77048  20704016.0084                   20704013.4224
        48.5004         50.5004
   -952050.26647   -721433.68445  21009026.1334                   21009021.4304
        46.2504         35.5004
  11568281.88346   9022247.32445  23872087.0784                   23872088.7424
        37.0004         30.2504
   9940333.96945   7786338.09844  25037018.6804                   25037022.5434
        34.7504         27.2504
   8890912.53946   7201557.71145  24424633.8594                   24424638.1414
        36.7504         31.2504
 25  8  7  1 59  0.0000000  0 10G27G03G04G06G07G09G16G26G30G08
   1325036.77046   1073178.78545  23947876.1174                   23947876.9774
        41.5004         31.5004
  11780105.61747   9187035.16846  22384241.7894                   22384243.2734
        43.5004         41.2504
  -1370056.89847  -1047763.80146  20331300.3204                   20331296.3794
        47.0004         39.5004
   3881300.38746   3056831.99644  25173175.6564                   25173176.6414
        37.0004         26.5004
  -9272374.51247  -7140493.65247  22540379.0314                   22540374.8594
        46.7504         42.2504
  -9834726.55548  -7637817.96548  20676200.7274                   20676198.3014
        48.0004         50.7504
  -1004212.96547   -762079.92646  20999100.2194                   20999095.1294
        47.0004         36.2504
  11576644.20346   9028763.36745  23873681.4534                   23873682.0944
        40.7504         35.5004
   9769051.71146   7652871.70345  25004425.6094                   25004427.7464
        37.5004         30.0004
   8708234.74246   7059211.68444  24389871.3134                   24389875.1884
        38.7504         29.7504
 25  8  7  1 59 30.0000000  0 10G27G03G04G06G07G09G16G26G30G08
   1158455.06347    943375.01245  23916177.0394                   23916177.5274
        42.5004         31.7504
  11791214.94147   9195691.66446  22386356.2734                   22386355.1644
        42.0004         40.0004
  -1451453.82847  -1111189.97346  20315810.3134                   20315806.7194
        47.5004         39.0004
   3842145.13746   3026321.40644  25165724.3364                   25165725.1954
        38.0004         27.0004
  -9413879.19547  -7250756.96547  22513450.9614                   22513447.4804
        46.7504         42.2504
  -9980637.84848  -7751515.04748  20648434.8674                   20648432.5044
        49.2504         50.7504
  -1055757.93047   -802244.84046  20989291.5704                   20989286.2274
        47.2504         36.7504
  11585228.21157   9035452.04755  23875315.5004                   23875313.7854
        42.2504         31.2504
   9597866.65246   7519480.93844  24971850.3204                   24971852.1764
        36.2504         29.2504
   8525522.78145   6916838.95744  24355100.2894                   24355105.8984
        35.5004         27.0004
 25  8  7  2  0  0.0000000  0 10G27G03G04G06G07G09G16G26G30G08
    992112.36746    813757.46145  23884522.6484                   23884523.2034
        41.2504         31.5004
  11802566.95647   9204537.34046  22388515.5084                   22388516.2974
        43.0004         41.0004
  -1532502.31247  -1174344.62946  20300387.6334                   20300384.1564
        47.7504         39.2504
   3803269.01246   2996028.29344  25158326.2814                   25158327.9304
        37.2504         28.2504
  -9555204.75447  -7360880.71547  22486558.2344                   22486554.4964
        47.0004         42.5004
 -10126286.43048  -7865007.41048  20620719.1954                   20620716.0204
        49.7504         50.7504
  -1106684.17647   -841927.62146  20979600.7344                   20979595.5434
        47.0004         36.0004
  11594033.65246   9042313.49244  23876988.7584                   23876988.6844
        39.7504         29.2504
   9426781.64146   7386168.19945  24939293.8594                   24939296.0164
        38.0004         31.5004
   8342782.37946   6774444.11744  24320326.6954                   24320331.5554
        36.7504         28.7504
 25  8  7  2  0 30.0000000  0 10G27G03G04G06G07G09G16G26G30G08
    826009.10946    684326.46545  23852914.1174                   23852914.9694
        41.0004         31.7504
  11814155.93447   9213567.57446  22390722.5234                   22390722.8444
        42.5004         40.7504
  -1613204.43747  -1237229.40246  20285030.2664                   20285026.6844
        47.0004         39.2504
   3764666.18046   2965948.08644  25150979.9774                   25150981.4344
        36.7504         26.0004
  -9696354.57047  -7470867.52347  22459697.7814                   22459693.9774
        46.5004         42.5004
 -10271673.48448  -7978295.98048  20593053.1564                   20593049.6054
        49.7504         50.7504
  -1156996.32847   -881131.88746  20970026.2584                   20970021.3984
        47.5004         36.5004
  11603055.00847   9049343.11746  23878707.4694                   23878707.6884
        42.5004         36.7504
   9255793.94946   7252931.28544  24906754.8754                   24906757.5354
        36.7504         28.7504
   8160013.67646   6632027.27045  24285547.6414                   24285551.8484
        37.2504         31.0004
 25  8  7  2  1  0.0000000  0 10G27G03G04G06G07G09G16G26G30G08
    660150.68446    555086.27045  23821352.5164                   23821353.1994
        41.2504         32.2504
  11825981.05547   9222781.86746  22392972.0474                   22392973.0044
        42.5004         40.7504
  -1693557.17247  -1299841.91446  20269739.5864                   20269736.0234
        47.5004         39.7504
   3726336.07846   2936080.35944  25143686.5634                   25143688.5354
        37.7504         26.2504
  -9837326.71147  -7580715.91047  22432871.6724                   22432867.6024
        46.7504         42.5004
 -10416795.06248  -8091377.70348  20565437.0234                   20565434.1374
        50.0004         50.7504
  -1206694.02347   -919857.35946  20960569.5864                   20960564.5044
        47.2504         36.2504
  11612291.81346   9056540.56345  23880463.6564                   23880465.2854
        39.0004         32.7504
   9084905.73446   7119771.86744  24874236.4304                   24874238.8674
        36.2504         28.5004
   7977221.73045   6489592.18044  24250761.6724                   24250766.2154
        35.7504         26.7504
 25  8  7  2  1 30.0000000  0 10G27G03G04G06G07G09G16G26G30G08
    494539.11746    426038.41845  23789836.8754                   23789838.3404
        40.7504         31.7504
  11838038.16047   9232176.91446  22395266.7894                   22395267.7304
        42.0004         40.5004
  -1773561.05147  -1362182.59446  20254515.3204                   20254512.0704
        46.0004         39.5004
   3688274.39146   2906421.83244  25136443.2194                   25136445.7504
        37.7504         28.5004
  -9978123.13747  -7690427.34847  22406078.9844                   22406075.1094
        46.2504         42.5004
 -10561650.73048  -8204252.21548  20537871.6484                   20537868.9344
        50.0004         50.7504
  -1255780.66447   -958106.69546  20951228.5634                   20951223.4884
        47.7504         36.2504
  11621739.85946   9063902.64144  23882261.4304                   23882262.1884
        39.0004         29.7504
   8914116.00846   6986689.14145  24841736.8914                   24841738.4924
        37.7504         32.5004
   7794408.25046   6347140.46945  24215974.3754                   24215978.7664
        37.5004         30.5004
 25  8  7  2  2  0.0000000  0 10G27G03G04G06G07G09G16G26G30G08
    329179.00846    297186.54345  23758370.4614                   23758371.3324
        40.5004         32.0004
  11850325.64547   9241751.47346  22397604.0004                   22397605.7664
        42.2504         39.2504
  -1853213.84447  -1424249.70346  20239358.3524                   20239354.6914
        46.5004         39.5004
   3650479.84046   2876971.55944  25129251.6334                   25129253.3914
        37.7504         28.0004
 -10118742.84047  -7800001.07847  22379320.0164                   22379315.7814
        46.7504         42.5004
 -10706237.41848  -8316917.12548  20510357.7274                   20510355.0084
        48.5004         50.7504
  -1304256.73847   -995880.25046  20942004.0234                   20941998.9804
        47.0004         36.7504
  11631397.75046   9071428.18845  23884100.6884                   23884100.5864
        38.5004         31.0004
   8743425.91846   6853684.10945  24809254.6954                   24809256.5164
        37.7504         30.5004
   7611577.47346   6204675.18044  24181182.3754                   24181185.4804
        37.5004         29.5004
 25  8  7  2  2 30.0000000  0 10G27G03G04G06G07G09G16G26G30G08
    164075.39146    168534.50845  23726951.9224                   23726952.9844
        40.0004         32.0004
  11862842.37947   9251504.66046  22399987.1174                   22399985.6484
        42.0004         39.0004
  -1932513.03947  -1486041.28146  20224267.7584                   20224264.3594
        47.0004         39.5004
   3612951.13746   2847728.30944  25122110.2504                   25122111.9024
        37.0004         26.5004
 -10259184.46147  -7909436.05547  22352594.7814                   22352590.7854
        46.7504         42.2504
 -10850551.56648  -8429369.68048  20482895.6564                   20482893.0004
        49.0004         51.0004
  -1352122.61747  -1033178.32446  20932894.9384                   20932890.1054
        46.7504         36.5004
  11641264.43446   9079116.64845  23885976.7894                   23885977.1884
        36.7504         30.0004
   8572837.55946   6720758.25445  24776792.7194                   24776794.6844
        36.2504         30.0004
   7428734.20746   6062200.22744  24146388.3754                   24146391.2154
        38.2504         28.5004
 25  8  7  2  3  0.0000000  0 10G27G03G04G06G07G09G16G26G30G08
      -769.51246     40084.09845  23695583.5864                   23695583.2734
        40.0004         31.7504
  11875584.28147   9261433.39146  22402410.5394                   22402411.4304
        42.0004         39.0004
  -2011458.85947  -1547557.50446  20209245.5474                   20209241.6024
        46.2504         39.2504
   3575684.43446   2818689.19144  25115018.5164                   25115021.2774
        37.0004         27.5004
 -10399449.79747  -8018733.63347  22325903.4384                   22325899.2704
        46.5004         42.2504
 -10994592.51248  -8541609.34848  20455485.8364                   20455482.4184
        49.5004         50.7504
  -1399381.02747  -1070003.06246  20923901.8914                   20923897.1254
        46.2504         36.2504
  11651336.23446   9086964.63744  23887893.3284                   23887894.1954
        38.2504         28.2504
   8402349.83246   6587910.90245  24744350.5554                   24744351.9264
        37.5004         30.5004
   7245880.34445   5919717.02044  24111592.1254                   24111596.1564
        35.0004         27.5004
 25  8  7  2  3 30.0000000  0 10G27G03G04G06G07G09G16G26G30G08
   1410072.84846   1139441.89845  23964057.7734                   23964057.5314
        40.2504         30.5004
  13463967.94947  10499134.80946  22704672.0164                   22704671.3714
        43.7504         41.0004
   -514628.11747   -381195.88346  20494082.7974                   20494078.9384
        46.5004         39.0004
   5114097.91046   4017452.85944  25407768.6564                   25407771.5394
        37.5004         29.2504
  -8964114.71947  -6900290.65247  22599038.3284                   22599034.3874
        47.0004         42.0004
  -9562933.87548  -7426031.16448  20727921.1094                   20727918.0824
        49.2504         51.0004
    129387.25847    121244.96546  21214817.4384                   21214812.1334
        47.0004         36.7504
  13237029.78547  10322570.03145  24189642.5164                   24189642.1484
        42.0004         35.2504
   9807388.33246   7682746.24645  25011720.0164                   25011720.7814
        38.2504         31.2504
   8638444.71146   7004832.32844  24376587.9224                   24376591.3634
        36.7504         27.2504
 25  8  7  2  4  0.0000000  0 10G27G03G04G06G07G09G16G26G30G08
   1245755.41446   1011402.48445  23932788.7894                   23932789.1764
        40.0004         31.7504
  13477151.89547  10509407.88346  22707181.0164                   22707180.6914
        43.0004         40.7504
   -592864.56647   -442159.34446  20479194.4924                   20479190.6954
        46.2504         39.0004
   5077346.75846   3988815.57844  25400775.3364                   25400777.1994
        36.7504         28.2504
  -9104027.98847  -7009313.91047  22572413.8594                   22572409.5984
        46.0004         42.0004
  -9706422.83648  -7537840.71148  20700616.3284                   20700612.8954
        49.7504         51.0004
     83337.82847     85362.29346  21206054.2734                   21206049.2234
        47.0004         36.2504
  13247503.75846  10330731.49245  24191635.0554                   24191634.1174
        40.0004         31.2504
   9637102.38346   7550056.10944  24979315.9384                   24979317.4924
        37.7504         29.7504
   8455578.84446   6862339.83644  24341789.4454                   24341793.9734
        36.2504         28.2504
 25  8  7  2  4 30.0000000  0 10G27G03G04G06G07G09G16G26G30G08
   1081704.64146    883570.82445  23901570.8984                   23901570.6134
        39.5004         31.5004
  13490550.37147  10519848.17646  22709729.3284                   22709730.4224
        43.2504         40.5004
   -670747.07047   -502847.02046  20464374.0394                   20464370.4924
        45.5004         38.7504
   5040847.07046   3960374.14143  25393829.5784                   25393831.9384
        36.5004         23.7504
  -9243768.18747  -7118202.32047  22545821.9614                   22545817.9454
        46.0004         42.7504
  -9849635.13748  -7649434.68748  20673363.8364                   20673360.5984
        49.0004         51.0004
     37887.81348     49946.70746  21197405.3364                   21197399.9344
        48.0004         37.0004
  13258172.72746  10339044.90245  24193664.9534                   24193666.2544
        39.0004         33.0004
   9466915.50446   7417443.10245  24946929.0164                   24946931.4694
        38.0004         31.7504
   8272709.55146   6719844.47744  24306990.9064                   24306994.2854
        39.0004         29.5004
 25  8  7  2  5  0.0000000  0 10G27G03G04G06G07G09G16G26G30G08
    917928.44146    755953.12545  23870404.6484                   23870405.6484
        39.0004         31.2504
  13504165.31647  10530457.09846  22712320.7974                   22712321.7384
        44.5004         40.5004
   -748270.25847   -563254.69546  20449621.8914                   20449618.0664
        46.5004         39.0004
   5004600.75846   3932130.19945  25386933.1174                   25386936.1024
        38.2504         30.5004
  -9383331.13747  -7226952.60947  22519263.8754                   22519260.2584
        45.7504         42.5004
  -9992564.31648  -7760808.05148  20646165.1414                   20646162.5204
        49.2504         51.0004
     -6960.19548     15000.21946  21188870.6334                   21188865.5474
        48.0004         36.2504
  13269038.52746  10347511.85545  24195732.8364                   24195733.2424
        39.0004         32.5004
   9296832.34046   7284910.94145  24914564.2734                   24914564.8054
        39.7504         31.7504
   8089844.47346   6577352.49645  24272192.5784                   24272195.8204
        39.0004         31.5004
 25  8  7  2  5 30.0000000  0 10G27G03G04G06G07G09G16G26G30G08
    754427.22746    628549.73045  23839292.6174                   23839292.3014
        38.7504         31.5004
  13517990.84046  10541230.12946  22714950.5784                   22714952.7154
        41.2504         38.5004
   -825436.10247   -623383.92246  20434937.4304                   20434933.9964
        46.7504         39.7504
   4968602.04346   3904079.19144  25380083.2504                   25380084.0314
        38.5004         27.0004
  -9522719.85547  -7335567.12547  22492739.4064                   22492734.9024
        47.0004         42.7504
 -10135211.43448  -7871961.61348  20619020.1724                   20619017.3794
        50.2504         51.0004
    -51211.21147    -19481.08646  21180450.2504                   21180445.5164
        47.2504         36.7504
  13280095.76646  10356127.80145  24197837.4224                   24197837.3054
        39.2504         30.7504
   9126850.28546   7152457.59044  24882216.3594                   24882218.5044
        37.2504         29.7504
   7906983.85546   6434863.91844  24237394.9384                   24237397.4734
        38.5004         28.0004
 25  8  7  2  6  0.0000000  0 10G27G03G04G06G07G09G16G26G30G08
    591204.65246    501363.44145  23808231.4384                   23808231.7234
        38.5004         31.7504
  13532024.39847  10552165.24646  22717621.8364                   22717622.8874
        42.0004         37.7504
   -902243.56647   -683233.89846  20420321.7814                   20420318.0394
        46.7504         39.2504
   4932848.22346   3876218.88344  25373279.6094                   25373282.4384
        36.7504         25.0004
  -9661934.68747  -7444046.15247  22466247.7894                   22466243.0864
        47.0004         42.7504
 -10277574.40648  -7982893.78548  20591929.5004                   20591926.3404
        49.5004         50.7504
    -94866.71547    -53498.34045  21172142.9614                   21172137.9574
        47.2504         35.7504
  13291342.09446  10364891.14545  24199976.7424                   24199978.6454
        37.7504         32.5004
   8956969.52746   7020083.06645  24849890.4614                   24849890.6214
        39.2504         30.7504
   7724131.02346   6292381.53944  24202599.2664                   24202602.7704
        38.7504         29.0004
 25  8  7  2  6 30.0000000  0 10G27G03G04G06G07G09G16G26G30G08
    428265.92246    374398.33245  23777224.9844                   23777225.5274
        38.2504         32.2504
  13546265.06347  10563261.76646  22720332.1174                   22720331.3364
        42.0004         37.0004
   -978689.89147   -742802.46546  20405774.3204                   20405770.7814
        47.0004         39.5004
   4897338.60546   3848549.10944  25366521.8054                   25366523.9304
        37.5004         27.7504
  -9800974.13347  -7552388.51647  22439788.8134                   22439785.0124
        46.5004         42.7504
 -10419649.44548  -8093601.58648  20564893.4384                   20564890.6724
        48.7504         50.7504
   -137926.80547    -87051.65245  21163949.0944                   21163943.9694
        47.2504         35.5004
  13302776.68446  10373801.18844  24202152.0634                   24202152.8874
        36.7504         27.5004
   8787192.23846   6887789.31645  24817581.9534                   24817583.7344
        37.5004         30.0004
   7541290.98046   6149908.96145  24167806.2274                   24167809.0634
        39.2504         32.2504
 25  8  7  2  7  0.0000000  0 10G27G03G04G06G07G09G16G26G30G08
    265615.27746    247657.71145  23746273.8834                   23746273.5864
        39.7504         33.0004
  13560710.85547  10574518.15646  22723080.6484                   22723080.9654
        42.5004         38.2504
  -1054773.26647   -802088.21946  20391296.2274                   20391292.5474
        46.7504         39.0004
   4862071.07446   3821067.84044  25359809.7504                   25359811.8634
        37.5004         24.2504
  -9939837.64147  -7660593.77747  22413364.3204                   22413360.1564
        47.0004         43.0004
 -10561433.74648  -8204082.83648  20537912.7114                   20537909.6134
        49.5004         51.0004
   -180392.88347   -120142.09045  21155868.0554                   21155862.7894
        47.2504         35.7504
  13314397.78246  10382856.56644  24204364.4384                   24204364.3914
        38.5004         29.2504
   8617519.48846   6755576.87944  24785294.1174                   24785295.0044
        39.5004         28.7504
   7358467.81646   6007449.74644  24133015.5944                   24133019.2974
        39.5004         27.2504
 25  8  7  2  7 30.0000000  0 10G27G03G04G06G07G09G16G26G30G08
    103254.28946    121142.77345  23715377.5004                   23715377.3054
        39.5004         33.2504
  13575357.21547  10585930.74646  22725869.4144                   22725869.3554
        43.7504         39.7504
  -1130494.68747   -861091.93446  20376886.9694                   20376883.5744
        46.5004         40.0004
   4827041.05946   3793771.63344  25353145.0314                   25353146.0554
        37.5004         25.0004
 -10078527.05547  -7768663.37547  22386972.1094                   22386968.4804
        47.7504         43.0004
 -10702927.27748  -8314337.51648  20510987.4844                   20510984.5164
        49.7504         51.0004
   -222268.55947   -152772.47746  21147899.4384                   21147894.0514
        47.0004         36.2504
  13326201.10946  10392053.95345  24206610.3984                   24206610.8404
        40.2504         30.5004
   8447949.53946   6623444.67644  24753026.2114                   24753027.9144
        39.0004         29.7504
   7175663.01246   5865004.53145  24098228.1174                   24098231.8014
        37.5004         30.5004
 25  8  7  2  8  0.0000000  0 10G27G03G04G06G07G09G16G26G30G08
    -58814.28146     -5144.28945  23684536.7274                   23684536.6724
        39.2504         33.5004
  13590200.63347  10597496.98046  22728692.9454                   22728693.5474
        43.5004         39.2504
  -1205853.80547   -919813.32446  20362546.9534                   20362542.7774
        47.7504         39.5004
   4792245.37546   3766658.06644  25346523.1254                   25346524.3284
        37.5004         25.0004
 -10217043.45747  -7876598.16447  22360613.6024                   22360609.3404
        45.2504         42.7504
 -10844128.60547  -8424364.51248  20484117.7504                   20484114.7624
        47.5004         51.0004
   -263556.44547   -184944.83645  21140042.2114                   21140037.3244
        47.5004         35.0004
  13338183.52346  10401390.88345  24208890.6954                   24208890.4534
        40.0004         31.0004
   8278482.14746   6491392.25144  24720777.8834                   24720777.5824
        38.0004         27.0004
   6992878.98446   5722575.73044  24063445.6804                   24063448.2734
        39.0004         28.0004
 25  8  7  2  8 30.0000000  0 10G27G03G04G06G07G09G16G26G30G08
   -220587.18046   -131200.94145  23653752.3364                   23653752.7894
        38.5004         34.0004
  13605238.37547  10609214.56646  22731555.3204                   22731554.4734
        43.0004         38.0004
  -1280849.93047   -978251.86746  20348275.3594                   20348271.8324
        46.5004         39.7504
   4757681.03146   3739724.69544  25339945.9614                   25339947.4264
        37.5004         27.2504
 -10355387.18747  -7984398.39847  22334287.7734                   22334283.4454
        44.7504         42.7504
 -10985036.04747  -8534162.49648  20457304.0084                   20457301.0634
        47.5004         51.2504
   -304259.27747   -216661.32445  21132296.5314                   21132291.8284
        47.7504         35.2504
  13350342.31346  10410865.18445  24211204.7034                   24211204.9064
        39.2504         30.0004
   8109117.12946   6359419.70344  24688547.8054                   24688549.9534
        38.2504         28.7504
   6810118.91446   5580165.47745  24028667.4694                   24028670.8914
        37.7504         31.0004
 25  8  7  2  9  0.0000000  0 10G27G03G04G06G07G09G16G26G30G08
   -382057.97346   -257022.19145  23623025.1024                   23623025.4494
        37.5004         33.5004
  13620470.53947  10621083.70346  22734452.2664                   22734454.1294
        43.0004         38.0004
  -1355479.13747  -1036404.49646  20334073.8594                   20334070.4024
        47.5004         39.0004
   4723348.19146   3712971.80144  25333412.6254                   25333415.4694
        37.0004         27.2504
 -10493556.03147  -8092062.37547  22307994.7504                   22307990.7114
        46.0004         42.7504
 -11125644.57048  -8643727.56248  20430547.2274                   20430544.2114
        48.5004         51.2504
   -344375.41447   -247920.64545  21124663.1884                   21124658.0044
        47.0004         34.2504
  13362677.94146  10420477.38745  24213552.0784                   24213552.3954
        39.5004         33.0004
   7939857.92246   6227529.57444  24656338.9844                   24656340.4694
        37.0004         27.5004
   6627389.11746   5437778.84844  23993895.5944                   23993896.2154
        38.5004         27.2504
 25  8  7  2  9 30.0000000  0 10G27G03G04G06G07G09G16G26G30G08
   -543225.93046   -382607.48445  23592355.3594                   23592355.6684
        38.5004         33.0004
  13635891.76647  10633100.10246  22737389.0004                   22737388.8134
        43.7504         38.5004
  -1429743.18748  -1094272.59846  20319941.8054                   20319938.3134
        48.0004         39.0004
   4689241.46146   3686395.04744  25326922.2274                   25326924.1804
        37.5004         26.2504
 -10631552.85547  -8199592.30547  22281734.7974                   22281730.5704
        44.7504         42.7504
 -11265954.91047  -8753060.28148  20403846.6724                   20403843.8054
        46.7504         51.2504
   -383909.92247   -278726.75445  21117139.8754                   21117134.8404
        46.5004         34.2504
  13375185.30546  10430223.35945  24215932.4064                   24215931.6484
        40.2504         32.5004
   7770701.97946   6095719.78844  24624149.1884                   24624150.0394
        38.0004         26.7504
   6444689.99246   5295416.16445  23959129.2424                   23959132.0904
        40.7504         32.7504
 25  8  7  2 10  0.0000000  0 10G27G03G04G06G07G09G16G26G30G08
   -704089.52046   -507955.57445  23561744.1644                   23561744.9924
        39.0004         34.7504
  13651497.50446  10645260.29346  22740357.2814                   22740358.1804
        41.2504         36.7504
  -1503643.04747  -1151856.90246  20305879.0234                   20305875.8874
        47.5004         39.0004
   4655356.26645   3659990.94544  25320473.9454                   25320476.3524
        35.5004         26.2504
 -10769379.72747  -8306989.80547  22255506.8674                   22255503.2344
        46.2504         42.7504
 -11405966.85548  -8862160.48048  20377203.1174                   20377200.2774
        49.0004         51.2504
   -422866.55547   -309082.56645  21109726.5234                   21109721.4654
        47.2504         34.5004
  13387860.07846  10440099.73845  24218344.0394                   24218343.8914
        39.7504         33.0004
   7601647.64546   5963989.36344  24591979.3984                   24591981.0704
        37.7504         27.0004
   6262023.10246   5153078.55944  23924367.5164                   23924369.8794
        38.0004         28.5004
 25  8  7  2 10 30.0000000  0 10G27G03G04G06G07G09G16G26G30G08
   -864641.08646   -633060.56246  23531192.6174                   23531193.0314
        39.2504         36.0004
  13667289.17647  10657565.36746  22743363.0944                   22743363.8134
        44.0004         38.5004
  -1577173.57047  -1209153.41846  20291886.6254                   20291883.1844
        47.2504         39.0004
   4621694.09446   3633760.60244  25314068.3054                   25314070.0514
        36.2504         24.5004
 -10907032.68047  -8414251.78947  22229312.8674                   22229308.6134
        45.0004         43.2504
 -11545674.28547  -8971023.39548  20350617.5704                   20350614.8634
        46.7504         51.0004
   -461243.24247   -338986.48045  21102423.5234                   21102418.5234
        46.5004         34.5004
  13400703.97346  10450107.92245  24220788.3204                   24220788.3164
        38.2504         31.5004
   7432699.37546   5832341.32844  24559829.7114                   24559830.8954
        37.7504         27.5004
   6079396.07046   5010771.98445  23889614.7034                   23889617.9024
        37.7504         30.5004
 25  8  7  2 11  0.0000000  0 10G27G03G04G06G07G09G16G26G30G08
  -1024878.58646   -757920.81245  23500700.1414                   23500700.2814
        39.2504         35.5004
  13683262.68446  10670012.13746  22746401.6724                   22746403.3094
        41.5004         36.5004
  -1650335.24247  -1266162.51646  20277964.9304                   20277960.8324
        47.2504         39.0004
   4588250.78146   3607700.84444  25307704.1564                   25307706.5394
        37.7504         28.2504
 -11044513.12547  -8521379.34847  22203150.8134                   22203146.9844
        47.7504         43.5004
 -11685076.51648  -9079648.50048  20324090.4304                   20324087.5594
        49.7504         51.2504
   -499043.56647   -368441.27745  21095230.2584                   21095225.6724
        46.5004         34.5004
  13413713.14546  10460244.91045  24223263.8984                   24223263.4144
        36.7504         32.0004
   7263856.02046   5700775.37143  24527699.7584                   24527700.7114
        37.5004         22.7504
   5896810.69146   4868497.84445  23854870.1174                   23854872.5314
        40.7504         31.0004
 25  8  7  2 11 30.0000000  0 10G27G03G04G06G07G09G16G26G30G08
  -1184798.53146   -882533.63746  23470268.9304                   23470268.3554
        40.5004         36.0004
  13699415.38347  10682598.53946  22749476.9774                   22749475.8444
        43.5004         37.7504
  -1723127.10547  -1322883.45346  20264112.8834                   20264108.9534
        47.5004         39.0004
   4555023.81646   3581809.62144  25301381.9064                   25301383.6884
        37.7504         29.0004
 -11181821.55548  -8628372.88347  22177022.4614                   22177017.7664
        48.5004         43.7504
 -11824171.52048  -9188034.19948  20297621.5944                   20297618.6094
        49.7504         51.2504
   -536269.50447   -397448.50045  21088147.0234                   21088141.4344
        46.5004         34.5004
  13426885.24246  10470508.78944  24225770.2664                   24225770.0944
        37.2504         29.5004
   7095117.94145   5569291.14544  24495588.3914                   24495591.1764
        34.5004         26.7504
   5714270.32046   4726258.87145  23820133.8284                   23820136.4344
        40.7504         30.7504
 25  8  7  2 12  0.0000000  0 10G27G03G04G06G07G09G16G26G30G08
    231025.83646    220706.27046  23739690.0394                   23739690.7194
        40.2504         36.0004
  15291162.09446  11922920.57446  23052374.8364                   23052375.6214
        41.5004         37.5004
   -220127.76247   -151715.13746  20550124.0004                   20550120.6644
        46.7504         38.7504
   6097429.49255   4783684.11753  25594891.8984                   25594894.2234
        30.5004         20.2504
  -9743535.36347  -7507630.34447  22450718.8444                   22450714.4454
        45.5004         43.5004
 -10387534.57847  -8068576.83248  20571004.6174                   20571001.7464
        47.5004         51.5004
   1002495.77747    801589.38745  21380963.8364                   21380959.0784
        46.5004         34.5004
  15015635.40645  11708495.94144  24528099.2974                   24528099.5904
        35.0004         29.2504
   8501909.07446   6665492.17244  24763294.1254                   24763293.4694
        38.0004         28.0004
   7107202.60946   5811660.84845  24085200.1024                   24085202.8054
        39.7504         31.7504
 25  8  7  2 12 30.0000000  0  9G27G03G04G07G09G16G26G30G08
     71746.80946     96592.87946  23709380.9924                   23709380.7424
        40.5004         36.0004
  15307660.69546  11935776.45746  23055515.4454                   23055516.3794
        40.5004         36.5004
   -292181.70347   -207861.05146  20536412.6414                   20536409.2034
        47.2504         38.5004
  -9880504.84048  -7614359.76647  22424654.3834                   22424649.8594
        48.2504         43.5004
 -10526013.42248  -8176482.39548  20544653.2974                   20544650.0554
        49.5004         51.5004
    966407.78947    773468.87145  21374096.5394                   21374091.6094
        46.0004         34.5004
  15029121.79346  11719004.74245  24530665.5474                   24530665.7704
        39.2504         32.5004
   8333377.78546   6534169.25445  24731222.9924                   24731224.7384
        38.7504         30.2504
   6924758.05546   5669496.47744  24050480.5554                   24050482.7344
        37.5004         27.7504
 25  8  7  2 13  0.0000000  0  9G27G03G04G07G09G16G26G30G08
    -87205.32846    -27265.78145  23679133.2424                   23679133.5474
        39.7504         35.5004
  15324329.41046  11948764.94946  23058687.2814                   23058688.7464
        41.2504         37.5004
   -363864.04747   -263717.42646  20522771.8284                   20522768.3794
        46.7504         39.5004
 -10017303.85547  -7720956.35547  22398621.8524                   22398617.8524
        47.7504         43.0004
 -10664179.89148  -8284144.57048  20518360.7734                   20518357.5514
        49.5004         51.5004
    930886.81647    745790.19145  21367337.3284                   21367332.2304
        46.5004         34.5004
  15042762.97346  11729634.14545  24533261.3984                   24533261.6334
        37.7504         30.5004
   8164951.53945   6402928.13344  24699170.6254                   24699173.0474
        35.2504         26.0004
   6742367.77746   5527374.43845  24015773.1954                   24015776.7664
        38.7504         31.5004
 25  8  7  2 13 30.0000000  0  9G27G03G04G07G09G16G26G30G08
   -245825.51646   -150865.78945  23648948.3834                   23648948.5354
        41.0004         35.7504
  15341167.30546  11961885.23446  23061891.1954                   23061893.0044
        41.2504         37.5004
   -435172.21547   -319282.23046  20509202.2974                   20509198.8164
        47.5004         39.0004
 -10153931.03547  -7827419.06247  22372622.7344                   22372618.7304
        45.2504         43.2504
 -10802030.26648  -8391560.41848  20492128.6174                   20492125.9144
        48.5004         51.5004
    895932.76247    718553.25845  21360685.7114                   21360680.4494
        46.7504         34.5004
  15056558.15646  11740383.61744  24535886.7734                   24535886.7504
        36.7504         29.5004
   7996632.39145   6271770.48844  24667141.0634                   24667143.1644
        34.5004         25.7504
   6560036.71146   5385298.44545  23981076.4224                   23981079.0274
        38.5004         31.2504
 25  8  7  2 14  0.0000000  0  9G27G03G04G07G09G16G26G30G08
   -404108.33646   -274202.90645  23618828.6414                   23618827.7344
        41.2504         35.5004
  15358173.64146  11975136.78146  23065127.6954                   23065129.2504
        41.7504         37.7504
   -506103.29347   -374553.19546  20495704.4774                   20495701.2344
        47.2504         39.0004
 -10290384.56247  -7933746.44947  22346656.4454                   22346652.1564
        45.5004         43.5004
 -10939560.44547  -8498726.77048  20465957.2814                   20465954.6134
        47.5004         51.5004
    861545.36747    691757.89145  21354142.3834                   21354136.8554
        47.2504         35.5004
  15070507.09046  11751252.86745  24538541.8524                   24538541.4344
        39.5004         31.5004
   7828422.51246   6140697.99244  24635132.0864                   24635134.5784
        37.5004         29.7504
   6377770.34046   5243272.91444  23946391.9224                   23946393.8324
        38.0004         28.0004
 25  8  7  2 14 30.0000000  0  9G27G03G04G07G09G16G26G30G08
   -562047.06646   -397271.89845  23588773.2034                   23588772.9064
        41.2504         35.2504
  15375349.05547  11988520.09446  23068396.5554                   23068397.9304
        42.0004         38.5004
   -576653.14147   -429527.09846  20482279.3054                   20482276.2384
        47.0004         39.0004
 -10426661.35947  -8039936.12147  22320724.0314                   22320719.6374
        46.7504         43.5004
 -11076765.14548  -8605639.49648  20439847.9384                   20439845.3444
        49.0004         51.5004
    827725.37947    665404.66845  21347706.0864                   21347701.2704
        47.0004         34.5004
  15084610.66146  11762242.61645  24541224.6804                   24541225.0044
        39.7504         32.5004
   7660325.44946   6009713.33645  24603145.5704                   24603145.2664
        39.7504         31.5004
   6195575.36746   5101303.03145  23911722.1804                   23911724.7624
        38.7504         32.2504
 25  8  7  2 15  0.0000000  0  9G27G03G04G07G09G16G26G30G08
   -719640.09446   -520071.53546  23558784.6254                   23558783.8714
        40.5004         36.2504
  15392689.05547  12002031.64846  23071696.5474                   23071697.2934
        42.0004         38.0004
   -646822.62547   -484204.62146  20468926.8134                   20468922.9774
        47.5004         39.5004
 -10562763.71947  -8145989.86747  22294824.6804                   22294820.4224
        47.5004         43.5004
 -11213644.09048  -8712298.38748  20413801.1174                   20413798.0044
        49.0004         51.7504
    794468.93447    639490.54345  21341378.0554                   21341372.5704
        47.2504         35.0004
  15098864.65646  11773349.58245  24543936.9774                   24543937.4024
        38.7504         30.5004
   7492339.63746   5878815.53545  24571177.8444                   24571178.4964
        39.5004         30.7504
   6013453.29346   4959389.91845  23877064.4384                   23877067.1724
        40.0004         32.5004
 25  8  7  2 15 30.0000000  0  9G27G03G04G07G09G16G26G30G08
   -876882.94146   -642598.29345  23528861.8754                   23528861.7304
        40.0004         35.5004
  15410192.06647  12015670.22346  23075027.3204                   23075029.2274
        42.0004         38.7504
   -716609.77747   -538584.21946  20455646.8754                   20455643.3594
        47.5004         39.0004
 -10698690.52747  -8251906.83647  22268958.4774                   22268954.0514
        45.7504         43.5004
 -11350194.10548  -8818700.96948  20387816.7424                   20387813.4304
        48.2504         51.7504
    761774.96947    614014.71945  21335156.1174                   21335151.2544
        46.7504         34.5004
  15113267.98047  11784572.91845  24546678.5314                   24546678.4454
        42.5004         31.2504
   7324466.38746   5748005.29345  24539233.0944                   24539234.8554
        39.2504         33.5004
   5831408.76246   4817537.29344  23842422.1954                   23842425.1294
        38.0004         28.5004
 25  8  7  2 16  0.0000000  0  9G27G03G04G07G09G16G26G30G08
  -1033779.96146   -764855.60946  23499005.4384                   23499005.3834
        41.0004         36.2504
  15427847.59847  12029427.65646  23078387.4224                   23078389.0514
        42.5004         38.0004
   -786021.61347   -592671.37546  20442438.1334                   20442434.6604
        47.0004         39.0004
 -10834449.64847  -8357693.12547  22243124.3444                   22243119.9774
        46.0004         43.7504
 -11486421.02748  -8924851.78948  20361893.1334                   20361890.3754
        48.2504         51.7504
    729633.50447    588969.43445  21329040.4454                   21329035.1484
        47.0004         35.5004
  15127810.19546  11795904.52945  24549445.8914                   24549445.8284
        40.2504         30.7504
   7156698.23446   5617276.91444  24507307.4844                   24507307.3554
        37.7504         29.5004
   5649437.31546   4675741.53845  23807794.0164                   23807796.8324
        38.2504         30.7504
 25  8  7  2 16 30.0000000  0  9G27G03G04G07G09G16G26G30G08
  -1190329.29746   -886842.00046  23469214.6724                   23469214.6214
        40.5004         36.0004
  15445651.53946  12043300.73846  23081774.9224                   23081777.3094
        41.5004         37.7504
   -855058.69947   -646466.50046  20429300.8524                   20429297.1524
        46.5004         38.5004
 -10970043.22347  -8463350.42247  22217322.0234                   22217317.7304
        46.2504         43.7504
 -11622324.21947  -9030750.35548  20336031.6174                   20336028.2854
        47.7504         51.7504
    698040.86347    564351.79745  21323028.5554                   21323023.0904
        45.7504         34.7504
  15142488.00046  11807341.64545  24552238.7814                   24552239.1254
        40.0004         30.0004
   6989033.85946   5486629.52745  24475401.2274                   24475403.3054
        36.5004         31.5004
   5467540.97346   4534004.34045  23773180.5084                   23773182.2934
        39.7504         30.7504
 25  8  7  2 17  0.0000000  0  9G27G03G04G07G09G16G26G30G08
  -1346530.54346  -1008557.14845  23439490.4924                   23439490.3204
        40.7504         35.2504
  15463598.19146  12057284.99646  23085190.5314                   23085190.9104
        40.0004         36.2504
   -923723.18047   -699971.28946  20416234.3284                   20416230.2934
        47.0004         38.7504
 -11105474.69147  -8568881.39847  22191550.0634                   22191546.0744
        45.7504         44.0004
 -11757904.61748  -9136397.38748  20310231.7114                   20310228.4614
        48.0004         51.7504
    666991.62547    540157.57845  21317119.8134                   21317114.9344
        46.5004         34.2504
  15157295.54747  11818880.06345  24555056.6804                   24555056.4884
        42.5004         30.7504
   6821470.58246   5356060.80545  24443515.5784                   24443516.6844
        37.5004         33.0004
   5285720.01246   4392325.87945  23738581.9064                   23738583.5864
        40.7504         34.5004
 25  8  7  2 17 30.0000000  0  9G27G03G04G07G09G16G26G30G08
  -1502378.16446  -1129996.75845  23409833.4844                   23409832.8524
        39.5004         34.7504
  15481687.11346  12071380.08646  23088633.1484                   23088633.6414
        41.5004         36.5004
   -992012.02347   -753183.37946  20403239.0004                   20403235.6334
        46.2504         38.5004
 -11240741.68047  -8674284.22347  22165809.5084                   22165805.0634
        45.7504         44.2504
 -11893158.05147  -9241789.63748  20284493.6484                   20284490.8364
        47.2504         52.0004
    636485.92647    516386.91045  21311314.4694                   21311309.3244
        46.5004         34.5004
  15172233.01646  11830519.59044  24557899.2584                   24557899.0514
        36.7504         28.5004
   6654010.78546   5225572.79345  24411649.8204                   24411649.1994
        39.5004         32.0004
   5103980.20346   4250710.62545  23703996.7034                   23703999.5944
        38.0004         32.0004
 25  8  7  2 18  0.0000000  0  9G27G03G04G07G09G16G26G30G08
  -1657866.71946  -1251156.56645  23380244.7734                   23380244.8914
        38.7504         35.7504
  15499917.57047  12085585.48846  23092103.0004                   23092104.0274
        42.2504         38.7504
  -1059922.38747   -806100.55146  20390316.2504                   20390312.7894
        46.7504         38.7504
 -11375842.39147  -8779557.46147  22140100.5634                   22140095.9924
        46.0004         43.7504
 -12028080.39148  -9346923.90648  20258818.7274                   20258816.1374
        48.2504         51.7504
    606523.43847    493039.52045  21305613.1804                   21305608.1844
        46.7504         35.5004
  15187300.12946  11842260.09045  24560766.7894                   24560766.7234
        39.5004         31.0004
   6486656.75846   5095167.16845  24379802.9304                   24379803.7234
        38.2504         32.0004
   4922326.96546   4109162.91845  23669429.3984                   23669431.7774
        36.7504         30.2504
 25  8  7  2 18 30.0000000  0 10G27G03G04G21G07G09G16G26G30G08
  -1812993.54346  -1372034.51245  23350724.6334                   23350725.2464
        38.2504         35.2504
  15518286.34047  12099898.69146  23095597.8444                   23095599.3014
        42.0004         37.5004
  -1127454.05947   -858722.63746  20377465.6804                   20377461.7154
        46.7504         38.0004
                                  24957454.2664                   24957450.5514
        29.5004         15.5004
 -11510777.55547  -8884701.70747  22114422.9144                   22114418.7074
        45.2504         44.0004
 -12162670.23448  -9451799.07848  20233207.1724                   20233204.1724
        48.0004         52.0004
    577100.84047    470112.81645  21300013.8204                   21300009.3404
        47.0004         34.7504
  15202493.79746  11854099.32845  24563657.7034                   24563658.2624
        41.0004         30.2504
   6319408.09846   4964843.60545  24347975.7584                   24347976.2814
        38.7504         31.5004
   4740763.13346   3967684.80945  23634878.6484                   23634880.8914
        37.5004         31.7504
 25  8  7  2 19  0.0000000  0 10G27G03G04G21G07G09G16G26G30G08
  -1967755.52046  -1492628.14845  23321275.1484                   23321274.5904
        38.7504         34.7504
  15536790.49246  12114317.35246  23099119.2814                   23099120.1254
        40.5004         37.2504
  -1194606.48047   -911049.19946  20364687.2504                   20364683.2464
        46.5004         39.0004
  16783729.71555  13118035.04353  24921842.6484                   24921840.5354
        34.5004         18.5004
 -11645548.13347  -8989717.69147  22088777.2274                   22088773.3134
        45.5004         44.0004
 -12296925.83648  -9556413.80548  20207659.4534                   20207656.5044
        48.5004         52.0004
    548216.20747    447605.30145  21294517.7034                   21294512.4224
        47.7504         35.0004
  15217811.57446  11866035.26644  24566572.1414                   24566573.0084
        38.0004         27.0004
   6152264.78146   4834602.17245  24316169.8364                   24316170.5354
        38.7504         32.0004
   4559291.92246   3826278.83644  23600345.3524                   23600347.0044
        36.7504         29.5004
 25  8  7  2 19 30.0000000  0 10G27G03G04G21G07G09G16G26G30G08
  -2122150.19146  -1612935.59045  23291894.4144                   23291893.9734
        37.7504         33.5004
  15555426.35946  12128838.62945  23102665.2814                   23102666.5554
        40.2504         35.5004
  -1261379.81647   -963080.37946  20351980.4844                   20351976.7734
        47.0004         38.5004
  16596854.70755  12972418.27353  24886281.8834                   24886279.1024
        34.5004         18.2504
 -11780155.13348  -9094606.19947  22063162.2584                   22063158.1724
        48.0004         44.2504
 -12430846.02748  -9660767.16848  20182175.2664                   20182172.1024
        50.0004         52.2504
    519866.03547    425514.26245  21289122.9144                   21289117.6994
        47.5004         35.7504
  15233250.29346  11878065.34844  24569510.3834                   24569510.7734
        37.5004         29.5004
   5985226.10646   4704442.26045  24284382.8594                   24284384.2034
        38.5004         33.5004
   4377915.78146   3684947.00044  23565830.1644                   23565831.1994
        38.5004         29.5004
 25  8  7  2 20  0.0000000  0 10G27G03G04G21G07G09G16G26G30G08
  -2276172.79346  -1732953.08245  23262584.5864                   23262584.8204
        38.5004         33.5004
  15574192.91046  12143461.77045  23106236.7584                   23106238.0784
        39.2504         35.5004
  -1327771.68047  -1014814.30146  20339346.8284                   20339342.8244
        46.5004         38.2504
  16410242.02345  12827005.79743  24850770.7274                   24850767.8954
        35.5004         20.0004
 -11914597.08647  -9199366.12147  22037579.1804                   22037574.3554
        46.5004         44.0004
 -12564427.24648  -9764856.40248  20156755.2344                   20156752.2734
        48.0004         52.0004
    492049.58648    403839.09845  21283829.9774                   21283824.5044
        48.0004         34.7504
  15248809.03546  11890189.00845  24572471.2664                   24572471.2384
        40.0004         31.0004
   5818293.77046   4574365.19945  24252617.8834                   24252617.2464
        40.5004         33.2504
   4196639.78546   3543693.25845  23531335.4924                   23531336.7114
        39.2504         32.0004
 25  8  7  2 20 30.0000000  0 10G27G03G04G21G07G09G16G26G30G08
   -854396.84846   -625075.59845  23533139.7034                   23533139.5784
        38.5004         34.0004
  17168504.73846  13385782.55145  23409624.8914                   23409625.1994
        39.7504         35.0004
    181638.83647    161349.73046  20626577.4064                   20626574.2274
        45.7504         38.2504
  17799318.56346  13909403.21943  25115102.8364                   25115100.4494
        36.5004         19.7504
 -10473451.81247  -8076395.72347  22311819.8444                   22311815.6024
        45.5004         44.2504
 -11122245.04747  -8641078.04748  20431193.3984                   20431190.6054
        47.5004         52.0004
   2040183.19147   1610176.97745  21578429.3134                   21578424.5864
        47.2504         35.0004
  16839903.12546  13130002.57845  24875246.8054                   24875246.4964
        40.0004         30.2504
   7226891.66446   5671974.08245  24520663.9774                   24520664.6914
        39.7504         32.7504
   5590891.33646   4630123.25445  23796652.6094                   23796653.9534
        38.5004         33.5004
 25  8  7  2 21  0.0000000  0 10G27G03G04G21G07G09G16G26G30G08
  -1007667.78146   -744507.38345  23503973.0004                   23503972.8954
        39.0004         35.0004
  17187521.95346  13400600.99645  23413243.0394                   23413244.0314
        41.0004         34.7504
    116009.61747    110210.07046  20614089.0474                   20614085.3754
        46.2504         38.2504
  17613236.41046  13764404.16443  25079692.3364                   25079689.7114
        36.5004         19.0004
 -10607567.13747  -8180901.11747  22286298.4844                   22286294.0824
        46.5004         44.5004
 -11255144.74248  -8744636.22748  20405903.4224                   20405900.4024
        48.2504         52.0004
   2013424.14547   1589325.76245  21573337.1884                   21573332.6454
        46.7504         34.0004
  16855692.73846  13142306.15644  24878250.7894                   24878251.2034
        39.2504         28.2504
   7060170.29746   5542061.37945  24488939.1884                   24488938.8204
        39.2504         32.5004
   5409823.42246   4489031.58645  23762196.0634                   23762196.8054
        39.5004         33.0004
 25  8  7  2 21 30.0000000  0 10G27G03G04G21G07G09G16G26G30G08
  -1160558.62546   -863642.98045  23474879.0394                   23474878.6414
        39.5004         35.5004
  17206659.93446  13415513.56345  23416885.0944                   23416886.6214
        40.2504         35.0004
     50762.23847     59367.94546  20601672.8674                   20601669.2544
        47.5004         38.5004
  17427422.94146  13619614.54343  25044332.6414                   25044330.5164
        38.0004         20.7504
 -10741520.20748  -8285280.07847  22260807.8674                   22260803.5704
        48.5004         44.5004
 -11387701.25448  -8847926.99648  20380678.9144                   20380675.5044
        49.5004         52.0004
   1987189.40647   1568883.09845  21568344.9614                   21568340.3524
        47.0004         34.5004
  16871593.75046  13154696.53944  24881277.2114                   24881277.0004
        38.2504         26.0004
   6893554.04346   5412230.62545  24457231.1644                   24457232.0004
        37.0004         30.2504
   5228864.09446   4348024.54345  23727761.0784                   23727762.6294
        38.0004         33.5004
 25  8  7  2 22  0.0000000  0 10G27G03G04G21G07G09G16G26G30G08
  -1313066.07446   -982479.84846  23445857.7424                   23445857.0664
        39.7504         36.0004
  17225915.96946  13430518.15246  23420548.7274                   23420551.3284
        40.2504         36.0004
    -14102.55147      8823.94946  20589329.2664                   20589325.7114
        46.7504         37.7504
  17241881.14546  13475036.55143  25009025.7584                   25009022.9574
        37.0004         19.0004
 -10875310.96547  -8389532.55147  22235348.2664                   22235343.9184
        47.7504         44.2504
 -11519912.59048  -8950948.80548  20355519.6564                   20355516.8714
        50.0004         52.0004
   1961476.78147   1548847.28145  21563452.0944                   21563447.1334
        47.0004         34.5004
  16887603.97745  13167172.05143  24884324.3204                   24884323.3484
        34.7504         21.7504
   6727043.21146   5282482.03145  24425545.8134                   24425547.1764
        38.0004         31.7504
   5048016.84446   4207104.77045  23693346.7034                   23693348.1804
        40.0004         35.0004
 25  8  7  2 22 30.0000000  0 10G27G03G04G21G07G09G16G26G30G08
  -1465187.25046  -1101015.71946  23416910.0784                   23416909.5354
        40.5004         36.5004
  17245286.96546  13445612.28146  23424235.5474                   23424237.0904
        41.0004         36.7504
    -78584.46947    -41421.71546  20577058.9224                   20577055.4494
        46.2504         38.2504
  17056613.30946  13330672.03143  24973770.0164                   24973766.9804
        38.2504         19.7504
 -11008940.60547  -8493659.51247  22209919.5084                   22209915.1884
        46.5004         44.2504
 -11651777.12548  -9053700.37948  20330426.5004                   20330423.6884
        48.5004         52.0004
   1936283.33647   1529216.01645  21558658.2114                   21558652.5704
        47.0004         34.0004
  16903720.73045  13179730.52043  24887389.7584                   24887391.0314
        32.2504         18.2504
   6560637.43846   5152815.27745  24393878.8674                   24393880.6884
        37.5004         31.5004
   4867284.68446   4066274.72345  23658954.2344                   23658955.2114
        40.0004         35.0004
 25  8  7  2 23  0.0000000  0 10G27G03G04G21G07G09G16G26G30G08
  -1616918.34446  -1219247.64146  23388035.8524                   23388035.8094
        40.2504         36.0004
  17264770.85247  13460794.35546  23427943.5704                   23427945.3134
        42.0004         36.5004
   -142682.11747    -91367.93746  20564861.6884                   20564857.9844
        46.5004         38.0004
  16871622.79346  13186523.59443  24938567.7814                   24938564.9344
        38.5004         19.2504
 -11142408.59047  -8597660.48047  22184521.1334                   22184516.7234
        47.5004         44.2504
 -11783292.25448  -9156179.67648  20305400.3914                   20305396.9804
        49.7504         52.0004
   1911607.80547   1509988.32045  21553962.2894                   21553957.4654
        46.5004         33.5004
  16919942.23054  13192370.66052  24890476.9224                   24890478.4844
        29.7504         14.7504
   6394337.59846   5023231.06345  24362233.9614                   24362233.8054
        39.7504         31.5004
   4686671.68446   3925537.56645  23624585.0784                   23624585.3954
        41.0004         34.0004
 25  8  7  2 23 30.0000000  0 10G27G03G04G21G07G09G16G26G30G08
  -1768256.62546  -1337173.46146  23359237.7584                   23359236.9184
        40.5004         36.0004
  17284364.42247  13476061.92246  23431672.3984                   23431673.7894
        42.0004         36.5004
   -206395.42247   -141014.68446  20552737.4304                   20552733.8874
        46.7504         38.0004
  16686911.96546  13042593.14143  24903417.9924                   24903416.0744
        37.7504         19.5004
 -11275715.90247  -8701536.23047  22159153.6804                   22159149.1414
        45.0004         44.5004
 -11914456.46147  -9258385.54748  20280440.4454                   20280437.2624
        47.0004         52.2504
   1887446.70347   1491161.49245  21549364.5314                   21549359.6524
        46.7504         34.0004
  16936265.85514                  24893585.391
        27.500
   6228143.37546   4893729.16845  24330608.3134                   24330608.3364
        39.5004         32.0004
   4506180.91847   3784895.60546  23590239.9534                   23590239.7234
        43.0004         37.5004
 25  8  7  2 24  0.0000000  0  9G27G03G04G21G07G09G16G30G08
  -1919199.77346  -1454791.39545  23330513.9304                   23330513.2274
        39.7504         35.5004
  17304064.14146  13491412.16845  23435420.7664                   23435421.9844
        41.2504         35.5004
   -269724.46947   -190362.00446  20540686.3754                   20540682.9064
        47.2504         37.7504
  16502482.72746  12898882.02743  24868323.0314                   24868320.8404
        40.0004         19.2504
 -11408863.26247  -8805287.38747  22133816.5004                   22133812.4024
        46.0004         44.5004
 -12045268.62148  -9360317.09048  20255547.7894                   20255545.0084
        48.7504         52.2504
   1863796.67247   1472732.88345  21544864.4614                   21544859.4024
        47.0004         34.5004
   6062054.07846   4764309.06645  24299002.7974                   24299003.3674
        40.7504         34.0004
   4325814.86747   3644350.78146  23555916.4224                   23555917.1054
        42.5004         37.5004
 25  8  7  2 24 30.0000000  0  9G27G03G04G21G07G09G16G30G08
  -2069743.97746  -1572098.46146  23301866.2664                   23301865.6374
        40.5004         36.5004
  17323867.96546  13506843.54345  23439189.3834                   23439191.6484
        41.2504         35.5004
   -332667.98047   -239408.90246  20528708.2664                   20528704.7624
        46.5004         37.5004
  16318338.46146  12755393.02743  24833281.5164                   24833278.9384
        40.2504         19.5004
 -11541850.45747  -8908913.71147  22108509.6884                   22108505.3954
        45.5004         44.2504
 -12175726.14147  -9461972.28548  20230722.4454                   20230719.5824
        47.0004         52.2504
   1840655.78547   1454701.01645  21540460.6804                   21540455.5084
        47.0004         33.5004
   5896070.44146   4634971.27745  24267417.5944                   24267416.8134
        41.5004         33.0004
   4145577.59846   3503906.32446  23521617.6954                   23521618.9184
        40.5004         36.0004
 25  8  7  2 25  0.0000000  0  9G27G03G04G21G07G09G16G30G08
  -2219887.76246  -1689093.49246  23273295.0864                   23273294.1524
        40.5004         37.0004
  17343771.40246  13522352.54745  23442977.6484                   23442979.2384
        40.7504         34.7504
   -395227.15647   -288156.31646  20516804.3054                   20516800.3244
        47.0004         38.0004
  16134480.16046  12612126.81343  24798294.6884                   24798291.6684
        40.0004         19.5004
 -11674679.66447  -9012416.93747  22083233.6804                   22083229.0354
        47.7504         44.5004
 -12305828.82048  -9563350.98848  20205965.0554                   20205962.0824
        50.0004         52.5004
   1818019.64847   1437062.47745  21536152.9064                   21536148.1294
        46.5004         34.0004
   5730190.93846   4505714.62945  24235850.9454                   24235850.7274
        41.7504         34.0004
   3965470.82046   3363563.57845  23487343.0314                   23487344.4304
        38.0004         33.0004
 25  8  7  2 25 30.0000000  0  9G27G03G04G21G07G09G16G30G08
  -2369626.42646  -1805772.87146  23244800.8914                   23244799.9264
        41.0004         37.2504
  17363773.39146  13537938.37145  23446783.0784                   23446785.3634
        39.2504         34.0004
   -457399.66047   -336602.43046  20504972.9384                   20504969.3244
        46.7504         38.0004
  15950912.25846  12469086.85543  24763362.0004                   24763359.7424
        38.5004         18.2504
 -11807349.34448  -9115795.85547  22057987.1804                   22057982.7894
        48.0004         44.5004
 -12435573.07048  -9664450.39548  20181275.3984                   20181272.4844
        49.2504         52.5004
   1795887.55947   1419816.66845  21531941.7034                   21531936.8834
        46.7504         33.5004
   5564417.29747   4376540.51645  24204305.7814                   24204305.6254
        42.0004         33.0004
   3785499.57846   3223326.46545  23453095.7814                   23453096.0434
        40.0004         32.2504
 25  8  7  2 26  0.0000000  0  9G27G03G04G21G07G09G16G30G08
  -2518957.96547  -1922135.01646  23216383.7424                   23216382.5164
        42.5004         38.0004
  17383870.01246  13553597.92245  23450608.0784                   23450609.8834
        40.5004         35.0004
   -519186.11747   -384747.72746  20493215.1414                   20493211.9224
        46.5004         38.2504
  15767636.20546  12326274.37543  24728486.5474                   24728482.9064
        38.0004         21.5004
 -11939861.18447  -9219051.78947  22032770.8524                   22032766.6804
        47.2504         44.5004
 -12564958.08248  -9765269.88348  20156654.1484                   20156651.2154
        49.7504         52.5004
   1774255.73047   1402960.71545  21527824.8204                   21527820.1334
        46.7504         33.7504
   5398748.48446   4247448.09445  24172779.3594                   24172780.0984
        40.0004         34.5004
   3605666.26646   3083196.81645  23418874.9454                   23418876.2894
        41.2504         34.5004
 25  8  7  2 26 30.0000000  0  9G27G03G04G21G07G09G16G30G08
  -2667880.32847  -2038178.32046  23188044.4454                   23188043.8714
        42.0004         37.7504
  17404057.58246  13569328.33245  23454450.1644                   23454451.2504
        40.5004         34.5004
   -580586.92647   -432592.52346  20481530.8914                   20481527.7074
        47.2504         38.5004
  15584653.69146  12183690.61743  24693666.3594                   24693662.7074
        39.5004         22.0004
 -12072216.72347  -9322185.91047  22007584.1954                   22007579.6644
        47.5004         44.2504
 -12693982.99248  -9865808.77048  20132102.0474                   20132098.4844
        49.2504         52.5004
   1753120.52047   1386491.71545  21523803.2664                   21523798.3444
        47.2504         34.0004
   5233183.50046   4118436.57045  24141274.2114                   24141273.0434
        41.0004         33.0004
   3425973.18447   2943176.40646  23384680.5234                   23384682.6524
        42.5004         36.2504
 25  8  7  2 27  0.0000000  0  9G27G03G04G21G07G09G16G30G08
  -2816392.54747  -2153902.03546  23159783.2814                   23159782.5904
        42.2504         38.5004
  17424331.18846  13585125.78145  23458307.6724                   23458309.4494
        39.7504         34.0004
   -641603.68047   -480138.04746  20469919.7664                   20469916.0744
        46.2504         38.2504
  15401965.35246  12041336.09443  24658901.3834                   24658898.2464
        38.7504         20.2504
 -12204417.77348  -9425199.67247  21982427.0164                   21982422.1954
        48.0004         44.2504
 -12822647.98048  -9966067.19948  20107617.7034                   20107614.5704
        49.5004         52.7504
   1732477.07447   1370405.90645  21519874.9224                   21519870.0084
        47.0004         33.2504
   5067720.33646   3989504.36745  24109786.6024                   24109785.7934
        39.5004         32.5004
   3246421.65646   2803266.29745  23350512.5944                   23350515.1604
        41.0004         35.5004
 25  8  7  2 27 30.0000000  0  9G27G03G04G21G07G09G16G30G08
  -2964487.34447  -2269300.48846  23131601.7344                   23131601.1214
        42.0004         38.2504
  17444692.27346  13600991.39145  23462182.3674                   23462184.4614
        39.7504         34.2504
   -702231.64547   -527380.62946  20458382.9064                   20458379.1564
        47.0004         37.7504
  15219578.02746  11899216.16843  24624194.5474                   24624191.6484
        37.5004         19.7504
 -12336461.32448  -9528090.69547  21957299.5474                   21957295.6294
        48.2504         44.5004
 -12950946.95348 -10066040.41048  20083202.8984                   20083200.2704
        49.2504         52.5004
   1712327.23847   1354704.73845  21516040.6174                   21516035.8984
        46.5004         33.0004
   4902363.30946   3860654.87545  24078320.3444                   24078320.0704
        40.7504         33.2504
   3067019.29347   2663472.40245  23316373.2114                   23316375.4844
        42.2504         35.0004
 25  8  7  2 28  0.0000000  0  9G27G03G04G21G07G09G16G30G08
  -3112165.00447  -2384373.90646  23103499.9064                   23103499.4614
        42.0004         38.2504
  17465134.89846  13616920.54345  23466072.8914                   23466074.4064
        39.0004         34.2504
   -762473.55547   -574322.37946  20446919.3054                   20446915.6884
        46.7504         38.0004
  15037491.21545  11757330.39843  24589543.6644                   24589541.5704
        35.0004         19.2504
 -12468350.52048  -9630861.44547  21932202.7584                   21932198.1844
        48.2504         44.5004
 -13078881.26248 -10165729.48048  20058857.9774                   20058854.5594
        49.5004         52.5004
   1692664.76647   1339383.32045  21512298.7974                   21512293.9344
        46.0004         33.0004
   4737109.21146   3731885.60245  24046873.7584                   24046874.0944
        39.2504         32.2504
   2887766.25446   2523794.85945  23282262.2664                   23282264.7464
        41.5004         34.5004
 25  8  7  2 28 30.0000000  0  9G27G03G04G21G07G09G16G30G08
  -3259423.95846  -2499121.06446  23075476.3834                   23075476.3594
        40.5004         37.5004
  17485654.76646  13632909.86745  23469977.8204                   23469979.8674
        38.7504         34.7504
   -822330.48047   -620964.14546  20435529.1254                   20435525.2544
        47.2504         38.0004
  14855705.97345  11615679.60942  24554950.6094                   24554948.6414
        33.2504         17.7504
 -12600087.24647  -9733513.39847  21907133.8054                   21907129.3794
        46.0004         44.5004
 -13206450.62948 -10265134.16848  20034582.3444                   20034578.9964
        48.2504         52.5004
   1673485.59447   1324438.51245  21508649.6024                   21508644.2344
        46.5004         33.5004
   4571956.48046   3603195.27045  24015445.5004                   24015446.0944
        39.5004         32.7504
   2708664.33646   2384235.14545  23248180.0944                   23248182.5514
        40.5004         33.5004
 25  8  7  2 29  0.0000000  0  9G27G03G04G21G07G09G16G30G08
  -1830833.99646  -1385934.00046  23347328.8594                   23347328.0234
        41.0004         37.5004
  19081670.86746  14876558.59845  23773689.4924                   23773691.1954
        39.0004         34.5004
    693622.54347    560297.94546  20724005.3134                   20724001.4964
        47.5004         37.5004
  16249653.43045  12701872.52342  24820209.6644                   24820208.6684
        33.5004         17.7504
 -11156245.18747  -8608441.62147  22181887.4064                   22181883.3754
        47.5004         44.5004
 -11758226.42248  -9136647.77048  20310170.1484                   20310167.2624
        49.2504         52.5004
   3230209.93047   2537470.45745  21804884.6564                   21804879.0474
        47.0004         32.7504
   5982333.26246   4702190.29345  24283831.7974                   24283831.3444
        39.7504         32.2504
   4105145.42246   3472402.37545  23513921.8834                   23513922.9104
        41.0004         33.5004
 25  8  7  2 29 30.0000000  0  9G27G03G04G21G07G09G16G30G08
  -1977242.48447  -1500018.44946  23319467.6414                   23319467.3364
        42.0004         38.0004
  19102341.12946  14892665.08245  23777623.3134                   23777625.3164
        39.0004         34.5004
    634541.34447    514260.63346  20712761.9844                   20712758.5474
        47.5004         37.7504
  16068483.61745  12560701.28143  24785735.1804                   24785732.1564
        33.7504         19.2504
 -11287674.00448  -8710853.64147  22156877.2734                   22156872.7074
        48.0004         44.5004
 -11885055.96948  -9235475.98448  20286035.2504                   20286032.2234
        49.5004         52.5004
   3211993.10947   2523275.52745  21801417.7814                   21801412.4694
        47.2504         33.0004
   5817387.90246   4573661.54745  24252442.2114                   24252442.0864
        38.0004         30.5004
   3926360.30946   3333089.44145  23479899.8054                   23479900.2704
        40.2504         30.7504
 25  8  7  2 30  0.0000000  0  9G27G03G04G21G07G09G16G30G08
  -2123219.87546  -1613766.98046  23291689.5864                   23291689.1374
        41.2504         37.5004
  19123083.88746  14908828.08246  23781570.8204                   23781572.9844
        40.5004         36.5004
    575850.10547    468527.19546  20701593.7274                   20701590.1214
        47.5004         37.7504
  15887626.87546  12419773.95343  24751319.1804                   24751316.4384
        37.2504         21.0004
 -11418947.81247  -8813144.87947  22131896.7344                   22131892.6414
        47.5004         44.5004
 -12011511.39548  -9334012.66448  20261971.2344                   20261968.5314
        49.5004         52.5004
   3194255.01247   2509453.61745  21798042.0084                   21798037.1804
        47.0004         33.2504
   5652547.63346   4445214.69945  24221073.9534                   24221074.4924
        37.2504         32.0004
   3747740.06346   3193905.00445  23445909.8674                   23445908.9924
        41.2504         30.0004
 25  8  7  2 30 30.0000000  0  9G27G03G04G21G07G09G16G30G08
  -2268763.29347  -1727177.37546  23263994.0944                   23263992.2704
        43.0004         38.5004
  19143896.26246  14925045.32445  23785531.3674                   23785532.5354
        40.5004         35.5004
    517549.06647    423097.80946  20690499.6334                   20690496.0984
        46.7504         38.0004
  15707085.68046  12279092.50443  24716963.7664                   24716961.3244
        37.7504         22.2504
 -11550067.66447  -8915316.14147  22106945.6254                   22106940.9804
        47.7504         44.5004
 -12137591.07048  -9432256.54748  20237979.3284                   20237976.3094
        49.0004         52.5004
   3176992.64847   2496002.42645  21794757.5474                   21794752.3244
        47.0004         32.5004
   5487812.35546   4316849.68845  24189726.3524                   24189727.3754
        38.2504         32.0004
   3569287.95346   3054851.52345  23411951.0314                   23411950.2074
        40.5004         31.0004
 25  8  7  2 31  0.0000000  0  9G27G03G04G21G07G09G16G30G08
  -2413867.91847  -1840245.82846  23236381.1644                   23236379.2854
        43.5004         38.0004
  19164777.45346  14941316.14546  23789505.3834                   23789506.8524
        41.2504         36.0004
    459640.70747    377974.40246  20679480.0394                   20679476.2194
        47.0004         38.5004
  15526864.53145  12138660.48843  24682668.6564                   24682665.9574
        35.5004         20.7504
 -11681031.59448  -9017365.91047  22082024.1644                   22082019.5354
        48.2504         44.7504
 -12263291.10248  -9530204.60948  20214059.2584                   20214056.2504
        48.7504         52.5004
   3160205.40247   2482921.46545  21791562.2504                   21791557.1524
        46.5004         32.7504
   5323184.25046   4188568.16845  24158398.7664                   24158398.9264
        38.7504         32.5004
   3391009.33646   2915933.30945  23378025.4454                   23378026.0394
        39.2504         31.5004
 25  8  7  2 31 30.0000000  0  9G27G03G04G21G07G09G16G30G08
  -2558534.31647  -1952972.79746  23208851.2894                   23208850.5314
        42.7504         38.5004
  19185721.15646  14957635.75845  23793490.3284                   23793492.5394
        41.0004         35.0004
    402121.86747    333154.52746  20668534.3754                   20668530.7034
        47.2504         38.2504
  15346962.72346  11998477.28943  24648434.2584                   24648431.5784
        37.7504         22.5004
 -11811843.47748  -9119297.21147  22057131.5784                   22057126.9024
        48.5004         45.0004
 -12388613.21548  -9627858.19548  20190211.4614                   20190208.5124
        48.7504         52.5004
   3143887.00047   2470205.81345  21788456.6724                   21788452.3404
        46.7504         33.7504
   5158659.55946   4060367.24245  24127090.9064                   24127090.0904
        39.0004         31.5004
   3212904.10246   2777150.18845  23344132.4224                   23344134.7074
        38.7504         31.5004
 25  8  7  2 32  0.0000000  0  9G27G03G04G21G07G09G16G30G08
  -2702759.10247  -2065355.68046  23181406.6254                   23181405.6134
        43.0004         38.0004
  19206725.17246  14974002.34045  23797487.7974                   23797489.0554
        40.0004         33.2504
    344993.43047    288638.85246  20657663.0474                   20657659.4184
        47.0004         38.0004
  15167383.29346  11858545.27743  24614261.6954                   24614258.9304
        38.2504         22.7504
 -11942503.15248  -9221109.91047  22032267.7034                   22032263.0164
        48.5004         45.0004
 -12513555.09048  -9725215.47348  20166435.8834                   20166432.6214
        48.2504         52.5004
   3128034.92247   2457853.52045  21785440.9924                   21785435.6914
        46.7504         32.7504
   4994238.96146   3932247.39545  24095802.1334                   24095802.0594
        38.7504         32.7504
   3034976.06646   2638505.16845  23310274.6174                   23310275.3914
        39.5004         31.2504
 25  8  7  2 32 30.0000000  0  9G27G03G04G21G07G09G16G30G08
  -2846538.62947  -2177391.59446  23154045.8444                   23154044.7034
        42.7504         38.0004
  19227787.47346  14990414.30145  23801495.2894                   23801497.8014
        39.7504         33.5004
    288256.59047    244428.32046  20646866.5864                   20646862.8594
        47.5004         37.2504
  14988129.58246  11718867.10243  24580150.6484                   24580148.2934
        37.2504         22.5004
 -12073010.30948  -9322803.75447  22007432.9144                   22007428.3244
        48.7504         45.0004
 -12638114.12148  -9822274.43748  20142733.1024                   20142729.8244
        49.5004         52.5004
   3112647.17247   2445863.05145  21782512.9614                   21782507.6604
        46.5004         33.0004
   4829923.14146   3804209.21545  24064534.4144                   24064533.8554
        40.2504         31.7504
   2857229.53546   2500001.53144  23276450.0944                   23276450.8094
        39.7504         29.0004
 25  8  7  2 33  0.0000000  0  9G27G03G04G21G07G09G16G30G08
  -2989869.55547  -2289077.94546  23126771.2194                   23126770.3094
        42.5004         37.5004
  19248905.92246  15006870.06345  23805514.6094                   23805516.6294
        38.7504         33.5004
    231912.23047    200523.61746  20636144.4384                   20636141.3524
        47.0004         38.2504
  14809204.55946  11579445.05143  24546101.6334                   24546099.7464
        36.5004         22.7504
 -12203364.85248  -9424378.69147  21982626.8594                   21982622.5904
        48.2504         45.0004
 -12762287.99248  -9919033.28548  20119103.3364                   20119099.8794
        48.7504         52.5004
   3097721.59847   2434232.72745  21779672.9534                   21779667.3524
        47.0004         33.0004
   4665712.80146   3676253.15245  24033285.3914                   24033285.5124
        41.0004         32.7504
   2679668.21146   2361642.22344  23242661.0944                   23242661.5314
        39.0004         29.5004
 25  8  7  2 33 30.0000000  0  9G27G03G04G21G07G09G16G30G08
  -3132747.75047  -2400411.50846  23099581.8984                   23099581.4224
        42.5004         38.0004
  19270078.92246  15023368.26245  23809543.9224                   23809546.0434
        38.7504         32.5004
    175961.96947    156926.00446  20625497.5474                   20625494.3484
        46.2504         37.5004
  14630612.31346  11440282.28144  24512117.6644                   24512115.3284
        38.0004         25.2504
 -12333565.82848  -9525833.93447  21957850.8444                   21957846.0514
        48.0004         45.2504
 -12886073.69548 -10015489.65248  20095547.9304                   20095544.4924
        49.2504         52.7504
   3083256.49247   2422961.19945  21776919.9454                   21776914.9224
        47.0004         33.7504
   4501609.00846   3548380.15245  24002057.3134                   24002057.9224
        40.5004         33.0004
   2502296.96946   2223430.96545  23208908.1804                   23208908.9144
        37.5004         30.0004
 25  8  7  2 34  0.0000000  0  9G27G03G04G21G07G09G16G30G08
  -3275168.77047  -2511388.82846  23072480.5474                   23072479.4454
        42.5004         38.0004
  19291305.34846  15039908.10945  23813583.3284                   23813585.9104
        38.2504         32.5004
    120407.69147    113636.93846  20614926.2274                   20614922.4534
        46.7504         37.2504
  14452356.99246  11301382.06344  24478196.3594                   24478193.8014
        38.5004         24.2504
 -12463612.01647  -9627168.59847  21933104.3834                   21933099.4384
        47.7504         45.0004
 -13009467.76648 -10111640.85548  20072066.7894                   20072063.5354
        49.7504         52.7504
   3069250.75447   2412047.61745  21774254.5234                   21774249.2304
        46.2504         33.0004
   4337613.50446   3420591.53945  23970850.0704                   23970849.9384
        40.2504         33.2504
   2325120.52746   2085371.62145  23175192.6484                   23175193.0664
        37.2504         30.7504
 25  8  7  2 34 30.0000000  0  9G27G03G04G21G07G09G16G30G08
  -3417126.09446  -2622004.84446  23045466.4924                   23045465.8714
        41.5004         38.0004
  19312586.25046  15056490.41444  23817633.1644                   23817635.1804
        37.2504         29.7504
     65253.49647     70659.63346  20604430.6724                   20604426.9534
        46.7504         37.0004
  14274444.87546  11162749.25443  24444340.2344                   24444337.9384
        39.0004         22.5004
 -12593500.30148  -9728380.20747  21908386.7344                   21908382.2424
        48.2504         45.5004
 -13132464.71148 -10207482.60548  20048661.2344                   20048657.9924
        49.0004         52.7504
   3055705.12147   2401492.57045  21771676.9144                   21771671.6884
        45.5004         32.7504
   4173730.00447   3292890.17245  23939664.4694                   23939664.3134
        42.2504         33.5004
   2148146.25046   1947469.71945  23141514.9454                   23141517.0084
        38.2504         32.0004
 25  8  7  2 35  0.0000000  0  9G27G03G04G21G07G09G16G30G08
  -3558618.61347  -2732258.68446  23018541.5394                   23018540.0824
        43.0004         38.2504
  19333917.14546  15073111.61745  23821692.1174                   23821694.8244
        38.7504         32.0004
     10498.01247     27993.00446  20594010.7034                   20594007.2854
        47.0004         37.2504
  14096876.84046  11024384.59843  24410551.0474                   24410547.2034
        38.7504         22.7504
 -12723232.55148  -9829470.23847  21883699.5394                   21883694.8444
        48.0004         45.2504
 -13255064.45748 -10303014.85248  20025331.3134                   20025328.3404
        49.7504         52.7504
   3042615.12547   2391292.55545  21769186.3524                   21769181.2074
        46.0004         32.2504
   4009956.78946   3165274.72745  23908499.3524                   23908499.0984
        41.7504         34.7504
   1971375.71946   1809726.64545  23107878.1024                   23107877.4734
        40.0004         31.5004
 25  8  7  2 35 30.0000000  0  9G27G03G04G21G07G09G16G30G08
  -3699640.79747  -2842146.01646  22991705.7584                   22991704.4774
        43.0004         37.2504
  19355298.17646  15089771.96945  23825761.1024                   23825763.6254
        38.5004         31.5004
    -43855.57847    -14360.44946  20583667.6414                   20583664.4844
        46.7504         37.5004
  13919658.24246  10886292.24243  24376827.7424                   24376824.3834
        39.5004         22.5004
 -12852806.38348  -9930436.82047  21859042.9144                   21859037.6334
        48.0004         45.2504
 -13377262.37548 -10398233.99648  20002077.4694                   20002074.6484
        49.2504         52.7504
   3029980.90247   2381447.69145  21766782.1484                   21766776.4414
        45.7504         32.0004
   3846296.76647   3037747.49245  23877355.7034                   23877355.6804
        42.0004         35.0004
   1794815.16046   1672147.12945  23074278.6954                   23074277.7854
        38.0004         30.5004
 25  8  7  2 36  0.0000000  0  9G27G03G04G21G07G09G16G30G08
  -3840190.08646  -2951664.86746  22964959.6884                   22964958.7504
        41.2504         37.0004
  19376726.17246  15106468.84845  23829838.8674                   23829841.4574
        39.0004         30.0004
    -97807.42247    -56400.85946  20573400.6564                   20573397.4224
        46.5004         37.0004
  13742791.33646  10748473.93043  24343169.5784                   24343167.6374
        38.5004         23.7504
 -12982222.52047 -10031280.52747  21834415.1804                   21834410.9694
        47.5004         45.2504
 -13499057.06248 -10493138.92248  19978900.8524                   19978897.7154
        49.7504         52.7504
   3017799.04347   2371955.31645  21764463.6804                   21764458.4144
        45.0004         32.5004
   3682749.48446   2910308.12546  23846234.2424                   23846233.5744
        41.2504         36.0004
   1618467.60246   1534733.56645  23040720.3284                   23040720.8164
        39.7504         33.2504
 25  8  7  2 36 30.0000000  0  9G27G03G04G21G07G09G16G30G08
  -3980267.23847  -3060815.80546  22938304.6954                   22938302.7344
        44.0004         36.7504
  19398195.10546  15123197.74245  23833924.7274                   23833926.8634
        40.0004         31.0004
   -151360.54347    -98130.57446  20563210.3524                   20563206.8954
        46.5004         37.5004
  13566275.34846  10610929.04343  24309579.9844                   24309577.9654
        39.5004         22.7504
 -13111484.70747 -10132004.27747  21809817.5704                   21809812.9574
        47.2504         45.0004
 -13620450.07448 -10587730.86748  19955800.5314                   19955797.3404
        48.5004         52.7504
   3006063.56647   2362810.76245  21762231.1334                   21762225.4184
        44.7504         32.0004
   3519311.67646   2782954.06345  23815132.0394                   23815132.9104
        41.5004         35.5004
   1442333.06646   1397486.08645  23007204.6094                   23007204.1214
        40.5004         34.2504
 25  8  7  2 37  0.0000000  0  9G27G03G04G21G07G09G16G30G08
  -4119869.73447  -3169596.87946  22911738.6334                   22911737.8284
        42.7504         37.5004
  19419701.95346  15139956.07445  23838017.5704                   23838019.5394
        40.0004         30.0004
   -204514.91847   -139549.58646  20553095.2974                   20553091.5944
        47.0004         37.5004
  13390112.45346  10473659.29743  24276057.1094                   24276055.3954
        39.7504         23.7504
 -13240593.44948 -10232608.44547  21785248.9304                   21785244.1054
        48.0004         45.2504
 -13741439.97348 -10682008.70748  19932777.3444                   19932773.6484
        48.7504         52.7504
   2994771.16447   2354011.48045  21760081.8054                   21760076.7624
        44.5004         32.0004
   3355982.93846   2655684.96945  23784051.7194                   23784051.6604
        41.0004         35.5004
   1266414.68446   1260406.94545  22973725.9144                   22973727.0984
        39.2504         34.7504
 25  8  7  2 37 30.0000000  0  9G27G03G04G21G07G09G16G30G08
  -2683570.82847  -2050402.87146  23185057.7974                   23185056.3754
        42.2504         37.5004
  21016662.73446  16384340.89845  24141909.0314                   24141911.8204
        39.0004         30.2504
   1318150.79747   1046943.16046  20842849.0864                   20842845.3284
        46.5004         36.7504
  14789730.50446  11564270.83643  24542396.2034                   24542393.6954
        40.2504         23.2504
 -11794125.53947  -9105490.55547  22060502.7114                   22060497.7304
        47.7504         45.2504
 -12286601.61748  -9548368.41448  20209623.6254                   20209620.4384
        49.2504         52.7504
   4559338.93847   3573155.17245  22057809.8594                   22057804.0004
        44.7504         31.5004
   4768188.17246   3756104.69545  24052785.5394                   24052784.7934
        41.0004         35.0004
   2666141.17646   2351103.02045  23240085.8444                   23240086.4414
        40.2504         35.7504
 25  8  7  2 38  0.0000000  0  9G27G03G04G21G07G09G16G30G08
  -2822215.30147  -2158437.44946  23158674.2194                   23158672.9804
        43.2504         38.0004
  21038237.92646  16401152.51244  24146014.6334                   24146016.2384
        39.0004         28.5004
   1265795.19147   1006146.57846  20832886.1254                   20832882.6024
        46.7504         37.2504
  14614282.21146  11427557.91444  24509009.5554                   24509006.4774
        41.2504         24.0004
 -11922928.06248  -9205856.11747  22035992.0234                   22035987.5474
        48.0004         45.2504
 -12406779.43748  -9642013.46548  20186754.3524                   20186751.1644
        49.0004         52.7504
   4548924.85547   3565040.30545  22055827.3754                   22055822.1644
        45.7504         31.5004
   4605078.35246   3629006.21945  24021747.0084                   24021747.8054
        39.7504         35.5004
   2490665.88746   2214369.19146  23206694.5634                   23206694.6844
        41.5004         36.5004
 25  8  7  2 38 30.0000000  0  9G27G03G04G21G07G09G16G30G08
  -2960377.23847  -2266096.04346  23132382.7734                   23132381.1684
        44.0004         38.5004
  21059842.68046  16417987.18045  24150126.2974                   24150129.1954
        39.0004         31.7504
   1213838.83647    965661.07846  20822999.3054                   20822995.5394
        47.0004         37.2504
  14439194.54346  11291126.02043  24475691.3834                   24475688.2304
        41.2504         23.0004
 -12051578.66448  -9306103.30147  22011510.5634                   22011506.0434
        48.0004         45.2504
 -12526549.10948  -9735340.47748  20163962.7974                   20163959.6454
        49.5004         52.7504
   4538944.96547   3557263.77045  22053927.2344                   22053923.3444
        43.5004         31.5004
   4442077.44146   3501992.57045  23990727.9384                   23990728.6604
        40.0004         35.2504
   2315416.68446   2077811.51646  23173344.9844                   23173345.3484
        41.2504         36.5004
 25  8  7  2 39  0.0000000  0  9G27G03G04G21G07G09G16G30G08
  -3098056.62547  -2373378.59846  23106182.6884                   23106182.1174
        42.5004         38.2504
  21081471.71546  16434840.71145  24154242.1094                   24154245.3594
        38.5004         30.0004
   1162279.35947    925484.84846  20813187.8594                   20813184.0354
        47.0004         38.2504
  14264467.21546  11154974.90244  24442441.9144                   24442438.8834
        41.5004         24.2504
 -12180080.33647  -9406234.44147  21987057.5394                   21987053.2154
        47.7504         45.0004
 -12645911.46948  -9828350.10248  20141249.0554                   20141245.7034
        49.2504         52.7504
   4529393.93047   3549821.35945  22052110.7194                   22052105.7544
        45.7504         33.0004
   4279182.80546   3375061.77345  23959732.0944                   23959730.4734
        40.7504         35.5004
   2140394.41846   1941430.64846  23140039.2274                   23140040.2344
        41.2504         38.0004
 25  8  7  2 39 30.0000000  0  9G27G03G04G21G07G09G16G30G08
  -3235246.04347  -2480279.38346  23080076.6094                   23080075.2194
        42.2504         37.5004
  21103127.02046  16451714.78945  24158363.1094                   24158366.0394
        41.0004         34.0004
   1111121.65247    885621.68846  20803452.7274                   20803448.8984
        47.2504         37.5004
  14090107.55946  11019110.26243  24409262.6414                   24409259.3524
        41.7504         22.5004
 -12308428.61747  -9506246.04747  21962634.1484                   21962629.1684
        47.7504         45.2504
 -12764860.12948  -9921037.36748  20118614.2344                   20118610.6254
        48.7504         52.7504
   4520273.38747   3542714.43445  22050375.3284                   22050369.5314
        45.2504         31.2504
   4116399.20746   3248217.45345  23928754.0084                   23928754.2974
        39.5004         35.5004
   1965607.12947   1805232.89146  23106778.7734                   23106779.1564
        43.5004         39.0004
 25  8  7  2 40  0.0000000  0  9G27G03G04G21G07G09G16G30G08
  -3371945.54747  -2586798.40246  23054063.7194                   23054061.9224
        43.5004         38.0004
  21124803.28146  16468605.13745  24162488.0784                   24162491.5664
        40.0004         32.7504
   1060363.33247    846069.72746  20793793.7734                   20793790.0664
        47.2504         37.7504
  13916115.41846  10883532.05543  24376152.3674                   24376149.7664
        39.7504         22.5004
 -12436626.53548  -9606140.48847  21938238.7504                   21938233.7114
        48.0004         45.2504
 -12883395.95748 -10013402.95348  20096057.4384                   20096054.0744
        49.2504         52.7504
   4511577.76647   3535938.59845  22048720.7894                   22048715.6414
        45.2504         31.5004
   3953723.98046   3121457.60546  23897797.9144                   23897797.4964
        39.0004         36.0004
   1791055.57047   1669218.83646  23073562.5084                   23073562.8404
        43.0004         38.7504
 25  8  7  2 40 30.0000000  0  9G27G03G04G21G07G09G16G30G08
  -3508151.43047  -2692932.77046  23028144.6644                   23028143.2114
        43.5004         37.5004
  21146498.87146  16485510.59045  24166616.8914                   24166620.5124
        40.5004         34.7504
   1010005.62547    806829.94146  20784210.9144                   20784207.5204
        47.5004         37.0004
  13742494.44146  10748243.03543  24343113.7114                   24343110.5864
        39.2504         22.0004
 -12564673.36748  -9705917.20747  21913872.2274                   21913867.1994
        48.7504         45.2504
 -13001516.22748 -10105444.72348  20073579.8204                   20073576.6174
        49.7504         52.7504
   4503305.60247   3529492.75045  22047146.6334                   22047140.7504
        45.7504         31.2504
   3791158.18846   2994783.03145  23866862.7114                   23866863.2384
        40.2504         35.7504
   1616744.21947   1533391.93446  23040392.1094                   23040393.0204
        42.2504         38.0004
 25  8  7  2 41  0.0000000  0  9G27G03G04G21G07G09G16G30G08
  -3643861.95747  -2798681.17646  23002319.4774                   23002318.3134
        43.5004         37.2504
  21168210.19946  16502428.25045  24170747.5944                   24170752.4414
        40.2504         34.2504
    960047.84447    767901.78146  20774704.5554                   20774700.9534
        47.5004         37.5004
  13569246.23046  10613244.44143  24310145.9454                   24310142.4694
        38.7504         21.2504
 -12692570.38348  -9805577.18047  21889533.9844                   21889529.8204
        48.0004         45.5004
 -13119220.04748 -10197161.98048  20051180.9534                   20051178.0044
        49.5004         52.7504
   4495452.92247   3523373.75845  22045652.1094                   22045646.6844
        46.5004         31.5004
   3628700.96146   2868193.05945  23835948.4064                   23835948.2194
        39.2504         35.5004
   1442675.57047   1397754.14846  23007267.6804                   23007267.0124
        42.7504         37.5004
 25  8  7  2 41 30.0000000  0  9G27G03G04G21G07G09G16G30G08
  -3779074.53147  -2904041.54346  22976589.5084                   22976588.0944
        43.2504         37.0004
  21189934.75846  16519356.28945  24174882.9924                   24174886.5314
        38.5004         33.7504
    910490.20747    729285.42646  20765273.7114                   20765270.1294
        47.5004         37.5004
  13396373.26646  10478538.26243  24277248.3134                   24277246.0904
        36.5004         21.2504
 -12820317.56648  -9905120.40247  21865224.5004                   21865219.5004
        48.2504         45.2504
 -13236505.66048 -10288553.36348  20028862.6174                   20028859.0474
        49.2504         52.7504
   4488016.77047   3517579.35245  22044237.4304                   22044231.9064
        46.2504         32.0004
   3466352.27046   2741687.66446  23805054.2034                   23805053.4224
        41.5004         36.0004
   1268853.08247   1262308.17246  22974190.8444                   22974191.5984
        42.7504         38.7504
 25  8  7  2 42  0.0000000  0  9G27G03G04G21G07G09G16G30G08
  -3913788.07847  -3009013.08646  22950954.3674                   22950953.1334
        43.5004         38.2504
  21211668.22746  16536291.20345  24179019.2424                   24179022.5164
        39.2504         34.0004
    861331.35247    690979.80546  20755919.6094                   20755916.0514
        47.5004         37.2504
  13223876.62146  10344125.37143  24244424.2664                   24244420.1844
        37.7504         19.2504
 -12947917.15248 -10004548.61347  21840943.0944                   21840938.1994
        48.0004         45.2504
 -13353372.95748 -10379618.78548  20006623.6094                   20006620.4614
        49.5004         52.7504
   4480992.63347   3512105.98845  22042900.6724                   22042895.3914
        45.7504         31.0004
   3304110.65647   2615265.69945  23774180.9454                   23774179.9184
        42.0004         35.5004
   1095278.59047   1127055.44946  22941159.8914                   22941159.6844
        42.0004         38.0004
 25  8  7  2 42 30.0000000  0  9G27G03G04G21G07G09G16G30G08
  -4048000.43447  -3113594.07046  22925414.6174                   22925413.3404
        42.2504         37.5004
  21233407.62146  16553230.75445  24183155.6174                   24183159.3054
        38.7504         32.5004
    812571.08247    652984.77046  20746640.7274                   20746637.3594
        47.7504         37.7504
  13051758.31646  10210007.22343  24211670.3204                   24211667.1174
        38.5004         20.0004
 -13075369.72747 -10103862.27047  21816689.7504                   21816684.9884
        47.7504         45.5004
 -13469820.51648 -10470357.14548  19984464.5004                   19984461.1564
        49.2504         52.7504
   4474377.24247   3506951.14145  22041641.5784                   22041636.1644
        45.7504         30.5004
   3141975.81646   2488926.94146  23743327.4064                   23743326.9654
        41.7504         36.0004
    921955.19547    991998.36746  22908177.2424                   22908177.8094
        42.0004         38.5004
 25  8  7  2 43  0.0000000  0  9G27G03G04G21G07G09G16G30G08
  -4181708.34047  -3217781.96546  22899970.4694                   22899969.0554
        43.2504         37.5004
  21255151.09846  16570173.51644  24187292.8204                   24187297.4694
        36.7504         29.5004
    764210.29748    615301.02746  20737437.9694                   20737434.6914
        48.0004         37.7504
  12880021.62946  10076186.52743  24178990.2034                   24178987.1914
        39.2504         19.2504
 -13202675.05548 -10203061.19147  21792464.3594                   21792459.7114
        48.2504         45.7504
 -13585845.95348 -10560766.56648  19962385.6334                   19962382.3444
        49.7504         52.7504
   4468168.63347   3502113.25445  22040460.2504                   22040454.5394
        45.0004         30.2504
   2979948.42246   2362671.90645  23712493.4454                   23712494.8914
        40.7504         35.7504
    748886.94947    857140.11746  22875243.6334                   22875243.8484
        42.7504         38.2504
 25  8  7  2 43 30.0000000  0  9G27G03G04G21G07G09G16G30G08
  -4314908.46147  -3321574.19146  22874623.3134                   22874622.4224
        42.0004         37.0004
  21276896.69545  16587117.89844  24191431.1094                   24191435.3204
        35.0004         28.5004
    716249.88747    577929.27346  20728311.3594                   20728307.5634
        46.7504         37.5004
  12708669.84045   9942665.62143  24146381.7344                   24146379.6954
        35.5004         19.2504
 -13329832.35247 -10302144.76247  21768266.8284                   21768261.9654
        47.7504         45.5004
 -13701446.78148 -10650845.12948  19940387.3594                   19940383.9574
        49.2504         52.7504
   4462364.60947   3497590.62545  22039355.0704                   22039350.7344
        44.5004         30.7504
   2818029.25846   2236501.21145  23681682.4924                   23681682.0594
        40.2504         35.5004
    576078.05146    722483.95746  22842359.5784                   22842359.1764
        41.5004         37.5004
 25  8  7  2 44  0.0000000  0  9G27G03G04G21G07G09G16G30G08
  -4447598.53947  -3424968.98846  22849372.5944                   22849371.9534
        42.5004         36.7504
  21298641.69945  16604061.79744  24195568.4384                   24195573.3954
        33.0004         26.2504
    668689.80947    540869.45746  20719260.8524                   20719257.2424
        47.5004         36.7504
  12537705.20746   9809446.49643  24113848.5394                   24113846.0124
        38.5004         21.5004
 -13456842.39847 -10401113.59047  21744097.8054                   21744092.9144
        47.5004         45.5004
 -13816621.52348 -10740591.66048  19918470.3914                   19918467.0084
        49.7504         52.5004
   4456961.89847   3493380.70345  22038327.8134                   22038322.3134
        44.2504         30.5004
   2656218.14847   2110414.69545  23650891.1254                   23650889.8164
        42.2504         35.7504
    403531.75847    588032.41846  22809525.3204                   22809524.6484
        43.0004         37.7504
 25  8  7  2 44 30.0000000  0  9G27G03G04G21G07G09G16G30G08
  -4579775.91847  -3527964.27746  22824220.3594                   22824219.2464
        42.5004         37.0004
  21320383.54745  16621003.24243  24199706.4774                   24199711.1954
        31.2504         22.5004
    621530.32047    504121.79346  20710286.7424                   20710283.1054
        47.2504         36.7504
  12367130.36346   9676531.09843  24081390.8914                   24081386.6644
        40.0004         22.2504
 -13583705.41847 -10499967.85947  21719956.5004                   21719951.5204
        47.5004         45.5004
 -13931368.37148 -10830004.77048  19896634.4774                   19896631.3054
        49.7504         52.5004
   4451957.77047   3489481.37945  22037375.7114                   22037370.2154
        44.0004         30.2504
   2494515.18046   1984412.48445  23620118.6414                   23620118.9734
        40.5004         34.7504
    231251.53147    453788.20746  22776740.7194                   22776739.9774
        42.2504         36.7504
 25  8  7  2 45  0.0000000  0  9G27G03G04G21G07G09G16G30G08
  -4711439.52747  -3630559.22746  22799166.4224                   22799164.4414
        42.5004         37.0004
                                  24203843.2114                   24203847.1994
        33.0004         25.5004
    574770.09047    467685.24246  20701388.5394                   20701384.9494
        47.5004         36.7504
  12196946.30146   9543920.19543  24049005.1644                   24049001.6024
        40.0004         21.2504
 -13710422.95748 -10598708.76247  21695842.8444                   21695838.0634
        48.0004         45.7504
 -14045687.02048 -10919084.22748  19874880.3914                   19874877.3094
        49.5004         52.7504
   4447348.07847   3485889.39545  22036497.9454                   22036493.0984
        44.2504         30.7504
   2332919.08646   1858493.52045  23589368.8834                   23589367.8954
        41.0004         34.0004
     59239.41046    319752.89846  22744007.6564                   22744007.6214
        39.7504         36.0004
 25  8  7  2 45 30.0000000  0  9G27G03G04G21G07G09G16G30G08
  -4842583.72347  -3732749.43046  22774210.1724                   22774208.4534
        43.2504         36.7504
  21363846.41845  16654869.90244  24207978.6954                   24207982.3594
        35.0004         27.5004
    528412.46947    431562.41046  20692566.8054                   20692563.4574
        47.7504         37.2504
  12027158.73446   9411618.25843  24016695.1884                   24016692.0664
        38.0004         21.7504
 -13836991.90647 -10697333.87947  21671757.7974                   21671752.6604
        47.2504         45.7504
 -14159572.61348 -11007826.21948  19853208.7504                   19853205.6254
        49.2504         52.7504
   4443133.18847   3482605.04345  22035696.1414                   22035690.8164
        44.0004         30.7504
   2171432.94546   1732660.25445  23558639.2034                   23558637.7854
        41.7504         34.0004
   -112497.99246    185931.68845  22711326.7974                   22711326.6564
        40.2504         35.2504
 25  8  7  2 46  0.0000000  0  9G27G03G04G21G07G09G16G30G08
  -3397784.16446  -2606931.52746  23049145.4924                   23049144.4614
        41.5004         37.0004
  22960982.15645  17899391.05944  24511903.1024                   24511907.8714
        34.5004         28.0004
   2057876.57847   1623352.62146  20983614.4534                   20983611.0704
        47.5004         36.5004
  13433193.28946  10507229.67643  24284254.7194                   24284251.8914
        37.5004         22.5004
 -12387991.43047  -9568242.56647  21947493.1334                   21947488.3054
        47.5004         45.7504
 -12697602.21148  -9868628.48448  20131412.5084                   20131409.3754
        49.7504         52.7504
   6014727.69547   4707224.12944  22334760.7504                   22334755.6684
        44.0004         29.7504
   3585479.82446   2834515.02045  23827722.5474                   23827722.0354
        40.0004         34.7504
   1291465.94946   1279929.68446  22978492.3834                   22978492.5634
        40.7504         36.0004
 25  8  7  2 46 30.0000000  0  9G27G03G04G21G07G09G16G30G08
  -3527888.19147  -2708311.21946  23024388.4224                   23024386.2974
        43.0004         36.7504
  22982683.37146  17916300.83645  24516033.5864                   24516037.1174
        37.5004         30.5004
   2012318.42247   1587852.75846  20974944.6484                   20974941.4184
        47.2504         37.0004
  13264200.02746  10375546.70343  24252097.9224                   24252093.2814
        41.5004         22.7504
 -12514270.68447  -9666641.95747  21923462.7034                   21923458.1414
        47.0004         46.0004
 -12810622.74248  -9956696.39548  20109905.4144                   20109902.3244
        50.0004         52.7504
   6011287.28947   4704543.28945  22334105.8444                   22334100.5434
        44.2504         30.5004
   3424207.85246   2708848.66045  23797033.7664                   23797032.8754
        41.0004         35.0004
   1120282.18046   1146539.85945  22945917.2894                   22945916.7664
        41.5004         35.0004
 25  8  7  2 47  0.0000000  0  9G27G03G04G21G07G09G16G30G08
  -3657465.11346  -2809280.19546  22999730.8524                   22999728.5204
        41.0004         36.7504
  23004370.66846  17933199.80945  24520161.1884                   24520164.5784
        38.0004         30.5004
   1967163.49647   1552667.09046  20966352.0084                   20966348.5354
        47.5004         36.5004
  13095610.93846  10244178.64144  24220015.1954                   24220011.8984
        40.0004         24.0004
 -12640402.05147  -9764926.10547  21899460.9304                   21899456.2854
        47.0004         45.7504
 -12923204.80148 -10044422.65248  20088481.7734                   20088478.3554
        49.7504         52.7504
   6008233.14547   4702163.39845  22333524.4924                   22333519.8954
        44.5004         30.2504
   3263046.35246   2583268.35245  23766365.7894                   23766365.2774
        40.7504         34.5004
    949383.71546   1013372.36745  22913396.1724                   22913396.3444
        40.5004         35.5004
 25  8  7  2 47 30.0000000  0  9G27G03G04G21G07G09G16G30G08
  -3786514.52747  -2909838.10946  22975172.7504                   22975171.5824
        43.5004         37.5004
  23026039.49646  17950084.41845  24524285.1724                   24524288.0124
        38.0004         30.5004
   1922409.93847   1517794.18446  20957836.0634                   20957832.5394
        47.5004         36.0004
  12927426.56646  10113125.94544  24188010.4454                   24188007.1994
        38.2504         24.5004
 -12766387.75447  -9863096.75847  21875486.6254                   21875481.7424
        47.5004         46.0004
 -13035348.77348 -10131807.53948  20067141.1254                   20067138.1484
        50.5004         52.7504
   6005560.48447   4700080.81644  22333015.0784                   22333010.9884
        42.7504         29.7504
   3101993.44946   2457772.64845  23735717.7034                   23735717.3714
        40.0004         35.0004
    778772.06647    880428.32846  22880930.0634                   22880929.8674
        42.7504         36.5004
 25  8  7  2 48  0.0000000  0  9G27G03G04G21G07G09G16G30G08
  -3915035.71947  -3009984.43446  22950716.8674                   22950714.2814
        44.5004         37.7504
  23047685.69146  17966951.34845  24528403.1884                   24528407.8134
        38.2504         31.7504
   1878056.11747   1483232.76246  20949395.1174                   20949392.2304
        47.7504         36.7504
  12759647.70346   9982389.20744  24156082.7584                   24156080.3014
        38.7504         25.2504
 -12892229.80947  -9961155.47347  21851540.0004                   21851534.6844
        47.2504         45.7504
 -13147054.67648 -10218851.07048  20045884.4534                   20045881.0664
        50.0004         53.0004
   6003264.83647   4698291.95745  22332579.6644                   22332574.2384
        44.2504         30.0004
   2941047.41846   2332360.24246  23705091.8674                   23705090.8794
        41.7504         36.0004
    608448.95746    747709.12146  22848519.0634                   22848517.6484
        41.5004         36.0004
 25  8  7  2 48 30.0000000  0  9G27G03G04G21G07G09G16G30G08
  -4043026.48047  -3109717.42646  22926360.3674                   22926358.3404
        43.2504         38.0004
  23069306.42246  17983798.42244  24532517.5864                   24532522.0864
        36.7504         29.0004
   1834101.89147   1448982.70346  20941031.2424                   20941027.8914
        46.2504         36.5004
  12592276.52346   9851970.16043  24124233.3834                   24124230.1994
        40.5004         23.7504
 -13017928.73847 -10059102.66847  21827620.2194                   21827615.4384
        47.7504         46.0004
 -13258321.02048 -10305552.09848  20024711.3284                   20024707.7934
        50.2504         52.7504
   6001342.97347   4696794.36345  22332213.6484                   22332208.3054
        43.7504         30.2504
   2780208.20746   2207031.07846  23674483.7344                   23674483.5274
        41.0004         36.0004
    438417.53947    615217.23446  22816162.4224                   22816162.1914
        42.0004         36.2504
 25  8  7  2 49  0.0000000  0  9G27G03G04G21G07G09G16G30G08
  -4170485.15746  -3209035.81246  22902106.2814                   22902103.7274
        41.7504         38.5004
  23090898.57445  18000623.23444  24536626.6334                   24536631.4184
        35.7504         24.5004
   1790546.67647   1415043.56346  20932743.4384                   20932739.5314
        47.0004         36.2504
  12425314.76646   9721870.14844  24092462.2034                   24092458.3134
        41.2504         25.7504
 -13143485.32447 -10156938.95347  21803727.3674                   21803722.4264
        46.2504         46.0004
 -13369146.85248 -10391909.86348  20003621.8134                   20003618.6684
        50.0004         53.0004
   5999791.19947   4695585.17245  22331918.3054                   22331913.0004
        43.5004         30.0004
   2619475.16047   2081784.60246  23643898.1954                   23643897.3134
        42.5004         36.5004
    268680.58247    482954.78546  22783862.0554                   22783862.2584
        42.5004         36.0004
 25  8  7  2 49 30.0000000  0  9G27G03G04G21G07G09G16G30G08
  -4297408.35247  -3307936.95346  22877952.4144                   22877951.0354
        42.0004         37.7504
  23112460.77046  18017424.75044  24540730.2584                   24540733.9804
        37.0004         27.5004
   1747391.56647   1381416.18845  20924530.6954                   20924527.6024
        46.7504         35.7504
  12258765.94946   9592091.90244  24060769.6094                   24060765.5704
        41.7504         26.2504
 -13268898.65647 -10254663.59847  21779862.0704                   21779857.1414
        47.0004         45.7504
 -13479529.43748 -10477922.25448  19982616.6254                   19982613.5554
        50.2504         53.0004
   5998607.91847   4694663.09045  22331693.4454                   22331688.1174
        44.2504         30.7504
   2458849.46146   1956621.80546  23613331.6094                   23613331.4384
        41.7504         37.0004
     99242.62547    350925.30946  22751619.8284                   22751618.4734
        44.5004         36.5004
 25  8  7  2 50  0.0000000  0  9G27G03G04G21G07G09G16G30G08
  -4423790.69547  -3406416.62546  22853904.1724                   22853902.0164
        42.5004         38.5004
  23133993.44145  18034203.23044  24544827.5634                   24544832.1914
        35.7504         27.5004
   1704639.65247   1348102.98846  20916395.7504                   20916391.9614
        47.2504         36.7504
  12092635.50846   9462639.60244  24029154.5234                   24029151.4734
        38.2504         24.2504
 -13394165.73047 -10352274.28147  21756024.5234                   21756019.4064
        47.7504         46.0004
 -13589464.14148 -10563585.64848  19961696.7734                   19961693.7624
        50.0004         53.0004
   5997792.96947   4694028.05545  22331538.5004                   22331532.7504
        44.5004         30.0004
   2298334.18047   1831545.03546  23582786.7814                   23582786.1294
        43.0004         37.2504
    -69889.86747    219133.87946  22719434.5634                   22719434.3204
        43.7504         37.5004
 25  8  7  2 50 30.0000000  0  9G27G03G04G21G07G09G16G30G08
  -4549631.69946  -3504474.49246  22829956.5554                   22829954.4384
        41.2504         38.0004
  23155492.28145  18050955.30944  24548918.5864                   24548923.4924
        35.7504         26.7504
   1662289.12547   1315102.56346  20908336.6334                   20908333.2194
        47.0004         36.5004
  11926924.18047   9333513.93444  23997621.4774                   23997618.8714
        42.0004         25.5004
 -13519288.66447 -10449772.65247  21732214.1414                   21732209.1724
        47.7504         46.0004
 -13698951.10548 -10648900.15248  19940862.1884                   19940858.8954
        50.2504         53.0004
   5997342.04347   4693676.63745  22331452.9384                   22331447.4534
        44.5004         30.0004
   2137927.53947   1706552.96146  23552262.4454                   23552261.7704
        42.7504         37.7504
   -238715.34447     87581.67246  22687308.4144                   22687307.7774
        45.0004         38.2504
 25  8  7  2 51  0.0000000  0  9G27G03G04G21G07G09G16G30G08
  -4674927.89846  -3602107.82446  22806113.9304                   22806111.8204
        41.5004         38.5004
  23176956.06646  18067680.11344  24553003.7114                   24553007.8204
        37.2504         28.2504
   1620341.22347   1282415.85946  20900354.4924                   20900350.6484
        46.5004         36.0004
  11761635.39546   9204717.49244  23966167.7274                   23966164.3754
        41.2504         25.7504
 -13644266.90647 -10547158.27047  21708431.8674                   21708426.8594
        46.5004         46.0004
 -13807987.52048 -10733863.58648  19920113.0784                   19920109.8754
        50.7504         53.0004
   5997253.31647   4693607.50844  22331435.4844                   22331430.4654
        43.5004         29.5004
   1977630.86347   1581646.50846  23521758.3054                   23521758.1414
        42.5004         37.2504
   -407229.18447    -43727.68046  22655240.5474                   22655239.8874
        43.0004         37.0004
 25  8  7  2 51 30.0000000  0  9G27G03G04G21G07G09G16G30G08
  -4799682.03546  -3699318.78546  22782373.2424                   22782371.3674
        41.5004         38.7504
  23198377.11346  18084371.67245  24557080.2344                   24557084.1484
        39.2504         30.2504
   1578790.87947   1250038.95746  20892447.1724                   20892443.8284
        46.7504         36.2504
  11596766.55146   9076248.27344  23934795.2504                   23934791.0234
        41.5004         26.7504
 -13769105.55147 -10644435.10547  21684676.0394                   21684670.7854
        47.2504         46.0004
 -13916576.87148 -10818478.66048  19899449.5394                   19899445.8164
        50.5004         53.0004
   5997518.68447   4693814.24644  22331486.5084                   22331480.9224
        44.5004         29.7504
   1817439.10547   1456821.84846  23491275.7894                   23491274.4654
        43.2504         37.0004
   -575433.03547   -174795.45346  22623233.3914                   22623231.7424
        44.0004         38.0004
 25  8  7  2 52  0.0000000  0  9G27G03G04G21G07G09G16G30G08
  -4923888.19146  -3796102.73046  22758738.1644                   22758735.8634
        41.5004         38.0004
  23219756.74646  18101030.91845  24561148.4224                   24561153.2544
        38.2504         30.5004
   1537641.87947   1217974.77346  20884617.0164                   20884613.6094
        46.7504         36.0004
  11432323.80946   8948111.09443  23903501.6644                   23903498.6884
        39.2504         23.5004
 -13893800.90647 -10741600.30147  21660947.4144                   21660942.3134
        47.5004         46.0004
 -14024713.76648 -10902741.17248  19878871.7274                   19878868.1954
        50.2504         53.0004
   5998139.33647   4694297.84045  22331605.2034                   22331599.4304
        45.0004         30.2504
   1657356.06647   1332081.91046  23460812.9454                   23460811.5744
        43.5004         37.0004
   -743319.65647   -305616.10546  22591285.2584                   22591284.4694
        45.5004         38.5004
 25  8  7  2 52 30.0000000  0  9G27G03G04G21G07G09G16G30G08
  -5047544.35247  -3892458.12546  22735207.2424                   22735204.8834
        42.2504         38.2504
  23241092.39546  18117655.86745  24565209.5394                   24565213.9064
        37.5004         30.2504
   1496893.97347   1186223.12946  20876862.8054                   20876859.5704
        46.5004         36.5004
  11268309.28146   8820307.61744  23872291.5314                   23872287.9844
        40.7504         25.2504
 -14018353.37947 -10838654.15247  21637245.1564                   21637240.4654
        46.7504         45.7504
 -14132396.85948 -10986650.07848  19858379.9924                   19858376.9654
        50.0004         53.0004
   5999112.09047   4695055.80545  22331789.9924                   22331784.4454
        45.2504         30.0004
   1497381.64847   1207426.58646  23430370.6724                   23430369.4024
        43.0004         36.2504
   -910885.96547   -436187.14846  22559397.4924                   22559397.0204
        44.0004         38.5004
 25  8  7  2 53  0.0000000  0  9G27G03G04G21G07G09G16G30G08
  -5170649.87547  -3988384.44946  22711780.1334                   22711778.7774
        42.0004         38.2504
  23262380.02046  18134243.37545  24569259.7424                   24569264.6804
        38.2504         30.2504
   1456545.56647   1154782.78146  20869185.2894                   20869181.5594
        46.5004         36.0004
  11104723.89846   8692838.50444  23841161.9844                   23841158.2304
        40.0004         25.5004
 -14142764.63747 -10935597.96147  21613570.4534                   21613565.5904
        47.5004         46.0004
 -14239626.06248 -11070205.29748  19837974.8284                   19837971.5904
        50.0004         53.0004
   6000432.23447   4696084.44545  22332042.0394                   22332035.9654
        45.2504         31.0004
   1337514.43847   1082854.80946  23399949.0864                   23399948.0234
        43.5004         36.5004
  -1078130.07847   -566507.09446  22527572.1024                   22527571.3164
        44.0004         38.5004
 25  8  7  2 53 30.0000000  0  9G27G03G04G21G07G09G16G30G08
  -5293201.14547  -4083878.89846  22688460.3524                   22688457.7154
        42.7504         38.5004
  23283618.54346  18150792.65644  24573301.5944                   24573306.5984
        38.2504         28.7504
   1416598.01247   1123654.79346  20861582.9224                   20861579.9414
        47.0004         37.5004
  10941571.31246   8565706.60944  23810113.6484                   23810111.5124
        39.0004         25.0004
 -14267033.63347 -11032430.92247  21589922.9064                   21589918.0634
        47.5004         45.7504
 -14346398.44148 -11153404.55548  19817656.8444                   19817653.5514
        50.5004         53.0004
   6002098.76247   4697383.02044  22332359.1954                   22332352.4264
        45.2504         29.5004
   1177755.75847    958367.58646  23369547.3524                   23369546.6374
        42.5004         36.7504
  -1245047.16047   -696572.24646  22495808.7664                   22495807.9184
        43.5004         38.0004
 25  8  7  2 54  0.0000000  0  9G27G03G04G21G07G09G16G30G08
  -5415197.78147  -4178941.14546  22665245.0634                   22665242.7974
        44.0004         38.7504
  23304803.80146  18167300.47744  24577332.9614                   24577337.7504
        37.7504         26.7504
   1377049.55947   1092837.79346  20854057.4384                   20854054.1294
        47.0004         36.0004
  10778852.18846   8438912.55944  23779150.0634                   23779147.0234
        40.5004         24.0004
 -14391162.24247 -11129154.49247  21566302.0084                   21566297.1884
        47.2504         46.0004
 -14452714.16848 -11236247.98048  19797425.6334                   19797422.5634
        50.0004         53.0004
   6004106.92247   4698947.78944  22332740.8754                   22332734.8634
        45.0004         29.2504
   1018104.05947    833963.74645  23339166.2424                   23339165.5554
        42.0004         35.0004
  -1411635.54747   -826381.28146  22464108.0314                   22464107.3554
        43.5004         38.2504
 25  8  7  2 54 30.0000000  0  9G27G03G04G21G07G09G16G30G08
  -3961212.75447  -3045965.77046  22941928.4924                   22941926.9414
        43.0004         38.7504
  24901353.27046  19411364.82844  24881146.6254                   24881151.8094
        36.7504         26.0004
   2913322.21547   2289933.34446  21146400.6024                   21146397.1334
        46.7504         36.0004
  12191995.04746   9540062.87144  24048062.1954                   24048058.9104
        41.0004         27.0004
 -12939725.89547  -9998165.10247  21842500.9224                   21842496.5044
        47.7504         46.0004
 -12983147.33248 -10091130.96548  20077074.8754                   20077071.6994
        50.0004         53.0004
   7581874.37947   5928376.96544  22632979.3674                   22632973.9304
        43.2504         29.5004
   2433985.47347   1937248.04346  23608599.5084                   23608598.8054
        42.0004         36.0004
     -2465.62147    271673.35546  22732264.6564                   22732263.5514
        43.5004         38.0004
 25  8  7  2 55  0.0000000  0  9G27G03G04G21G07G09G16G30G08
  -4082090.90247  -3140156.48046  22918926.8204                   22918924.1804
        42.0004         38.2504
  24922427.42245  19427786.00844  24885157.2734                   24885162.7624
        35.2504         27.0004
   2874574.52347   2259740.31346  21139027.1024                   21139023.8984
        46.5004         36.5004
  12030152.60246   9413951.90244  24017264.1884                   24017261.8054
        39.0004         25.7504
 -13063571.57047 -10094668.20747  21818934.1724                   21818929.3484
        47.0004         45.7504
 -13088542.28548 -10173256.90248  20057018.7894                   20057015.6294
        50.0004         53.0004
   7584559.67647   5930469.42644  22633490.0394                   22633484.2704
        42.5004         29.2504
   2274550.77346   1813013.27046  23578260.1484                   23578259.7194
        41.5004         37.0004
   -168383.75047    142386.60246  22700690.4454                   22700690.5004
        43.2504         38.2504
 25  8  7  2 55 30.0000000  0  9G27G03G04G21G07G09G16G30G08
  -4202407.77347  -3233909.82046  22896030.0554                   22896028.9224
        42.0004         37.7504
  24943441.39545  19444160.26244  24889156.4534                   24889161.3794
        33.5004         28.0004
   2836226.05147   2229858.35546  21131729.5784                   21131726.3164
        46.5004         36.7504
  11868750.91446   9288184.42644  23986551.4534                   23986548.3954
        40.5004         26.7504
 -13187277.10947 -10191062.12147  21795393.5394                   21795388.6254
        47.5004         46.0004
 -13193475.57448 -10255023.10548  20037050.8444                   20037047.5554
        50.5004         53.0004
   7587578.28547   5932821.56344  22634063.6024                   22634059.9654
        42.7504         29.0004
   2115223.58646   1688862.28546  23547941.4694                   23547940.8244
        41.5004         37.5004
   -333962.73847     13364.12146  22669182.4064                   22669181.4574
        43.0004         38.0004
 25  8  7  2 56  0.0000000  0  9G27G03G04G21G07G09G16G30G08
  -4322159.78947  -3327223.03946  22873242.3674                   22873240.4884
        42.7504         38.2504
  24964394.09045  19460486.73444  24893143.2034                   24893149.0084
        32.2504         27.0004
   2798278.04747   2200288.46946  21124508.3984                   21124505.0434
        47.0004         37.0004
  11707793.69946   9162763.25044  23955921.7114                   23955918.4414
        39.0004         25.5004
 -13310841.05948 -10287345.71147  21771880.2504                   21771875.4694
        48.0004         46.0004
 -13297944.27048 -10336427.28548  20017171.0944                   20017167.6724
        50.0004         53.0004
   7590928.60947   5935432.20344  22634701.2344                   22634696.9024
        43.5004         29.2504
   1956005.40247   1564796.21546  23517642.4844                   23517642.3484
        42.2504         38.0004
   -499197.81647   -115390.37146  22637738.6644                   22637738.0474
        43.0004         38.0004
 25  8  7  2 56 30.0000000  0  9G27G03G04G21G07G09G16G30G08
  -4441344.12947  -3420093.91446  22850562.0864                   22850560.8404
        43.2504         38.7504
  24985284.03145  19476764.32045  24897119.0944                   24897124.0314
        34.5004         30.5004
   2760731.33247   2171031.27046  21117363.3524                   21117360.0634
        46.0004         36.2504
  11547284.10246   9037690.89843  23925377.6174                   23925375.1134
        39.0004         23.7504
 -13434262.99248 -10383518.62547  21748393.9844                   21748389.3244
        48.0004         46.0004
 -13401946.07048 -10417467.65648  19997380.3754                   19997376.8954
        50.0004         53.0004
   7594608.98447   5938299.98444  22635401.6024                   22635398.0944
        43.7504         28.5004
   1796897.22746   1440815.85246  23487365.5164                   23487365.3364
        41.5004         38.2504
   -664084.76246   -243873.61746  22606361.2504                   22606361.2624
        41.7504         37.7504
 25  8  7  2 57  0.0000000  0  9G27G03G04G21G07G09G16G30G08
  -4559960.63347  -3512522.32046  22827990.3984                   22827988.6054
        42.0004         38.2504
  25006106.84446  19492989.62545  24901080.8984                   24901086.8634
        36.2504         30.7504
   2723583.88747   2142085.18846  21110294.2814                   21110291.0784
        46.0004         36.5004
  11387222.50446   8912967.60944  23894919.4224                   23894915.5824
        40.2504         24.5004
 -13557544.81248 -10479582.35547  21724934.1484                   21724929.6524
        48.0004         46.2504
 -13505481.29348 -10498144.45348  19977678.1254                   19977674.8524
        50.0004         53.0004
   7598614.16447   5941420.84044  22636165.1644                   22636159.4024
        44.7504         28.0004
   1637897.18847   1316919.79346  23457108.3444                   23457108.4694
        42.0004         37.7504
   -828622.08647   -372084.37946  22575051.7034                   22575050.7544
        43.0004         38.0004
 25  8  7  2 57 30.0000000  0  9G27G03G04G21G07G09G16G30G08
  -4678006.09847  -3604505.73446  22805526.9224                   22805524.8794
        43.5004         38.0004
  25026861.46546  19509161.80545  24905031.5004                   24905036.4264
        36.7504         30.2504
   2686836.75447   2113451.03546  21103301.6644                   21103298.4384
        46.5004         36.7504
  11227612.41446   8788596.19143  23864546.5234                   23864542.5554
        39.5004         23.5004
 -13680685.39548 -10575536.02347  21701501.3984                   21701496.2234
        48.0004         46.2504
 -13608547.23848 -10578455.57848  19958065.6254                   19958061.8714
        49.5004         53.0004
   7602942.82047   5944793.77744  22636989.9384                   22636982.7704
        44.0004         27.7504
   1479006.67247   1193109.05946  23426873.1414                   23426872.1134
        42.0004         38.2504
   -992805.18046   -500019.18046  22543807.5864                   22543807.4064
        41.2504         38.0004
 25  8  7  2 58  0.0000000  0  9G27G03G04G21G07G09G16G30G08
  -4795479.44947  -3696043.37146  22783172.6094                   22783170.4454
        43.2504         38.0004
  25047544.53946  19525278.24645  24908967.8134                   24908973.0004
        36.0004         30.7504
   2650488.90247   2085128.02746  21096385.4064                   21096381.6484
        46.0004         37.0004
  11068455.16846   8664577.57843  23834258.8754                   23834256.5084
        37.7504         22.5004
 -13803685.80147 -10671380.46547  21678094.8984                   21678090.0274
        46.7504         46.0004
 -13711143.33648 -10658400.59448  19938541.8754                   19938538.6024
        50.0004         53.0004
   7607591.18847   5948415.89544  22637872.4534                   22637867.6804
        42.7504         27.5004
   1320224.82046   1069382.99646  23396657.1024                   23396657.0784
        41.5004         38.7504
  -1156631.60946   -627676.07846  22512632.6724                   22512632.0824
        41.5004         37.7504
 25  8  7  2 58 30.0000000  0  9G27G03G04G21G07G09G16G30G08
  -4912377.61747  -3787132.80546  22760927.5164                   22760925.5234
        42.7504         37.5004
  25068154.83245  19541337.94544  24912889.8984                   24912895.3594
        35.5004         29.0004
   2614541.30947   2057116.89146  21089544.2734                   21089541.0554
        46.2504         36.2504
  10909754.08246   8540914.48044  23804060.0084                   23804056.9064
        40.0004         24.5004
 -13926545.19947 -10767115.03547  21654716.0784                   21654710.5984
        47.5004         46.2504
 -13813267.01248 -10737977.48448  19919108.3594                   19919105.6564
        49.2504         53.0004
   7612557.45347   5952285.67644  22638817.6884                   22638813.0084
        42.5004         24.5004
   1161552.82446    945742.53946  23366463.7194                   23366462.8524
        41.7504         38.7504
  -1320096.91047   -755051.52346  22481527.0554                   22481525.8714
        43.5004         37.7504
 25  8  7  2 59  0.0000000  0  9G27G03G04G21G07G09G16G30G08
  -5028698.95747  -3877772.75846  22738792.0784                   22738790.6054
        42.7504         37.7504
  25088689.75445  19557338.93444  24916797.4144                   24916803.1094
        34.7504         27.7504
   2578993.56347   2029417.34045  21082780.0004                   21082776.8594
        45.2504         35.5004
  10751511.28946   8417608.37944  23773946.0004                   23773943.4304
        37.2504         24.0004
 -14049264.01247 -10862740.05147  21631363.2504                   21631358.4104
        47.2504         46.0004
 -13914917.05548 -10817185.30948  19899765.1484                   19899762.3134
        49.5004         53.0004
   7617838.72347   5956400.93444  22639822.4694                   22639818.1484
        43.2504         27.0004
   1002990.59846    822187.62946  23336290.1414                   23336289.5944
        41.5004         38.5004
  -1483198.00847   -882143.19546  22450489.5944                   22450488.2624
        43.0004         37.2504
 25  8  7  2 59 30.0000000  0  9G27G03G04G21G07G09G16G30G08
  -5144447.17247  -3967966.12546  22716765.4454                   22716763.9224
        42.5004         38.5004
  25109141.13745  19573274.82044  24920688.9614                   24920695.1954
        34.0004         25.5004
   2543839.77047   2002024.76246  21076090.6254                   21076087.0864
        45.0004         36.0004
  10593723.09446   8294656.65244  23743921.2194                   23743917.9414
        39.7504         26.0004
 -14171847.72347 -10958259.78547  21608035.8914                   21608031.2774
        46.7504         46.2504
 -14016097.68748 -10896027.35548  19880511.1174                   19880507.7464
        49.7504         53.0004
   7623426.01247   5960754.64844  22640886.4534                   22640880.5204
        43.7504         27.2504
    844532.46547    698713.82446  23306136.9454                   23306136.4734
        42.2504         39.0004
  -1645937.29747  -1008952.95346  22419521.2424                   22419519.8014
        42.5004         37.2504
 25  8  7  3  0  0.0000000  0  9G27G03G04G21G07G09G16G30G08
  -5259621.53947  -4057712.33646  22694849.1334                   22694847.4184
        43.7504         38.2504
  25129505.71545  19589143.08243  24924564.6564                   24924570.8404
        33.0004         22.7504
   2509078.64147   1974938.15246  21069475.4454                   21069472.0514
        46.0004         36.5004
  10436390.71946   8172060.04744  23713981.2974                   23713978.4144
        39.5004         25.0004
 -14294297.82847 -11053675.41447  21584734.9384                   21584729.2624
        47.5004         46.2504
 -14116808.59048 -10974503.38748  19861345.9924                   19861342.8674
        49.2504         53.0004
   7629315.68447   5965343.93844  22642007.3204                   22642002.6884
        43.0004         27.2504
    686177.53146    575320.43446  23276002.4454                   23276001.3794
        41.5004         38.5004
  -1808312.52347  -1135479.00046  22388621.5084                   22388620.5944
        42.5004         37.5004
 25  8  7  3  0 30.0000000  0  9G27G03G04G21G07G09G16G30G08
  -5374224.15647  -4147013.03546  22673041.1484                   22673038.8984
        44.0004         39.0004
  25149777.29345  19604938.88743  24928422.7424                   24928428.5944
        32.2504         20.2504
   2474706.03547   1948154.28946  21062934.5784                   21062931.2974
        45.2504         36.2504
  10279512.50046   8049817.28144  23684128.0314                   23684124.9414
        39.0004         24.7504
 -14416618.24247 -11148989.97347  21561457.8364                   21561452.6954
        47.5004         46.5004
 -14217052.25848 -11052615.33648  19842270.6724                   19842267.2034
        49.2504         53.0004
   7635501.15647   5970163.79344  22643183.2034                   22643179.3094
        42.5004         25.7504
    527921.84846    452004.38346  23245887.4534                   23245886.2894
        41.7504         38.5004
  -1970324.20747  -1261721.80946  22357791.8594                   22357791.0204
        43.0004         38.2504
 25  8  7  3  1  0.0000000  0  9G27G03G04G21G07G09G16G30G08
  -5488250.43747  -4235864.64846  22651342.6254                   22651340.2974
        43.7504         39.2504
  25169955.91855  19620662.28553  24932262.6484                   24932268.4304
        31.7504         19.7504
   2440724.42647   1921675.10546  21056468.4694                   21056464.8954
        45.5004         36.7504
  10123093.18846   7927932.18844  23654363.6564                   23654360.0664
        40.5004         25.0004
 -14538806.11747 -11244201.25847  21538206.2894                   21538201.2544
        46.5004         46.2504
 -14316824.58648 -11130360.00048  19823284.5084                   19823281.2734
        50.0004         53.0004
   7641982.08247   5975213.87544  22644416.7584                   22644412.3554
        43.0004         27.5004
    369768.29347    328767.92246  23215791.8444                   23215790.9104
        43.5004         38.0004
  -2131966.48447  -1387676.73846  22327031.7974                   22327031.5124
        43.0004         38.2504
 25  8  7  3  1 30.0000000  0  9G27G03G04G21G07G09G16G30G08
  -5601698.23447  -4324265.48846  22629754.1414                   22629751.8054
        43.5004         39.0004
                                  24936085.8914                   24936090.9104
        29.2504         17.2504
   2407134.00047   1895500.73446  21050076.3914                   21050072.8554
        46.2504         36.0004
   9967135.39146   7806406.67243  23624686.1804                   23624681.6054
        40.2504         23.7504
 -14660861.78147 -11339309.52347  21514979.1564                   21514974.7114
        47.2504         46.2504
 -14416123.77048 -11207735.98048  19804388.7274                   19804385.2774
        49.5004         53.0004
   7648756.08247   5980492.22344  22645707.1884                   22645701.7814
        43.0004         26.2504
    211717.31346    205611.37946  23185715.3364                   23185714.5864
        41.2504         38.7504
  -2293235.64847  -1513340.91046  22296343.9384                   22296342.4774
        43.2504         37.5004
 25  8  7  3  2  0.0000000  0  9G27G03G04G21G07G09G16G30G08
  -5714563.66447  -4412212.53146  22608276.2814                   22608274.5664
        44.0004         39.0004
  25210029.00414                  24939889.641
        28.000
   2373936.62547   1869632.64146  21043759.0164                   21043755.5474
        45.7504         36.2504
   9811643.39146   7685244.08244  23595096.0314                   23595092.2734
        38.0004         26.7504
 -14782782.97747 -11434313.00447  21491778.6724                   21491773.5704
        47.2504         46.2504
 -14514946.37948 -11284740.60948  19785583.3674                   19785580.0394
        49.2504         53.0004
   7655822.31347   5985998.35544  22647050.2974                   22647046.7274
        42.0004         27.0004
     53771.15247     82536.54346  23155659.6254                   23155658.5394
        44.0004         39.5004
  -2454126.20347  -1638710.07846  22265728.3674                   22265726.4694
        44.0004         39.0004
 25  8  7  3  2 30.0000000  0  8G27G04G21G07G09G16G30G08
  -5826844.27047  -4499703.87146  22586909.7894                   22586907.7424
        43.5004         38.2504
   2341132.65647   1844071.09445  21037516.1334                   21037512.8754
        45.5004         35.7504
   9656619.94546   7564446.62943  23565595.7664                   23565592.1254
        38.0004         23.0004
 -14904569.08247 -11529211.23047  21468603.8204                   21468598.4654
        47.7504         46.2504
 -14613290.37548 -11361372.28548  19766869.3134                   19766865.6054
        49.0004         53.0004
   7663178.69547   5991730.60244  22648450.8134                   22648446.0274
        43.7504         27.0004
   -104069.46147    -40456.08646  23125623.6484                   23125622.7074
        44.7504         38.5004
  -2614634.32447  -1763781.23846  22235183.6804                   22235182.6604
        43.7504         39.2504
 25  8  7  3  3  0.0000000  0  8G27G04G21G07G09G16G30G08
  -4363117.46147  -3359137.48446  22865448.1024                   22865446.0434
        43.7504         39.2504
   3884140.06647   3046414.51245  21331140.9924                   21331137.9454
        45.2504         34.7504
  11077489.48846   8671617.77744  23835978.5084                   23835975.6334
        39.0004         24.5004
 -13450799.10247 -10396403.40647  21745246.7114                   21745241.5784
        47.7504         46.5004
 -13135733.92648 -10210029.60248  20048038.4694                   20048035.5314
        49.0004         53.0004
   9246239.17647   7225284.18044  22949697.7274                   22949692.6254
        43.7504         28.5004
   1313618.05147   1064235.55146  23395399.8134                   23395399.3054
        44.0004         38.5004
  -1199334.18747   -660949.88346  22504506.6564                   22504505.1844
        43.7504         39.2504
