     2.11           OBSERVATION DATA    G (GPS)             RINEX VERSION / TYPE
teqc  2019Feb25                         20250821 09:01:48UTCPGM / RUN BY / DATE
Linux 2.6.32-573.12.1.x86_64|x86_64|gcc -static|Linux 64|=+ COMMENT
BIT 2 OF LLI FLAGS DATA COLLECTED UNDER A/S CONDITION       COMMENT
04223571                                                    MARKER NAME
0422                                                        MARKER NUMBER
-Unknown-           -Unknown-                               OBSERVER / AGENCY
0220340422          TRIMBLE 5700        2.32                REC # / TYPE / VERS
-Unknown-           TRM41249.00     NONE                    ANT # / TYPE
 -2409679.8912 -4612262.7330  3677306.4141                  APPROX POSITION XYZ
        0.0000        0.0000        0.0000                  ANTENNA: DELTA H/E/N
     1     1                                                WAVELENGTH FACT L1/2
     7    L1    L2    C1    P1    P2    S1    S2            # / TYPES OF OBSERV
    18                                                      LEAP SECONDS
 SNR is mapped to RINEX snr flag value [0-9]                COMMENT
  L1 & L2: min(max(int(snr_dBHz/6), 0), 9)                  COMMENT
  2005    12    23    17     2   30.0000000     GPS         TIME OF FIRST OBS
                                                            END OF HEADER
 05 12 23 17  2 30.0000000  0  6G10G15G16G18G23G27
    -77495.41857    -49298.93757  22019703.6254                   22019706.4654
        47.7504         45.2504
    100896.21157     64051.24656  21774817.5474                   21774818.2154
        45.5004         39.5004
     55150.76256     27501.52053  23829345.6884                   23829346.3834
        37.0004         20.2504
     13458.73457      8605.50456  20914703.5704                   20914703.8244
        47.0004         37.2504
     20249.81657     12682.79756  20439166.3834                   20439165.8874
        47.7504         39.0004
    -97428.95757    -46615.83656  22819399.6644                   22819401.5634
        43.0004         38.5004
 05 12 23 17  3  0.0000000  0 11G10G13G15G16G18G23G24G27G26G29G32
   -127554.01647    -88305.61347  22010177.8674                   22010180.8134
        46.2504         46.2504
                                  24371612.875
        31.000
    165009.99247    114010.00046  21787018.0864                   21787018.5864
        46.7504         39.2504
     94062.69946     57822.46543  23836749.2344                   23836751.0314
        37.2504         19.2504
     21457.30147     14838.12146  20916225.8674                   20916225.4654
        46.2504         37.5004
     32615.71147     22318.53946  20441519.5234                   20441519.2974
        46.2504         39.5004
   -148772.82456    -96527.78554  24687862.3834                   24687871.1844
        37.5004         26.5004
   -179737.08247   -110752.04746  22803736.2194                   22803738.1884
        42.5004         38.2504
    135579.91055     91295.30153  24965284.8134                   24965289.8794
        34.0004         22.5004
    207466.48057    140334.94155  23405464.4144                   23405467.8094
        42.7504         35.5004
   -217110.77756   -127013.18054  24261971.1484                   24261980.0234
        40.5004         29.2504
 05 12 23 17  3 30.0000000  0 11G10G13G15G16G18G23G24G27G26G29G32
   -177427.17247   -127167.78947  22000687.6094                   22000690.4774
        47.5004         46.2504
                                  24388312.094
        30.750
    229536.55147    164290.41046  21799297.2734                   21799297.8874
        45.2504         39.2504
    133303.01246     88399.21943  23844216.6024                   23844218.4304
        36.7504         18.2504
     29630.73047     21207.00846  20917781.1954                   20917780.7194
        47.0004         37.2504
     45187.39547     32114.63346  20443911.6174                   20443911.5634
        46.7504         39.0004
   -224002.47346   -155148.12144  24673546.4924                   24673555.1214
        36.7504         26.0004
   -261762.95747   -174668.31246  22788127.5234                   22788129.7934
        42.7504         38.2504
    203815.21946    144465.55544  24978267.6484                   24978274.7504
        37.2504         26.5004
    312221.55147    221962.11345  23425398.8524                   23425402.0984
        42.0004         35.5004
   -327354.80146   -212917.43445  24240993.2114                   24241000.0984
        40.2504         30.0004
 05 12 23 17  4  0.0000000  0 11G10G13G15G16G18G23G24G27G26G29G32
   -227034.74647   -165823.00447  21991247.0234                   21991250.3164
        47.5004         46.2504
    349244.10945    100030.27353  24405080.4384                   24405080.4104
        35.5004         19.2504
    294553.75847    214953.13746  21811669.8914                   21811670.1254
        44.0004         38.7504
    172949.65246    119292.65643  23851761.5314                   23851763.0234
        37.0004         19.7504
     38060.27747     27775.46546  20919385.2974                   20919385.3054
        47.2504         38.0004
     58044.00447     42132.75846  20446358.2344                   20446358.1954
        47.7504         39.0004
   -299083.78946   -213652.87944  24659259.7734                   24659267.2854
        37.2504         28.5004
   -343423.65646   -238300.02746  22772587.8284                   22772590.0004
        41.7504         37.5004
    272091.32046    197667.60244  24991261.3054                   24991267.4304
        37.0004         28.0004
    417161.85947    303733.62545  23445367.8204                   23445371.5824
        43.0004         35.2504
   -437545.12546   -298779.86345  24220024.0864                   24220031.3554
        39.0004         30.7504
 05 12 23 17  4 30.0000000  0 11G10G13G15G16G18G23G24G27G26G29G32
   -276352.63347   -204252.50047  21981862.4144                   21981865.2274
        47.5004         46.2504
    437709.62545    168964.20742  24421914.6174                   24421917.3484
        33.0004         14.7504
    360083.55547    266015.29346  21824139.8524                   21824140.0514
        44.5004         39.0004
    213024.59046    150519.80543  23859388.0634                   23859389.1844
        37.5004         19.2504
     46771.10547     34563.10946  20921042.9064                   20921042.4064
        47.5004         37.7504
     71208.51647     52390.80546  20448863.5164                   20448863.1134
        47.0004         38.7504
   -373989.36746   -272020.68444  24645004.5474                   24645013.4964
        38.0004         28.0004
   -424692.32847   -301626.27346  22757122.5314                   22757125.0554
        43.2504         38.0004
    340429.65646    250918.20744  25004266.0394                   25004272.1914
        37.5004         27.0004
    522309.42647    385666.64145  23465376.8444                   23465380.9694
        43.5004         35.2504
   -547654.85546   -384579.48045  24199070.7814                   24199077.5744
        40.5004         30.5004
 05 12 23 17  5  0.0000000  0 11G10G13G15G16G18G23G24G27G26G29G32
   -325364.31247   -242443.37547  21972535.6724                   21972538.3204
        47.2504         46.2504
    526549.04346    238189.73842  24438821.2584                   24438823.9454
        37.0004         15.5004
    426140.29747    317488.05146  21836709.7734                   21836710.1414
        44.0004         39.5004
    253542.21146    182091.87543  23867097.9064                   23867099.0234
        37.0004         19.0004
     55780.98847     41583.77746  20922757.2734                   20922757.1994
        47.5004         37.2504
     84696.60247     62900.98846  20451430.5004                   20451430.3364
        47.7504         39.2504
   -448698.98846   -330235.81644  24630787.7274                   24630796.6334
        37.5004         29.5004
   -505549.54347   -364631.90246  22741736.5084                   22741738.3954
        42.0004         38.0004
    408844.16846    304228.12544  25017284.8594                   25017291.1684
        36.5004         27.5004
    627678.69547    467772.41045  23485427.7194                   23485431.9304
        43.0004         35.5004
   -657664.62946   -470301.19144  24178136.5164                   24178142.9654
        39.5004         29.7504
 05 12 23 17  5 30.0000000  0 11G10G13G15G16G18G23G24G27G26G29G32
   -374064.69947   -280391.68447  21963268.0864                   21963271.0164
        46.5004         46.2504
    615765.04345    307708.53942  24455797.7894                   24455801.4384
        33.2504         14.7504
    492726.69947    369373.53546  21849380.5394                   21849381.1094
        45.0004         39.2504
    294505.60546    214011.32843  23874893.1024                   23874893.8834
        37.0004         19.5004
     65095.97747     48842.18446  20924530.0864                   20924530.1174
        47.2504         38.0004
     98512.15247     73666.33246  20454059.1414                   20454059.0984
        46.5004         39.0004
   -523204.09046   -388291.58644  24616609.9924                   24616618.3594
        37.5004         29.2504
   -585987.43047   -427310.77746  22726429.5554                   22726431.7194
        42.5004         38.2504
    477337.47746    357599.45744  25030317.8054                   25030324.8594
        36.7504         26.7504
    733272.56347    550053.19945  23505520.9774                   23505526.1954
        43.2504         35.2504
   -767566.62146   -555938.93445  24157222.7814                   24157229.2464
        40.0004         30.5004
 05 12 23 17  6  0.0000000  0 11G10G13G15G16G18G23G24G27G26G29G32
   -422451.15647   -318095.37547  21954060.6804                   21954063.2584
        47.0004         46.2504
    705357.69545    377520.87542  24472846.0394                   24472850.2734
        33.7504         16.2504
    559843.27747    421672.13346  21862152.3054                   21862152.8874
        44.5004         39.0004
    335915.06346    246278.35543  23882773.0944                   23882774.3284
        37.0004         19.2504
     74719.94147     56341.36746  20926361.2974                   20926361.2384
        46.7504         37.7504
    112656.93047     84688.22346  20456750.9454                   20456750.4414
        47.5004         39.2504
   -597498.48446   -446183.18045  24602471.9384                   24602480.9344
        37.2504         30.0004
   -666000.52347   -489658.66046  22711203.6954                   22711206.0824
        42.5004         38.2504
    545909.72746    411032.30544  25043366.7274                   25043374.0744
        36.5004         27.5004
    839091.53947    632509.37945  23525659.0004                   23525663.0004
        43.0004         34.7504
   -877355.35546   -641488.41445  24136330.6024                   24136336.8324
        40.7504         31.2504
 05 12 23 17  6 30.0000000  0 11G10G13G15G16G18G23G24G27G26G29G32
   -470521.39547   -355552.66847  21944913.0704                   21944915.8404
        47.5004         46.0004
    795326.93845    447626.82442  24489967.7194                   24489970.8984
        34.5004         14.7504
    627490.06347    474383.88746  21875025.6724                   21875026.0944
        43.7504         39.0004
    377770.84446    278893.21143  23890737.6414                   23890739.8164
        36.7504         19.7504
     84656.25047     64083.92246  20928251.7894                   20928251.8874
        46.0004         37.5004
    127132.16447     95967.60946  20459505.2424                   20459504.9454
        47.0004         39.0004
   -671576.34446   -503906.03544  24588375.3284                   24588384.0824
        37.5004         29.5004
   -745583.73847   -551671.55546  22696059.6334                   22696061.7584
        42.2504         38.7504
    614560.62146    464526.41044  25056431.2424                   25056438.6254
        36.2504         27.0004
    945135.93447    715141.21545  23545838.5634                   23545842.4774
        43.0004         34.7504
   -987025.64146   -726945.60945  24115460.7274                   24115467.0354
        40.7504         30.7504
 05 12 23 17  7  0.0000000  0 11G10G13G15G16G18G23G24G27G26G29G32
   -518276.80147   -392764.63347  21935825.5164                   21935827.9144
        47.0004         46.0004
    885668.82845    518022.97342  24507158.9454                   24507162.4304
        35.7504         16.2504
    695663.56647    527506.07446  21887998.7424                   21887998.7664
        45.0004         39.5004
    420069.49646    311853.10943  23898787.1954                   23898789.1174
        36.5004         19.5004
     94904.74647     72069.74646  20930202.2504                   20930201.8484
        47.2504         37.0004
    141935.55947    107502.71146  20462322.5704                   20462322.3754
        46.5004         39.0004
   -745435.40646   -561458.40244  24574320.7114                   24574328.9694
        38.5004         29.0004
   -824735.56647   -613348.32446  22680997.0864                   22680999.4414
        42.5004         39.2504
    683286.42646    518078.94544  25069509.8364                   25069515.6174
        37.2504         27.0004
   1051402.41847    797946.11345  23566060.4774                   23566064.7344
        42.5004         33.7504
  -1096576.06246   -812309.38745  24094613.6094                   24094620.3984
        40.0004         31.5004
 05 12 23 17  7 30.0000000  0 11G10G13G15G16G18G23G24G27G26G29G32
   -565717.21147   -429731.14147  21926797.6644                   21926800.7704
        47.5004         46.2504
    976380.83646    588707.67642  24524421.7114                   24524424.5784
        36.7504         15.5004
    764361.36747    581036.80146  21901071.2974                   21901071.6054
        45.0004         39.2504
    462808.96146    345156.52043  23906921.2894                   23906921.5044
        38.5004         20.0004
    105466.67247     80299.80546  20932212.3594                   20932212.1484
        46.7504         37.5004
    157066.18047    119292.79746  20465201.6024                   20465201.7154
        47.5004         39.5004
   -819072.00446   -618837.41844  24560307.3914                   24560316.2894
        36.0004         29.7504
   -903453.08647   -674686.65246  22666017.5704                   22666020.3674
        43.0004         39.0004
    752084.72346    571687.89144  25082601.2034                   25082608.0784
        37.2504         26.0004
   1157888.64147    880922.23045  23586324.5554                   23586328.1254
        42.7504         35.0004
  -1206003.58246   -897577.41045  24073790.0394                   24073796.6914
        40.7504         32.2504
 05 12 23 17  8  0.0000000  0 11G10G13G15G16G18G23G24G27G26G29G32
   -612842.15247   -466451.82847  21917830.0234                   21917833.1524
        47.7504         46.5004
   1067461.06346    659679.14842  24541755.5784                   24541757.5984
        38.2504         16.2504
    833581.94947    634974.88346  21914243.5004                   21914243.6724
        44.7504         39.2504
    505987.59846    378802.18443  23915136.8834                   23915137.9964
        36.2504         19.0004
    116343.63747     88775.34846  20934282.1414                   20934282.0904
        46.5004         37.5004
    172523.59447    131337.51646  20468143.0634                   20468143.2034
        47.2504         38.7504
   -892482.05146   -676039.88744  24546338.2734                   24546346.3714
        37.0004         29.7504
   -981732.96547   -735683.96546  22651122.0944                   22651124.2074
        42.7504         39.5004
    820953.52046    625351.85944  25095706.2344                   25095712.8484
        37.5004         25.0004
   1264593.36347    964068.60945  23606628.9844                   23606633.6804
        42.5004         34.5004
  -1315304.86346   -982747.06245  24052990.8444                   24052997.1764
        41.2504         32.5004
 05 12 23 17  8 30.0000000  0 11G10G13G15G16G18G23G24G27G26G29G32
   -659658.04747   -502931.69147  21908921.1724                   21908924.2624
        46.5004         46.5004
   1158900.44946    730930.58642  24559154.2344                   24559157.5984
        36.7504         16.7504
    903316.66847    689313.59846  21927513.9064                   21927513.7234
        44.5004         39.0004
    549596.93846    412783.39543  23923436.1254                   23923436.9884
        36.7504         19.7504
    127530.36747     97492.25446  20936410.7974                   20936410.7624
        46.0004         37.7504
    188300.35947    143631.08646  20471145.3674                   20471144.8874
        46.2504         38.7504
   -965668.42246   -733068.05145  24532411.4844                   24532419.7344
        37.7504         31.0004
  -1059578.85547   -796343.10546  22636308.0864                   22636310.2704
        42.5004         39.5004
    889884.03546    679063.82844  25108823.8134                   25108830.1374
        37.5004         24.5004
   1371508.31647   1047378.79745  23626974.7664                   23626979.1294
        42.7504         34.0004
  -1424483.50046  -1067821.14145  24032214.3284                   24032221.1414
        40.0004         32.7504
 05 12 23 17  9  0.0000000  0 11G10G13G15G16G18G23G24G27G26G29G32
   -706169.17247   -539174.08247  21900070.5784                   21900073.3634
        47.5004         46.5004
   1250692.367 5                  24576622.039
        35.750
    973558.95347    744047.81646  21940880.5704                   21940880.4884
        44.2504         39.5004
    593630.11346    447094.88743  23931814.7424                   23931816.4884
        37.0004         18.5004
    139023.82447    106448.17246  20938598.2114                   20938598.0004
        46.5004         37.2504
    204391.27347    156169.44946  20474207.0944                   20474207.4614
        47.2504         38.7504
  -1038631.77746   -789922.44945  24518526.3204                   24518534.8554
        37.0004         30.5004
  -1136992.13747   -856665.15646  22621577.1484                   22621579.0394
        42.2504         39.5004
    958869.44146    732818.64844  25121951.3134                   25121957.8524
        36.7504         25.7504
   1478626.66447   1130847.48045  23647358.7274                   23647363.2854
        42.5004         33.2504
  -1533540.86346  -1152800.69545  24011461.8134                   24011468.3134
        40.5004         33.0004
 05 12 23 17  9 30.0000000  0 11G10G13G15G16G18G23G24G27G26G29G32
   -752375.80148   -575179.20747  21891277.6094                   21891280.6374
        48.0004         46.7504
   1342833.88346    827403.22752  24594155.9694                   24594156.2974
        37.7504         17.7504
   1044306.27347    799175.57046  21954342.9144                   21954343.3444
        45.2504         39.0004
    638084.86346    481734.88343  23940274.5634                   23940276.3554
        36.0004         19.2504
    150824.84847    115643.75446  20940843.7974                   20940843.4064
        46.5004         38.0004
    220795.07447    168951.61746  20477329.2034                   20477328.7894
        47.2504         39.0004
  -1111368.80146   -846600.47345  24504685.0704                   24504693.2704
        38.0004         30.7504
  -1213970.34847   -916648.18746  22606928.3984                   22606930.6054
        42.5004         39.0004
   1027907.14846    786614.12144  25135089.1334                   25135095.5234
        38.2504         24.0004
   1585946.44547   1214473.10945  23667781.6884                   23667785.6914
        42.2504         33.0004
  -1642474.35546  -1237683.73045  23990731.8524                   23990738.4734
        41.7504         32.0004
 05 12 23 17 10  0.0000000  0 11G10G13G15G16G18G23G24G27G26G29G32
   -798279.10947   -610947.97347  21882542.4144                   21882545.0204
        47.2504         46.7504
   1435321.34045    899471.27342  24611754.3204                   24611757.2774
        32.7504         16.2504
   1115555.26647    854694.22746  21967901.7584                   21967902.0354
        44.0004         39.5004
    682958.03546    516700.89543  23948813.7664                   23948815.6844
        37.0004         19.7504
    162933.46147    125079.02046  20943148.0004                   20943147.6174
        46.5004         37.5004
    237509.68847    181975.99246  20480509.6024                   20480509.6564
        47.0004         38.7504
  -1183877.06646   -903100.23845  24490887.5634                   24490895.1374
        37.7504         31.7504
  -1290511.75847   -976290.85246  22592363.0164                   22592365.4574
        42.2504         39.7504
   1096993.46945    840447.55144  25148236.8444                   25148242.6054
        35.7504         26.2504
   1693464.46547   1298253.23045  23688241.3594                   23688246.1174
        42.0004         31.5004
  -1751282.27346  -1322468.91445  23970026.3134                   23970032.9734
        41.0004         33.5004
 05 12 23 17 10 30.0000000  0 11G10G13G15G16G18G23G24G27G26G29G32
   -843883.48847   -646483.80947  21873864.5004                   21873867.2464
        47.7504         47.0004
   1528148.090 6                  24629419.477
        37.500
   1187299.36347    910598.68446  21981553.3054                   21981554.5314
        43.5004         39.5004
    728243.04346    551987.87943  23957431.4304                   23957432.6334
        36.7504         19.2504
    175346.44547    134751.45746  20945510.0234                   20945509.9024
        47.2504         37.5004
    254529.71147    195238.34446  20483748.5554                   20483748.2664
        47.5004         38.7504
  -1256157.31246   -959422.30945  24477132.5634                   24477140.4064
        38.2504         31.2504
  -1366617.98047  -1035594.40246  22577880.7034                   22577882.9454
        42.7504         39.5004
   1166121.64546    894313.53943  25161390.1484                   25161397.7624
        37.0004         23.5004
   1801174.10946   1382182.66045  23708737.7034                   23708742.8164
        41.5004         32.2504
  -1859966.06647  -1407157.36745  23949344.8054                   23949350.8284
        42.0004         32.7504
 05 12 23 17 11  0.0000000  0 11G10G13G15G16G18G23G24G27G26G29G32
   -889186.57848   -681784.86347  21865243.2974                   21865246.1564
        48.0004         46.7504
   1621313.68445    991224.47752  24647147.1644                   24647148.8444
        32.7504         17.2504
   1259538.42247    966888.81646  21995300.7584                   21995301.3204
        44.0004         39.5004
    773939.89846    587595.70343  23966126.8444                   23966128.4844
        37.5004         19.5004
    188067.34847    144663.82846  20947930.6094                   20947930.5514
        47.2504         37.0004
    271856.59448    208739.80546  20487045.6724                   20487045.6374
        48.0004         38.7504
  -1328203.62146  -1015562.10945  24463421.6724                   24463430.2424
        38.0004         31.7504
  -1442283.85547  -1094554.83246  22563481.8444                   22563484.2814
        42.7504         39.2504
   1235291.68846    948212.23444  25174552.8054                   25174559.2154
        36.0004         24.5004
   1909075.53146   1466261.53145  23729270.9144                   23729275.7344
        41.7504         33.0004
  -1968520.54346  -1491745.06245  23928687.2114                   23928693.2974
        41.7504         33.5004
 05 12 23 17 11 30.0000000  0 11G10G13G15G16G18G23G24G27G26G29G32
   -934194.07047   -716855.58647  21856678.6484                   21856681.5554
        47.5004         46.7504
   1714810.19546   1064078.71543  24664941.0554                   24664942.5514
        39.0004         19.0004
   1332264.50847   1023558.45746  22009139.5314                   22009140.2854
        44.2504         39.5004
    820040.80946    623518.48043  23974899.6644                   23974901.6214
        36.7504         18.5004
    201091.64147    154812.60546  20950409.0864                   20950409.0044
        47.0004         37.2504
    289483.66847    222475.18046  20490400.1334                   20490399.5044
        47.0004         38.5004
  -1400018.14146  -1071521.27045  24449756.7504                   24449764.1644
        39.0004         32.2504
  -1517512.28947  -1153174.39546  22549166.2894                   22549168.4884
        42.7504         39.5004
   1304495.30945   1002137.03144  25187721.4224                   25187729.3674
        34.5004         24.5004
   2017161.29346   1550484.03945  23749838.8204                   23749844.2034
        41.5004         33.0004
  -2076948.47346  -1576234.14845  23908053.6414                   23908060.1334
        41.5004         33.7504
 05 12 23 17 12  0.0000000  0 11G10G13G15G16G18G23G24G27G26G29G32
   -978904.25447   -751694.63747  21848170.7664                   21848173.4224
        47.7504         46.7504
   1808636.590 6                  24682794.836
        36.750
   1405477.11747   1080607.20346  22023071.8364                   22023072.3364
        44.2504         39.0004
    866544.70746    659755.19942  23983748.7664                   23983750.5274
        36.5004         17.7504
    214422.22347    165200.06646  20952946.0004                   20952945.8204
        46.7504         37.2504
    307411.75047    236445.11346  20493811.5084                   20493811.0554
        47.5004         39.2504
  -1471595.36346  -1127295.51245  24436135.8444                   24436143.1844
        38.7504         32.0004
  -1592298.68747  -1211449.52046  22534934.5634                   22534937.0164
        42.2504         39.2504
   1373732.09046   1056087.68843  25200897.5234                   25200904.3674
        37.0004         21.7504
   2125430.94946   1634849.83645  23770442.2504                   23770447.0004
        41.5004         31.5004
  -2185245.21946  -1660620.99245  23887445.2814                   23887451.7154
        41.2504         33.2504
 05 12 23 17 12 30.0000000  0 11G10G13G15G16G18G23G24G27G26G29G32
  -1023326.12947   -786309.03547  21839717.5474                   21839720.1414
        47.7504         46.7504
   1902781.75816                  24700711.031
        40.000
   1479164.99647   1138026.28146  22037093.8444                   22037094.7274
        44.2504         38.7504
    913440.80146    696297.53543  23992673.1564                   23992675.0784
        36.5004         19.2504
    228051.37947    175820.17646  20955539.5164                   20955539.3244
        46.2504         37.2504
    325630.94147    250641.87946  20497278.5004                   20497278.4384
        47.0004         38.7504
  -1542940.66846  -1182889.02745  24422558.6024                   24422566.1884
        38.5004         32.0004
  -1666649.23447  -1269385.01246  22520786.4064                   22520788.8324
        42.5004         39.5004
   1442990.63346   1110055.35244  25214076.9844                   25214083.6524
        37.2504         25.0004
   2233873.47346   1719350.34845  23791078.2894                   23791082.8634
        41.2504         31.5004
  -2293416.82446  -1744910.31645  23866860.8284                   23866866.8484
        41.2504         34.0004
 05 12 23 17 13  0.0000000  0 11G10G13G15G16G18G23G24G27G26G29G32
  -1067457.90247   -820697.37947  21831319.2504                   21831321.8244
        47.5004         46.5004
   1997244.37945   1187350.30552  24718684.7734                   24718686.7234
        35.7504         15.5004
   1553327.62147   1195815.29746  22051206.7894                   22051207.5004
        44.0004         39.2504
    960729.07846    733145.49643  24001672.4614                   24001673.6054
        37.5004         19.0004
    241982.03947    186675.22346  20958190.2504                   20958190.0434
        47.5004         37.5004
    344142.07847    265066.14146  20500801.2194                   20500800.6604
        47.0004         38.5004
  -1614048.71946  -1238297.65645  24409026.7194                   24409034.9964
        38.5004         31.5004
  -1740559.35247  -1326977.31246  22506721.4844                   22506723.9184
        42.5004         39.5004
   1512270.35546   1164039.41443  25227261.2734                   25227267.6764
        38.2504         22.2504
   2342488.80546   1803985.50845  23811746.6644                   23811752.4774
        40.5004         31.0004
  -2401458.55147  -1829098.42645  23846301.1254                   23846307.3204
        42.2504         33.7504
 05 12 23 17 13 30.0000000  0 11G10G13G15G16G18G23G24G27G26G29G32
  -1111299.96547   -854859.96947  21822976.3524                   21822979.0594
        47.0004         46.5004
   2092022.109 5                  24736720.977
        35.250
   1627962.25047   1253972.10246  22065409.3984                   22065410.1454
        44.5004         39.0004
   1008406.54346    770296.67243  24010744.5474                   24010745.5354
        37.0004         18.2504
    256214.95747    197765.79346  20960898.9614                   20960898.8634
        46.5004         37.2504
    362943.83247    279716.85546  20504378.5314                   20504378.7114
        46.5004         38.2504
  -1684916.23046  -1293518.84845  24395541.0704                   24395549.2384
        38.0004         31.5004
  -1814026.67647  -1384224.57846  22492741.5004                   22492743.6884
        43.0004         39.0004
   1581568.41846   1218037.89843  25240447.6484                   25240454.1994
        37.0004         22.0004
   2451274.33246   1888753.28145  23832448.2504                   23832453.1484
        39.7504         30.2504
  -2509367.95746  -1913183.43045  23825766.3284                   23825772.3244
        41.5004         33.5004
 05 12 23 17 14  0.0000000  0 11G10G13G15G16G18G23G24G27G26G29G32
  -1154854.66047   -888798.63747  21814688.1484                   21814690.4224
        47.5004         46.5004
   2187109.79746   1280033.29753  24754816.2894                   24754815.0704
        39.7504         19.2504
   1703064.15647   1312493.01246  22079700.7504                   22079701.3404
        44.0004         38.5004
   1056468.59046    807747.58242  24019891.0784                   24019892.0274
        37.7504         17.7504
    270749.08247    209091.07046  20963664.8364                   20963664.6024
        46.5004         37.0004
    382033.01247    294591.53546  20508011.1884                   20508011.1454
        46.5004         38.7504
  -1755541.86746  -1348551.55945  24382101.8444                   24382109.3054
        37.7504         32.2504
  -1887050.63747  -1441126.36746  22478845.5474                   22478847.8364
        42.5004         39.2504
   1650880.25446   1272047.00443  25253637.1174                   25253644.6294
        36.2504         22.5004
   2560225.80546   1973650.35545  23853181.4844                   23853186.1454
        39.2504         30.2504
  -2617144.34047  -1997164.75845  23805256.9144                   23805262.6644
        42.5004         33.7504
 05 12 23 17 14 30.0000000  0 11G10G13G15G16G18G23G24G27G26G29G32
  -1198124.34447   -922515.22347  21806454.0474                   21806456.5084
        47.7504         46.5004
   2282502.88346   1328591.50852  24772969.2424                   24772970.8634
        38.5004         16.7504
   1778628.99647   1371374.64846  22094080.1644                   22094080.9224
        42.7504         38.0004
   1104910.81346    845494.70743  24029108.6334                   24029110.4924
        37.5004         19.0004
    285583.26247    220650.16446  20966487.5634                   20966487.4414
        46.2504         37.0004
    401406.38347    309687.66046  20511698.4694                   20511698.0664
        47.0004         38.5004
  -1825924.40246  -1403394.83245  24368707.7194                   24368715.1764
        39.5004         32.2504
  -1959630.89847  -1497682.41046  22465034.1484                   22465036.0904
        42.5004         39.0004
   1720201.20346   1326063.23443  25266829.1484                   25266835.7974
        38.5004         22.7504
   2669338.68446   2058673.22744  23873945.0004                   23873950.4184
        38.5004         29.7504
  -2724787.22746  -2081042.07445  23784772.8524                   23784779.0984
        41.5004         33.7504
 05 12 23 17 15  0.0000000  0 11G10G13G15G16G18G23G24G27G26G29G32
  -1241110.33647   -956010.74247  21798274.1644                   21798276.8164
        47.5004         46.7504
   2378197.74246   1403158.74642  24791179.5164                   24791182.3014
        37.7504         14.7504
   1854653.11747   1430614.18046  22108546.8984                   22108547.6914
        43.5004         38.7504
   1153729.51246    883535.20343  24038398.6024                   24038400.1564
        37.2504         19.0004
    300717.37547    232442.96546  20969367.5164                   20969367.4694
        47.0004         38.0004
    421061.72747    325003.50846  20515438.4064                   20515438.1174
        47.0004         38.5004
  -1896061.45346  -1458046.82845  24355361.1954                   24355368.4654
        38.5004         32.5004
  -2031765.89147  -1553891.50446  22451307.1804                   22451309.5864
        43.2504         39.5004
   1789527.63745   1380083.80943  25280019.8444                   25280027.2074
        35.5004         19.7504
   2778609.69546   2143819.30544  23894738.7974                   23894743.8714
        38.5004         29.7504
  -2832294.95347  -2164814.06245  23764314.5784                   23764320.7344
        42.5004         34.5004
 05 12 23 17 15 30.0000000  0 11G10G13G15G16G18G23G24G27G26G29G32
  -1283814.69947   -989286.82047  21790147.4614                   21790149.6134
        46.7504         47.0004
   2474189.58245   1477957.78942  24809445.4224                   24809448.6524
        35.0004         16.7504
   1931131.84847   1490207.94546  22123100.2664                   22123101.1884
        43.5004         38.7504
   1202920.48446    921865.79743  24047759.7424                   24047761.4024
        38.0004         18.5004
    316150.54347    244468.79746  20972304.2814                   20972304.3094
        46.0004         37.2504
    440996.00447    340536.69946  20519231.8594                   20519231.6994
        47.0004         38.0004
  -1965951.49646  -1512506.34845  24342061.5234                   24342068.6334
        38.7504         32.2504
  -2103455.00447  -1609753.14146  22437664.6254                   22437667.2154
        42.5004         39.7504
   1858855.14546   1434105.18843  25293213.3594                   25293220.3754
        36.5004         22.7504
   2888034.69946   2229085.35944  23915561.8594                   23915566.9694
        38.5004         29.5004
  -2939666.62547  -2248480.05545  23743882.5004                   23743887.9614
        42.7504         35.0004
 05 12 23 17 16  0.0000000  0 11G10G13G15G16G18G23G24G27G26G29G32
  -1326237.30947  -1022343.34847  21782075.1334                   21782077.2194
        47.0004         47.0004
   2570476.71946   1552986.50042  24827768.2344                   24827771.4414
        36.0004         16.2504
   2008063.03947   1550154.27046  22137740.2974                   22137740.6334
        43.5004         38.5004
   1252481.48446    960484.70343  24057191.1644                   24057192.4804
        37.5004         19.5004
    331884.19147    256728.76646  20975298.1414                   20975298.1254
        46.2504         37.2504
    461208.63347    356286.79346  20523078.4144                   20523078.2584
        45.5004         38.2504
  -2035590.67246  -1566770.38345  24328809.2424                   24328816.5704
        37.2504         31.7504
  -2174695.19547  -1665264.97346  22424108.2584                   22424110.6254
        42.7504         39.2504
   1928181.59046   1488125.64543  25306406.2424                   25306414.0314
        36.2504         22.7504
   2997612.25446   2314470.29345  23936413.4144                   23936418.7344
        38.2504         30.0004
  -3046899.12947  -2332037.60545  23723476.4224                   23723482.6484
        43.0004         35.2504
 05 12 23 17 16 30.0000000  0 11G10G13G15G16G18G23G24G27G26G29G32
  -1368379.67248  -1055181.50847  21774055.5164                   21774057.8444
        48.0004         47.0004
   2667054.00446   1628241.67242  24846146.5234                   24846148.9184
        38.7504         16.7504
   2085443.14847   1610450.39846  22152465.7424                   22152465.8444
        43.7504         38.5004
   1302408.88346    999389.15243  24066691.2344                   24066693.2974
        37.5004         19.5004
    347917.96947    269222.60546  20978349.3914                   20978349.0314
        47.0004         37.2504
    481697.12547    372251.84046  20526976.8204                   20526976.5044
        47.2504         38.5004
  -2104976.82046  -1620837.27745  24315605.7734                   24315612.4064
        37.7504         31.5004
  -2245485.25847  -1720426.05946  22410637.3284                   22410640.0554
        42.5004         39.0004
   1997503.23446   1542142.50043  25319597.4454                   25319604.3054
        36.5004         21.5004
   3107338.53546   2399971.12545  23957294.3054                   23957299.1564
        38.0004         30.0004
  -3153991.05547  -2415485.62545  23703097.6724                   23703102.8444
        43.2504         35.5004
 05 12 23 17 17  0.0000000  0 11G10G13G15G16G18G23G24G27G26G29G32
  -1410242.41048  -1087801.77047  21766089.3754                   21766092.1484
        48.2504         47.2504
   2763919.32846   1678541.10953  24864580.6174                   24864580.5594
        37.5004         20.0004
   2163269.35247   1671094.13746  22167275.2504                   22167275.3714
        43.0004         38.5004
   1352699.68046   1038576.73843  24076262.0234                   24076263.6094
        38.5004         20.0004
    364252.52347    281950.82046  20981457.7034                   20981457.6884
        45.7504         37.2504
    502460.00447    388430.69546  20530928.0234                   20530927.7074
        47.0004         38.0004
  -2174106.95746  -1674704.67645  24302450.6414                   24302457.5274
        37.5004         32.2504
  -2315823.02347  -1775234.71546  22397252.5004                   22397254.9454
        42.2504         40.0004
   2066817.10546   1596153.31643  25332788.4384                   25332794.5514
        37.2504         23.5004
   3217211.19546   2485586.01644  23978202.5784                   23978207.8714
        37.0004         28.2504
  -3260940.01647  -2498822.24245  23682745.4384                   23682751.3324
        43.2504         35.0004
 05 12 23 17 17 30.0000000  0 11G10G13G15G16G18G23G24G27G26G29G32
  -1451826.30547  -1120204.75847  21758175.8914                   21758178.3444
        47.5004         47.2504
   2861068.76246   1754241.88743  24883066.7274                   24883068.1954
        37.5004         20.0004
   2241538.17247   1732082.77046  22182169.2664                   22182169.7274
        43.0004         38.5004
   1403351.03146   1078045.25043  24085900.5164                   24085902.3404
        36.2504         20.5004
    380888.28547    294913.72746  20984623.3984                   20984623.3984
        46.2504         37.0004
    523495.69147    404822.13346  20534931.0704                   20534930.4884
        46.5004         38.0004
  -2242978.09846  -1728370.28545  24289343.1954                   24289351.3054
        37.2504         31.0004
  -2385706.48047  -1829689.35546  22383954.2274                   22383956.5904
        42.5004         39.5004
   2136120.33646   1650155.65244  25345974.8984                   25345983.1604
        36.5004         25.2504
   3327227.17646   2571312.57044  23999137.7034                   23999142.8364
        37.5004         29.0004
  -3367743.81247  -2582045.75445  23662421.1254                   23662426.6644
        43.0004         35.2504
 05 12 23 17 18  0.0000000  0 10G10G15G16G18G23G24G27G26G29G32
  -1493133.23848  -1152391.93447  21750315.8834                   21750318.2974
        48.2504         47.5004
   2320245.51247   1793413.11346  22197146.5234                   22197147.1294
        42.5004         38.2504
   1454358.38346   1117791.18043  24095606.9144                   24095608.3484
        36.0004         20.2504
    397824.59447    308110.82046  20987846.2814                   20987846.1764
        46.2504         37.2504
    544801.39847    421423.96946  20538985.1954                   20538984.7854
        46.2504         38.5004
  -2311588.57846  -1781832.78545  24276287.7344                   24276294.8134
        37.7504         32.0004
  -2455134.75447  -1883789.29346  22370742.9774                   22370744.6374
        43.5004         39.7504
   2205408.61746   1704146.51244  25359161.1024                   25359167.9694
        37.2504         24.5004
   3437382.53946   2657147.76644  24020100.2194                   24020104.9574
        37.0004         29.0004
  -3474401.37547  -2665155.32046  23642125.1174                   23642130.3204
        43.0004         36.0004
 05 12 23 17 18 30.0000000  0 10G10G15G16G18G23G24G27G26G29G32
  -1534157.01247  -1184358.46947  21742508.9384                   21742511.3134
        47.5004         47.2504
   2399395.43447   1855088.32046  22212209.1024                   22212209.4144
        43.5004         38.5004
   1505726.06346   1157817.94543  24105381.8914                   24105383.4774
        37.0004         19.7504
    415068.89147    321547.91446  20991127.5784                   20991127.9064
        45.7504         37.5004
    566382.52747    438240.43046  20543092.0554                   20543091.6414
        46.0004         38.0004
  -2379928.37146  -1835084.36745  24263282.6024                   24263290.3554
        36.5004         31.2504
  -2524098.91047  -1937527.59446  22357619.6724                   22357621.1484
        43.0004         39.7504
   2274686.13346   1758128.91844  25372345.0474                   25372350.5554
        37.0004         24.5004
   3547681.72746   2743095.01244  24041088.7974                   24041094.5354
        36.7504         28.5004
  -3580903.53147  -2748143.80145  23621858.1484                   23621863.3014
        43.5004         35.0004
 05 12 23 17 19  0.0000000  0 10G10G15G16G18G23G24G27G26G29G32
  -1574895.07047  -1216102.37147  21734757.0864                   21734758.9924
        47.5004         47.2504
   2478987.85947   1917108.33246  22227354.7504                   22227355.2234
        42.2504         38.7504
   1557454.13746   1198125.44143  24115225.3914                   24115227.1764
        37.2504         20.0004
    432625.01647    335227.98446  20994468.6174                   20994468.4264
        47.0004         37.0004
    588240.76247    455272.80546  20547251.5004                   20547251.0664
        46.7504         38.5004
  -2447991.41046  -1888120.31645  24250331.5314                   24250337.9494
        37.0004         31.5004
  -2592593.55947  -1990900.04346  22344584.9844                   22344586.8484
        43.0004         40.2504
   2343952.97746   1812102.99643  25385524.1884                   25385532.1604
        36.0004         22.2504
   3658125.22346   2829154.67244  24062106.7894                   24062111.3404
        37.7504         29.0004
  -3687244.73847  -2831006.87145  23601622.1644                   23601627.2504
        43.7504         35.5004
 05 12 23 17 19 30.0000000  0 10G10G15G16G18G23G24G27G26G29G32
  -1615346.03147  -1247622.56247  21727059.1954                   21727061.4494
        47.5004         47.2504
   2559022.27747   1979472.76246  22242584.8524                   22242585.3794
        42.5004         39.0004
   1609541.77046   1238713.16043  24125137.3834                   24125138.9264
        37.5004         19.0004
    450495.52747    349153.02746  20997869.4064                   20997869.1484
        46.2504         37.7504
    610376.63347    472521.52046  20551464.0234                   20551463.3134
        46.5004         37.7504
  -2515772.58246  -1940936.63345  24237432.7814                   24237439.3014
        36.7504         31.0004
  -2660614.66847  -2043903.50046  22331641.1884                   22331643.0864
        43.0004         40.2504
   2413208.43845   1866068.21143  25398704.0944                   25398711.0354
        35.0004         21.5004
   3768712.21546   2915326.19944  24083149.7584                   24083155.5004
        37.5004         29.2504
  -3793420.62547  -2913741.13746  23581417.6254                   23581422.3674
        43.2504         36.0004
 05 12 23 17 20  0.0000000  0 10G10G15G16G18G23G24G27G26G29G32
  -1655515.31647  -1278923.26647  21719415.2664                   21719417.5274
        47.5004         47.5004
   2639490.77747   2042175.41846  22257897.7734                   22257898.0594
        42.5004         38.2504
   1661981.50946   1279575.24443  24135116.3054                   24135118.1644
        38.0004         19.2504
    468676.31647    363319.85946  21001329.0704                   21001329.2154
        46.5004         37.7504
    632784.01247    489981.78946  20555727.7814                   20555727.5124
        46.5004         38.5004
  -2583273.46946  -1993534.54345  24224587.5704                   24224594.5824
        36.7504         30.2504
  -2728164.84047  -2096539.99646  22318787.1334                   22318789.3674
        43.2504         40.2504
   2482444.94545   1920018.69143  25411880.2584                   25411886.1684
        35.0004         23.0004
   3879435.67646   3001604.00444  24104220.3524                   24104226.0704
        37.7504         28.7504
  -3899433.55147  -2996348.43045  23561243.8134                   23561248.6644
        44.0004         35.7504
 05 12 23 17 20 30.0000000  0 10G10G15G16G18G23G24G27G26G29G32
  -1695408.75047  -1310009.01247  21711823.5164                   21711826.4494
        47.7504         47.2504
   2720385.02047   2105209.84446  22273290.6884                   22273292.0044
        43.0004         38.2504
   1714764.77346   1320705.05143  24145161.7974                   24145162.5824
        37.5004         19.2504
    487162.75047    377724.84846  21004846.9534                   21004846.5204
        46.2504         37.0004
    655456.14547    507648.37146  20560042.5474                   20560042.3444
        46.7504         38.0004
  -2650496.41845  -2045915.89845  24211795.2894                   24211802.4844
        35.5004         31.7504
  -2795247.20747  -2148811.96546  22306021.2274                   22306023.8674
        43.0004         40.7504
   2551654.49645   1973948.11743  25425050.6724                   25425056.6334
        34.7504         23.7504
   3990287.82846   3087982.12145  24125315.6644                   24125320.0744
        37.5004         30.0004
  -4005286.40247  -3078830.98046  23541100.0474                   23541105.2384
        44.0004         36.5004
 05 12 23 17 21  0.0000000  0 10G10G15G16G18G23G24G27G26G29G32
  -1735026.12147  -1340879.65247  21704284.4144                   21704287.1804
        47.7504         47.2504
   2801702.88747   2168574.35246  22288765.2974                   22288766.1644
        42.7504         38.5004
   1767889.95346   1362101.21943  24155270.4694                   24155271.4964
        38.0004         19.2504
    505956.32847    392369.16446  21008423.1254                   21008422.8634
        47.2504         36.7504
    678392.52047    525520.86346  20564406.9454                   20564406.4494
        46.0004         37.7504
  -2717437.32445  -2098077.48445  24199056.9614                   24199063.7194
        35.2504         30.2504
  -2861858.75047  -2200717.06246  22293345.8674                   22293347.5904
        43.0004         41.2504
   2620835.16445   2027855.03143  25438215.3834                   25438221.4884
        35.5004         20.7504
   4101266.78146   3174459.01645  24146433.8284                   24146439.0904
        38.2504         30.5004
  -4110975.91447  -3161186.27346  23520987.8834                   23520993.1134
        44.0004         36.7504
 05 12 23 17 21 30.0000000  0 10G10G15G16G18G23G24G27G26G29G32
  -1774370.70347  -1371537.72747  21696797.5944                   21696799.8404
        47.5004         47.5004
   2883439.06347   2232264.80146  22304319.3984                   22304320.2734
        42.7504         37.5004
   1821351.35246   1403759.43843  24165443.3204                   24165445.0204
        36.5004         19.2504
    525054.94147    407251.17646  21012057.4694                   21012057.4264
        46.0004         36.7504
    701589.02747    543596.04746  20568820.9614                   20568820.9304
        45.5004         38.0004
  -2784096.00046  -2150019.16445  24186371.6254                   24186378.5234
        36.0004         30.0004
  -2928000.09847  -2252255.77346  22280759.9454                   22280761.7114
        43.0004         41.2504
   2689981.32845   2081735.12943  25451372.0084                   25451379.4344
        31.7504         22.5004
   4212367.58646   3261030.85544  24167575.8054                   24167581.1294
        38.0004         29.2504
  -4216502.42247  -3243414.54746  23500906.8134                   23500912.0434
        43.7504         36.5004
 05 12 23 17 22  0.0000000  0 11G10G08G15G16G18G23G24G27G26G29G32
  -1813450.79348  -1401989.71147  21689360.6484                   21689363.2504
        48.0004         47.5004
   -194840.21556   -129218.34054  24919385.6334                   24919388.7154
        37.2504         26.7504
   2965582.71547   2296272.77346  22319951.5234                   22319951.0044
        42.7504         37.5004
   1875138.09446   1445671.15243  24175678.5634                   24175680.3634
        37.2504         19.0004
    544451.57047    422365.39546  21015748.9304                   21015748.2704
        47.2504         37.5004
    725036.56347    561866.84046  20573283.0234                   20573282.9144
        46.7504         38.0004
  -2850476.84446  -2201744.36344  24173739.7504                   24173746.3524
        36.2504         29.5004
  -2993676.80947  -2303432.42646  22268261.7274                   22268263.7734
        43.2504         40.5004
   2759082.79345   2135580.25043  25464521.8594                   25464529.2854
        32.7504         21.7504
   4323579.68446   3347689.44545  24188738.7894                   24188744.2704
        37.7504         30.2504
  -4321871.19147  -3325519.91446  23480855.8364                   23480860.7624
        43.7504         36.0004
 05 12 23 17 22 30.0000000  0 11G10G08G15G16G18G23G24G27G26G29G32
  -1852272.68048  -1432240.49247  21681973.2584                   21681975.7664
        48.2504         47.7504
   -293276.99256   -205922.21554  24900653.6174                   24900656.2624
        37.7504         24.2504
   3048125.37947   2360591.68046  22335658.0944                   22335659.0784
        42.0004         38.0004
   1929241.83246   1487829.85942  24185974.4614                   24185976.0904
        37.7504         17.7504
    564141.24247    437707.97746  21019495.4144                   21019495.3134
        47.0004         37.2504
    748728.05547    580327.71946  20577791.5944                   20577791.3594
        46.2504         38.0004
  -2916582.61345  -2253255.23045  24161160.2664                   24161166.8014
        35.5004         30.2504
  -3058892.42647  -2354249.78546  22255851.3284                   22255853.3594
        43.0004         40.5004
   2828130.96155   2189384.00053  25477662.0004                   25477668.5044
        33.5004         21.5004
   4434894.80146   3434428.25445  24209921.2584                   24209927.2344
        36.7504         30.7504
  -4427085.44947  -3407504.89546  23460833.6564                   23460838.9344
        43.5004         36.5004
 05 12 23 17 23  0.0000000  0 11G10G08G15G16G18G23G24G27G26G29G32
  -1890839.21948  -1462292.30547  21674634.4774                   21674636.7424
        48.0004         47.5004
   -391515.47346   -282471.90244  24881959.5554                   24881962.1764
        38.2504         25.2504
   3131061.87547   2425217.45346  22351440.6954                   22351441.1524
        42.5004         38.0004
   1983657.57046   1530231.66043  24196330.1414                   24196331.6374
        37.0004         18.2504
    584122.34847    453277.64146  21023297.8674                   21023297.8284
        46.5004         37.2504
    772659.93447    598975.91446  20582345.2664                   20582345.2424
        46.2504         37.7504
  -2982412.37146  -2304551.02745  24148632.8134                   24148639.7974
        36.0004         30.5004
  -3123647.08247  -2404707.95346  22243529.4844                   22243531.1994
        43.2504         40.5004
                                  25490787.6644                   25490797.0824
        27.5004         21.5004
   4546308.38346   3521243.81345  24231122.7814                   24231128.7544
        37.7504         31.5004
  -4532145.05147  -3489369.36745  23440841.3914                   23440846.6564
        43.2504         35.5004
 05 12 23 17 23 30.0000000  0 11G10G08G15G16G18G23G24G27G26G29G32
  -1929145.57848  -1492141.38747  21667344.8754                   21667347.0944
        48.5004         47.7504
   -489548.23456   -358861.05554  24863304.2664                   24863308.4654
        36.2504         29.2504
   3214394.78547   2490152.12546  22367298.5704                   22367298.9614
        42.2504         38.0004
   2038387.58646   1572878.44143  24206743.5164                   24206745.8594
        36.2504         19.7504
    604400.91447    469079.09446  21027156.4694                   21027156.7504
        46.7504         37.0004
    796836.18047    617814.53146  20586945.8834                   20586945.9264
        46.2504         38.0004
  -3047957.58246  -2355625.11744  24136160.5234                   24136166.6374
        36.2504         29.7504
  -3187933.35247  -2454801.14546  22231295.8914                   22231298.0314
        43.0004         40.7504
   2966055.25455   2296857.21553  25503905.9454                   25503914.8324
        30.5004         20.7504
   4657823.15246   3608138.24645  24252342.7584                   24252349.0784
        38.0004         30.0004
  -4637042.21547  -3571107.27345  23420880.0314                   23420885.1454
        43.2504         35.7504
 05 12 23 17 24  0.0000000  0 11G10G08G15G16G18G23G24G27G26G29G32
  -1967192.16448  -1521788.04347  21660104.9304                   21660107.3954
        48.0004         47.7504
   -587372.30946   -435087.59044  24844688.5234                   24844693.2544
        37.7504         29.5004
   3298121.03147   2555393.29746  22383231.2194                   22383231.8094
        43.0004         37.2504
   2093429.18046   1615767.95743  24217218.5314                   24217219.6994
        36.7504         18.5004
    624977.81347    485113.00046  21031072.4614                   21031072.2154
        47.5004         37.0004
    821255.66847    636842.67646  20591593.3204                   20591592.8094
        45.5004         38.2504
  -3113215.04346  -2406474.98844  24123743.0394                   24123748.5944
        36.0004         29.7504
  -3251748.80947  -2504527.47346  22219152.3364                   22219154.1024
        43.0004         40.7504
   3034931.65255   2350527.07053  25517014.8134                   25517021.5164
        33.7504         22.2504
   4769436.77346   3695109.67245  24273582.7974                   24273589.3094
        38.2504         32.2504
  -4741774.19547  -3652716.46946  23400950.3524                   23400955.2424
        43.7504         36.2504
 05 12 23 17 24 30.0000000  0 11G10G08G15G16G18G23G24G27G26G29G32
  -2004977.35548  -1551231.01647  21652914.6094                   21652917.0784
        48.5004         47.7504
   -684983.05145   -511148.07843  24826113.2034                   24826117.8364
        31.5004         20.0004
   3382240.35547   2620940.75046  22399238.5864                   22399238.5744
        42.0004         37.0004
   2148781.69946   1658899.78143  24227751.5784                   24227752.8554
        36.7504         19.5004
    645855.94947    501381.64146  21035045.4454                   21035045.3954
        46.5004         37.0004
    845919.25447    656061.02346  20596286.1254                   20596286.0634
        45.7504         38.0004
  -3178179.39546  -2457096.46144  24111380.2274                   24111386.2774
        36.5004         29.7504
  -3315089.27347  -2553883.67246  22207098.8834                   22207100.9804
        43.7504         41.5004
   3103749.62155   2404151.40254  25530111.5634                   25530118.6094
        34.0004         25.0004
   4881149.26246   3782158.10545  24294841.9534                   24294847.2854
        39.2504         32.7504
  -4846336.46147  -3734193.43446  23381052.1484                   23381057.1294
        44.0004         36.5004
 05 12 23 17 25  0.0000000  0 11G10G08G15G16G18G23G24G27G26G29G32
  -2042499.94948  -1580469.37147  21645774.0704                   21645776.6054
        48.5004         47.5004
   -782376.27056   -587038.85954  24807581.4384                   24807584.7624
        38.5004         29.0004
   3466751.46547   2686793.50046  22415319.9454                   22415320.8204
        42.2504         37.0004
   2204444.04346   1702272.96943  24238344.3594                   24238345.0314
        37.0004         18.5004
    667037.71547    517886.87946  21039076.1564                   21039075.7974
        45.7504         37.2504
    870827.38747    675469.92246  20601026.3834                   20601026.4964
        45.5004         38.0004
  -3242845.71946  -2507485.71545  24099074.1724                   24099080.4574
        37.0004         30.2504
  -3377950.79347  -2602866.66446  22195137.1254                   22195138.9804
        43.5004         41.0004
   3172508.15654   2457729.43053  25543193.4924                   25543202.6644
        29.0004         22.0004
   4992959.92646   3869283.03945  24316119.0474                   24316124.9224
        39.0004         32.5004
  -4950724.70747  -3815534.80546  23361188.6174                   23361193.0044
        43.5004         36.5004
 05 12 23 17 25 30.0000000  0 11G10G08G15G16G18G23G24G27G26G29G32
  -2079764.24647  -1609506.45347  21638682.9224                   21638685.2344
        47.7504         47.5004
   -879553.23055   -662761.12953  24789087.8444                   24789092.5554
        33.5004         22.7504
   3551647.48847   2752946.18446  22431475.3754                   22431476.2234
        42.0004         36.7504
   2260409.75046   1745882.60543  24248995.1724                   24248995.5124
        37.2504         19.5004
    688520.13747    534626.40246  21043164.0314                   21043164.5514
        46.7504         37.2504
    895975.10947    695065.52746  20605811.5164                   20605811.6524
        46.0004         37.7504
  -3307214.59846  -2557643.20344  24086824.5864                   24086831.6884
        36.5004         29.2504
  -3440335.00847  -2651477.73446  22183265.6724                   22183266.9614
        44.0004         41.2504
   3241201.25055   2511256.25053  25556266.6334                   25556274.5984
        31.7504         21.2504
   5104862.12546   3956479.33945  24337412.8524                   24337419.4104
        38.0004         33.0004
  -5054940.26647  -3896741.61346  23341356.4224                   23341361.3524
        43.2504         37.0004
 05 12 23 17 26  0.0000000  0 11G10G08G15G16G18G23G24G27G26G29G32
  -2116764.26647  -1638337.61347  21631642.1484                   21631644.5514
        47.5004         47.5004
   -976504.77745   -738307.88743  24770639.6024                   24770642.3054
        34.0004         21.2504
   3636932.06347   2819401.63746  22447704.9534                   22447705.2814
        42.0004         37.0004
   2316682.37146   1789731.38743  24259701.7424                   24259704.2544
        36.5004         18.2504
    710310.39147    551605.78146  21047310.8284                   21047310.7154
        47.5004         38.0004
    921367.50847    714851.78146  20610643.9224                   20610643.3714
        45.7504         37.7504
  -3371276.48046  -2607561.47345  24074634.7274                   24074640.8794
        36.7504         30.0004
  -3502233.37547  -2699710.21946  22171486.4694                   22171488.4924
        43.7504         41.0004
   3309832.35256   2564735.03154  25569328.4064                   25569334.4774
        36.2504         24.0004
   5216860.17646   4043750.27345  24358726.1094                   24358732.1954
        39.7504         33.5004
  -5158974.02347  -3977806.75046  23321559.9144                   23321564.0984
        44.0004         37.2504
 05 12 23 17 26 30.0000000  0 11G10G08G15G16G18G23G24G27G26G29G32
  -2153503.85548  -1666965.83647  21624650.5084                   21624653.0474
        48.2504         47.2504
  -1073231.67645   -813679.54744  24752231.6484                   24752237.7544
        32.7504         26.2504
   3722599.32447   2886155.28146  22464006.6484                   22464007.5234
        42.0004         37.2504
   2373255.69146   1833814.48843  24270467.5864                   24270469.3444
        36.5004         19.2504
    732405.93047    568823.05946  21051515.3984                   21051515.1994
        46.2504         37.0004
    947000.15647    734825.25446  20615521.5554                   20615521.5434
        45.7504         38.0004
  -3435031.51646  -2657240.64544  24062502.4614                   24062508.8364
        36.2504         29.7504
  -3563646.95747  -2747564.94946  22159800.0004                   22159802.2344
        44.0004         41.5004
   3378395.75455   2618161.07454  25582374.5394                   25582382.2344
        35.0004         26.5004
   5328948.28946   4131091.43445  24380055.0164                   24380061.5864
        39.0004         33.0004
  -5262826.89847  -4058730.95746  23301797.0004                   23301801.3404
        44.5004         37.7504
 05 12 23 17 27  0.0000000  0 11G10G08G15G16G18G23G24G27G26G29G32
  -2189982.61747  -1695390.81247  21617709.2664                   21617711.1094
        47.5004         47.2504
  -1169730.52745   -888873.43744  24733871.1414                   24733872.8634
        35.5004         26.0004
   3808647.09046   2953205.43046  22480381.4774                   22480382.2304
        41.7504         37.0004
   2430127.69945   1878130.27743  24281289.2734                   24281291.4344
        34.7504         19.2504
    754808.37948    586279.48446  21055778.5634                   21055778.2274
        48.2504         37.0004
    972872.63347    754985.60246  20620444.5864                   20620444.7814
        45.7504         38.0004
  -3498475.48845  -2706677.41444  24050428.3834                   24050435.5044
        35.2504         28.2504
  -3624572.85947  -2795039.66846  22148205.9224                   22148207.7734
        43.0004         41.5004
   3446889.89154   2671533.03953  25595407.5864                   25595415.8754
        29.0004         22.2504
   5441124.98046   4218501.55945  24401402.8754                   24401408.5514
        40.5004         33.5004
  -5366495.42247  -4139511.51646  23282069.0234                   23282074.0704
        44.5004         37.5004
 05 12 23 17 27 30.0000000  0 11G10G08G15G16G18G23G24G27G26G29G32
  -2226200.77347  -1723612.72347  21610816.8984                   21610819.3714
        47.5004         47.5004
  -1265998.52045   -963887.55144  24715551.2974                   24715554.2774
        34.2504         26.0004
   3895073.07447   3020550.28146  22496828.0234                   22496828.6564
        42.5004         36.5004
   2487296.20745   1922677.17643  24292168.8914                   24292170.2344
        35.2504         18.5004
    777518.75047    603975.84046  21060100.2274                   21060100.1684
        46.5004         37.0004
    998984.05147    775332.13346  20625413.4064                   20625413.5234
        45.7504         38.0004
  -3561605.07046  -2755869.20344  24038416.6804                   24038422.6054
        36.0004         28.5004
  -3685008.62947  -2842132.46146  22136705.3914                   22136707.2464
        44.2504         41.0004
   3515312.57455   2724849.22753  25608428.3284                   25608435.7424
        32.2504         20.2504
   5553388.05146   4305979.03945  24422765.5084                   24422771.8054
        40.0004         33.2504
  -5469976.77747  -4220146.23046  23262377.3594                   23262382.1374
        45.2504         37.5004
 05 12 23 17 28  0.0000000  0 10G10G08G15G16G18G23G24G27G29G32
  -2262158.57847  -1751631.76247  21603974.5314                   21603976.6134
        47.5004         47.5004
  -1362032.66455  -1038719.34054  24697274.5784                   24697279.2934
        34.2504         25.5004
   3981874.45347   3088187.65645  22513345.5314                   22513346.2734
        42.7504         35.7504
   2544758.25846   1967452.74643  24303102.8204                   24303105.1214
        36.2504         19.0004
    800538.05147    621912.91446  21064480.6254                   21064481.0124
        47.0004         37.0004
   1025333.41447    795864.08246  20630427.9144                   20630427.5354
        45.5004         38.0004
  -3624416.78146  -2804813.32444  24026462.7114                   24026469.3594
        36.0004         28.0004
  -3744951.89847  -2888841.49246  22125298.5554                   22125300.5394
        44.5004         41.2504
   5665735.46146   4393522.19945  24444144.5784                   24444151.2544
        39.0004         33.7504
  -5573268.15247  -4300632.91446  23242721.6724                   23242726.1954
        45.0004         38.0004
 05 12 23 17 28 30.0000000  0 10G10G08G15G16G18G23G24G27G29G32
  -2297850.75048  -1779443.82047  21597182.5164                   21597184.8444
        48.0004         47.5004
  -1457824.71955  -1113362.46953  24679047.8284                   24679050.5664
        34.0004         22.7504
   4069054.30946   3156119.95346  22529935.2584                   22529936.2194
        41.5004         36.7504
   2602516.98846   2012459.50043  24314094.8364                   24314096.3634
        36.0004         18.5004
    823872.83647    640095.82446  21068921.0554                   21068921.0044
        47.5004         37.5004
   1051925.35247    816585.03946  20635488.3524                   20635488.0664
        46.2504         38.0004
  -3686901.62546  -2853502.72344  24014572.7114                   24014578.8754
        36.5004         29.0004
  -3804394.72747  -2935160.57446  22113987.0554                   22113989.3244
        44.0004         41.5004
   5778170.65246   4481133.76645  24465540.8134                   24465546.7624
        40.2504         34.0004
  -5676361.27347  -4380965.10946  23223103.6884                   23223108.2974
        45.2504         39.0004
 05 12 23 17 29  0.0000000  0 10G10G08G15G16G18G23G24G27G29G32
  -2333270.52747  -1807043.60947  21590442.1724                   21590444.4384
        47.2504         47.5004
  -1553364.80155  -1187809.34054  24660864.9924                   24660871.2074
        32.2504         27.7504
   4156616.96546   3224350.53546  22546597.6094                   22546598.4774
        41.7504         36.0004
   2660576.77745   2057700.92243  24325143.3364                   24325144.8914
        35.5004         19.0004
    847531.08247    658530.77746  21073423.1804                   21073423.1334
        47.5004         36.5004
   1078765.87947    837499.71546  20640595.6884                   20640595.5554
        46.5004         37.2504
  -3749049.22345  -2901929.32844  24002746.5084                   24002752.3834
        35.5004         29.0004
  -3863327.91847  -2981082.52746  22102772.4694                   22102774.4264
        44.2504         41.2504
   5890698.56346   4568817.57845  24486954.0864                   24486960.5314
        40.5004         33.7504
  -5779246.33647  -4461135.18046  23203524.9924                   23203530.0204
        45.0004         38.5004
 05 12 23 17 29 30.0000000  0 10G10G08G15G16G18G23G24G27G29G32
  -2368417.60947  -1834430.91847  21583754.1174                   21583756.3794
        47.7504         47.7504
  -1648649.22345  -1262056.93744  24642734.3054                   24642739.3834
        32.5004         24.0004
   4244560.50046   3292877.89546  22563333.2664                   22563333.7894
        41.7504         36.2504
   2718935.48445   2103175.21142  24336248.4844                   24336250.2384
        34.7504         17.7504
    871514.39547    677219.04346  21077987.0704                   21077987.0784
        47.2504         37.0004
   1105854.69547    858607.85946  20645750.6024                   20645750.2934
        46.0004         38.0004
  -3810855.59845  -2950090.05144  23990984.8284                   23990991.4574
        35.0004         29.2504
  -3921748.40647  -3026604.98446  22091655.0784                   22091657.4264
        44.5004         41.0004
   6003317.55546   4656572.37545  24508384.8674                   24508391.8484
        39.7504         34.5004
  -5881919.95747  -4541140.49246  23183986.8364                   23183991.4844
        45.5004         38.5004
 05 12 23 17 30  0.0000000  0 10G10G08G15G16G18G23G24G27G29G32
  -2403297.79747  -1861610.26247  21577116.1804                   21577118.5634
        47.5004         47.5004
  -1743681.98055  -1321786.65253  24624651.2194                   24624653.2894
        33.2504         23.5004
   4332876.82047   3361695.73046  22580138.5634                   22580139.8364
        42.2504         36.5004
   2777585.12546   2148876.19142  24347409.5394                   24347411.0314
        36.2504         17.2504
    895818.30147    696157.10946  21082611.9774                   21082612.0044
        46.0004         36.5004
   1133185.32847    879904.43446  20650951.4534                   20650951.3324
        46.0004         37.7504
  -3872322.79746  -2997986.49644  23979288.6954                   23979294.3134
        36.0004         29.7504
  -3979659.50047  -3071730.50446  22080635.2814                   22080636.8714
        44.5004         41.2504
   6116020.07446   4744392.26245  24529831.5314                   24529837.8984
        40.0004         32.5004
  -5984384.85547  -4620983.16046  23164488.2734                   23164492.8984
        45.2504         38.2504
 05 12 23 17 30 30.0000000  0 10G10G08G15G16G18G23G24G27G29G32
  -2437919.95747  -1888588.53547  21570528.0474                   21570530.2814
        47.5004         47.7504
  -1838466.73045  -1395644.96144  24606613.1094                   24606618.3874
        32.5004         27.0004
   4421554.70347   3430795.31646  22597014.0784                   22597015.2814
        42.2504         36.2504
   2836514.51645   2194795.17242  24358622.3834                   24358625.0704
        34.0004         16.7504
    920435.06347    715338.96946  21087296.6564                   21087296.4064
        46.7504         37.0004
   1160748.16447    901381.94946  20656196.5474                   20656196.4694
        46.0004         37.7504
  -3933456.13346  -3045622.77744  23967654.9534                   23967660.6024
        36.7504         29.0004
  -4037067.51647  -3116464.03146  22069710.3674                   22069713.0084
        44.7504         41.7504
   6228795.06346   4832268.57845  24551291.7034                   24551299.3874
        39.0004         32.7504
  -6086646.93747  -4700667.78946  23145028.4774                   23145033.2234
        45.0004         38.7504
 05 12 23 17 31  0.0000000  0 10G10G08G15G16G18G23G24G27G29G32
  -2472283.07448  -1915364.95747  21563988.8594                   21563991.4924
        48.5004         47.7504
  -1933000.32855  -1469307.42254  24588624.8914                   24588628.1994
        34.5004         25.2504
   4510593.10947   3500175.82045  22613957.0554                   22613957.9734
        42.5004         35.7504
   2895722.37545   2240931.18442  24369889.1564                   24369891.8404
        33.5004         17.7504
    945366.96147    734766.39146  21092040.7894                   21092040.4884
        46.5004         37.0004
   1188543.58247    923040.68446  20661485.5314                   20661485.5474
        45.7504         37.7504
  -3994250.88745  -3092995.23844  23956085.4534                   23956092.2304
        35.5004         28.5004
  -4093968.85247  -3160802.72746  22058882.6334                   22058885.1024
        45.0004         41.5004
   6341641.91846   4920200.96145  24572766.5784                   24572772.8134
        39.5004         32.5004
  -6188702.12947  -4780191.20346  23125608.5394                   23125612.5394
        45.5004         39.0004
 05 12 23 17 31 30.0000000  0 10G10G08G15G16G18G23G24G27G29G32
  -2506390.48848  -1941942.13348  21557498.3674                   21557500.9224
        48.0004         48.0004
  -2027283.02345  -1542774.54744  24570681.1174                   24570687.8594
        31.7504         26.0004
   4599986.16046   3569832.68446  22630967.4924                   22630969.1524
        41.7504         36.5004
   2955202.79345   2287279.55543  24381208.2894                   24381210.6724
        35.0004         18.5004
    970611.88347    754437.71546  21096844.7584                   21096844.6334
        47.0004         37.0004
   1216567.57847    944877.53946  20666818.1484                   20666818.3754
        46.0004         37.5004
  -4054706.75446  -3140103.62944  23944580.7504                   23944587.5274
        36.0004         29.2504
  -4150364.39547  -3204747.30946  22048151.3914                   22048152.9344
        45.0004         41.2504
   6454555.41846   5008185.19545  24594253.5394                   24594260.3324
        39.5004         33.2504
  -6290550.74647  -4859553.64846  23106226.7584                   23106231.2584
        45.0004         38.5004
 05 12 23 17 32  0.0000000  0 10G10G08G15G16G18G23G24G27G29G32
  -2540241.82448  -1968319.77048  21551056.8134                   21551058.9224
        49.0004         48.0004
  -2121311.35955  -1616043.32454  24552790.1724                   24552794.0784
        34.5004         25.0004
   4689731.59047   3639764.13746  22648046.0084                   22648047.5234
        42.5004         36.0004
   3014954.07045   2333839.00443  24392579.2584                   24392580.7114
        35.5004         19.2504
    996171.47347    774354.22746  21101708.6024                   21101708.9654
        47.2504         36.7504
   1244819.86347    966892.28946  20672195.0004                   20672194.9614
        47.0004         38.0004
  -4114819.74246  -3186944.85944  23933142.6954                   23933148.0124
        36.0004         29.2504
  -4206251.17247  -3248295.44946  22037516.4774                   22037518.2194
        44.7504         41.5004
   6567534.08646   5096220.27345  24615752.8284                   24615759.4734
        40.0004         32.7504
  -6392189.33647  -4938752.43446  23086885.4144                   23086889.8054
        45.2504         38.0004
 05 12 23 17 32 30.0000000  0 10G10G08G15G16G18G23G24G27G29G32
  -2573834.41848  -1994495.78548  21544664.1254                   21544666.6094
        48.7504         48.0004
  -2215079.28545  -1689109.25843  24534945.5004                   24534949.8674
        32.0004         22.5004
   4779830.02047   3709970.64546  22665191.7034                   22665192.8754
        42.5004         36.2504
   3074976.51645   2380609.66042  24404001.2734                   24404003.4804
        35.0004         16.7504
   1022049.68447    794519.02346  21106632.9694                   21106633.3014
        46.7504         37.0004
   1273302.55547    989086.56346  20677615.0394                   20677614.5784
        46.2504         38.2504
  -4174583.43445  -3233513.91844  23921769.6804                   23921776.1374
        35.2504         29.7504
  -4261624.00447  -3291443.10946  22026979.3134                   22026981.2664
        45.0004         41.5004
   6680578.75446   5184306.71545  24637264.8444                   24637271.6604
        40.2504         33.7504
  -6493612.16047  -5017783.09046  23067585.2344                   23067589.5274
        45.5004         38.0004
 05 12 23 17 33  0.0000000  0 10G10G08G15G16G18G23G24G27G29G32
  -2607169.52048  -2020471.16048  21538320.4844                   21538322.8794
        48.5004         48.2504
  -2308585.18046  -1761970.95744  24517154.1644                   24517157.8444
        36.7504         29.2504
   4870277.79747   3780449.36346  22682403.9844                   22682404.1454
        43.5004         36.2504
   3135266.35945   2427588.77042  24415473.4064                   24415475.1764
        33.2504         17.7504
   1048246.43847    814932.03146  21111618.4774                   21111618.4884
        47.2504         37.0004
   1302013.68447   1011458.85546  20683078.5554                   20683078.1454
        46.5004         38.0004
  -4233995.53545  -3279809.00044  23910462.9144                   23910470.2344
        35.5004         28.5004
  -4316481.69147  -3334189.37146  22016539.8204                   22016542.0664
        45.5004         41.2504
   6793686.32446   5272442.18845  24658788.4924                   24658795.8364
        39.5004         31.7504
  -6594817.51247  -5096644.29346  23048326.1564                   23048330.7934
        45.0004         38.5004
 05 12 23 17 33 30.0000000  0 10G10G08G15G16G18G23G24G27G29G32
  -2640253.33248  -2046250.73048  21532025.1254                   21532027.1724
        48.5004         48.5004
  -2401832.02745  -1834630.84044  24499408.1024                   24499411.8244
        34.5004         24.2504
   4961066.78547   3851193.95746  22699680.2734                   22699681.1414
        42.5004         36.0004
   3195814.76645   2474769.30943  24426994.6644                   24426997.8674
        33.0004         18.5004
   1074756.83647    835589.44546  21116663.0474                   21116663.1024
        47.5004         37.0004
   1330946.45747   1034003.85246  20688584.2274                   20688584.0904
        46.2504         37.5004
  -4293058.55145  -3325832.08644  23899223.8524                   23899230.5314
        35.7504         28.5004
  -4370827.92247  -3376537.08246  22006198.0784                   22006200.3014
        45.2504         41.5004
   6906848.92246   5360620.59445  24680323.0394                   24680329.7544
        39.5004         32.0004
  -6695808.50447  -5175338.46146  23029107.8524                   23029112.4924
        45.5004         38.0004
 05 12 23 17 34  0.0000000  0 10G10G08G15G16G18G23G24G27G29G32
  -2673084.81248  -2071833.67248  21525777.4384                   21525779.6604
        49.0004         48.5004
  -2494815.72746  -1907085.69144  24481715.8754                   24481718.0554
        37.5004         28.2504
   5052195.56347   3922203.32445  22717021.4304                   22717022.0744
        43.0004         34.5004
   3256620.80545   2522150.62543  24438567.6094                   24438568.0004
        34.5004         18.5004
   1101583.12147    856493.00046  21121767.5864                   21121768.2344
        46.0004         37.0004
   1360101.29747   1056721.88346  20694132.0474                   20694132.1174
        45.7504         37.5004
  -4351767.75445  -3371579.45744  23888052.2114                   23888058.1884
        35.7504         29.0004
  -4424659.15647  -3418483.50047  21995954.3204                   21995956.4574
        45.5004         42.0004
   7020065.66446   5448841.12945  24701867.2274                   24701874.6564
        40.2504         33.0004
  -6796581.05547  -5253862.41046  23009932.0634                   23009936.0554
        45.2504         38.5004
 05 12 23 17 34 30.0000000  0 10G10G08G15G16G18G23G24G27G29G32
  -2705673.34848  -2097227.32048  21519575.9144                   21519578.0204
        49.5004         48.5004
  -2587544.36355  -1979342.21953  24464069.3134                   24464072.8014
        34.0004         22.5004
   5143652.12947   3993468.15245  22734425.3364                   22734425.8364
        42.5004         35.5004
   3317673.02745   2569723.79342  24450184.5084                   24450186.4614
        33.2504         17.7504
   1128717.12947    877636.32846  21126931.3364                   21126931.4804
        47.2504         36.5004
   1389468.20747   1079605.17246  20699720.6564                   20699720.5634
        46.0004         38.0004
  -4410129.01246  -3417055.73844  23876946.7114                   23876952.6094
        36.0004         28.7504
  -4477982.36347  -3460034.05546  21985806.9924                   21985809.5434
        45.5004         41.5004
   7133325.25046   5537095.03945  24723420.0084                   24723427.5824
        40.0004         31.5004
  -6897141.47347  -5332221.06646  22990795.6724                   22990800.2234
        45.5004         38.2504
 05 12 23 17 35  0.0000000  0 10G10G08G15G16G18G23G24G27G29G32
  -2738009.05948  -2122423.95748  21513422.8134                   21513425.0124
        49.0004         48.2504
  -2680001.03146  -2051386.37544  24446475.2274                   24446478.5514
        37.0004         27.2504
   5235444.24647   4064994.43445  22751891.8984                   22751893.5234
        42.5004         35.5004
   3378978.80145   2617494.45342  24461851.5394                   24461852.8444
        35.0004         17.2504
   1156170.02047    899028.15646  21132156.0944                   21132155.8094
        47.5004         37.0004
   1419056.48047   1102660.96546  20705351.1334                   20705350.9534
        46.2504         38.0004
  -4468128.79346  -3462250.30944  23865909.1484                   23865915.5314
        36.0004         29.2504
  -4530785.18047  -3501179.10946  21975759.5084                   21975761.4264
        45.2504         41.7504
   7246635.73046   5625388.61345  24744983.4924                   24744990.3284
        40.7504         32.2504
  -6997476.93447  -5410404.43446  22971702.7734                   22971706.6764
        45.5004         38.7504
 05 12 23 17 35 30.0000000  0 10G10G08G15G16G18G23G24G27G29G32
  -2770099.71548  -2147429.65648  21507316.3054                   21507318.0434
        49.0004         48.2504
  -2772192.38755  -2123223.67653  24428931.2814                   24428935.3404
        32.5004         22.5004
   5327561.98447   4136774.40245  22769423.0864                   22769422.5474
        43.5004         35.0004
   3440527.85245   2665454.73443  24473562.6024                   24473565.1604
        33.7504         18.2504
   1183935.21547    920663.31646  21137439.1094                   21137439.1914
        47.0004         36.7504
   1448857.73447   1125882.69546  20711022.2974                   20711021.7464
        47.5004         37.5004
  -4525771.23046  -3507166.47744  23854940.8594                   23854946.5124
        37.0004         28.7504
  -4583072.98447  -3541922.86746  21965809.6334                   21965811.3244
        45.7504         41.7504
   7359987.36746   5713714.25845  24766553.2034                   24766560.3014
        40.0004         31.0004
  -7097592.12547  -5488416.17246  22952651.2814                   22952655.6024
        44.7504         39.0004
 05 12 23 17 36  0.0000000  0 10G10G08G15G16G18G23G24G27G29G32
  -2801940.66848  -2172240.78148  21501256.8364                   21501258.9064
        49.2504         48.5004
  -2864110.48046  -2194848.26244  24411442.0084                   24411443.0944
        37.0004         25.7504
   5420007.62947   4208809.91045  22787014.1174                   22787014.4804
        42.5004         34.5004
   3502322.49645   2713606.36343  24485321.5634                   24485324.5274
        33.5004         19.0004
   1212018.58247    942546.40246  21142783.0164                   21142783.6024
        47.0004         36.7504
   1478875.98847   1149273.52346  20716734.2194                   20716734.2854
        47.0004         37.7504
  -4583048.15646  -3551797.82044  23844040.7114                   23844047.1024
        36.2504         27.7504
  -4634838.68747  -3582259.78546  21955958.6174                   21955960.8364
        45.5004         41.5004
   7473383.50846   5802074.56645  24788132.0394                   24788139.7074
        40.7504         30.2504
  -7197479.37947  -5566250.30146  22933643.1174                   22933647.2424
        45.2504         39.0004
 05 12 23 17 36 30.0000000  0 10G10G08G15G16G18G23G24G27G29G32
  -2833530.80148  -2196856.44948  21495245.7194                   21495247.6294
        49.5004         48.5004
  -2955751.30546  -2266256.62944  24394001.7274                   24394005.7704
        36.2504         27.0004
   5512779.87147   4281099.93445  22804667.5164                   22804668.2894
        42.0004         34.5004
   3564361.45745   2761948.35243  24497127.4064                   24497130.0004
        33.5004         19.0004
   1240422.48047    964679.26646  21148188.5004                   21148188.7384
        47.0004         36.7504
   1509111.82847   1172833.89846  20722487.9064                   20722488.3094
        47.2504         38.0004
  -4639954.67646  -3596140.50844  23833211.7584                   23833217.5744
        36.2504         28.5004
  -4686078.76247  -3622187.11346  21946208.3834                   21946210.3444
        45.0004         41.7504
   7586823.32446   5890468.97745  24809719.6334                   24809726.3324
        40.5004         30.0004
  -7297134.49247  -5643903.52046  22914679.2584                   22914683.7074
        45.2504         38.7504
 05 12 23 17 37  0.0000000  0 10G10G08G15G16G18G23G24G27G29G32
  -2864869.80148  -2221276.43048  21489281.8284                   21489284.1454
        48.5004         48.5004
  -3047110.96146  -2337445.94143  24376617.5784                   24376619.8134
        36.2504         23.2504
   5605876.73447   4353642.89545  22822383.4924                   22822384.5904
        42.0004         34.5004
   3626642.89145   2810479.35542  24508979.2664                   24508982.0984
        35.2504         16.7504
   1269148.48047    987063.12146  21153654.8134                   21153654.9694
        47.0004         36.5004
   1539565.00047   1196563.63346  20728283.0784                   20728283.2154
        46.2504         37.5004
  -4696486.98046  -3640191.59844  23822454.2504                   23822460.1804
        37.0004         28.7504
  -4736790.48047  -3661702.73046  21936557.7114                   21936560.0594
        45.7504         41.7504
   7700305.19946   5978896.12545  24831314.1564                   24831321.3054
        39.5004         30.5004
  -7396554.14147  -5721373.26646  22895759.9384                   22895764.2504
        45.0004         38.7504
 05 12 23 17 37 30.0000000  0 10G10G08G15G16G18G23G24G27G29G32
  -2895967.44948  -2245508.34448  21483364.1954                   21483366.3634
        48.7504         48.5004
  -3138196.64545  -2408421.83244  24359283.2274                   24359287.1294
        35.7504         25.5004
   5699286.36347   4426429.54345  22840160.6954                   22840159.8984
        43.2504         34.5004
   3689154.66845   2859189.77342  24520875.7814                   24520877.8674
        34.7504         17.7504
   1298187.87547   1009691.16846  21159181.0864                   21159180.8204
        46.5004         36.2504
   1570225.07447   1220454.59046  20734117.5704                   20734117.5904
        45.7504         37.7504
  -4752651.30946  -3683955.96544  23811765.9614                   23811772.2974
        37.2504         29.2504
  -4786981.34047  -3700812.48047  21927006.7194                   21927008.8634
        45.5004         42.0004
   7813817.49646   6067346.98044  24852915.6414                   24852922.9924
        40.0004         29.5004
  -7495745.14147  -5798664.85246  22876884.8984                   22876888.7664
        45.5004         39.0004
 05 12 23 17 38  0.0000000  0 10G10G08G15G16G18G23G24G27G29G32
  -2926822.29748  -2269551.06248  21477492.7274                   21477494.8754
        49.0004         48.5004
  -3229003.32845  -2479180.21944  24342004.3754                   24342008.2384
        35.7504         27.0004
   5793007.70746   4499459.14145  22857992.0164                   22857994.3284
        40.7504         35.0004
   3751895.80945   2908078.94542  24532816.0864                   24532816.9344
        34.0004         17.7504
   1327543.50447   1032565.64546  21164767.4224                   21164767.6024
        46.5004         37.0004
   1601093.05947   1244507.55946  20739991.5704                   20739991.6604
        46.7504         37.5004
  -4808442.49246  -3727429.56244  23801149.6564                   23801155.4804
        38.0004         28.7504
  -4836647.46947  -3739513.34847  21917555.6804                   21917558.0744
        45.5004         42.0004
   7927359.74646   6155821.17644  24874521.7344                   24874529.6484
        38.5004         29.2504
  -7594702.93747  -5875774.72346  22858053.5864                   22858058.0204
        45.0004         38.5004
 05 12 23 17 38 30.0000000  0 10G10G08G15G16G18G23G24G27G29G32
  -2957431.26248  -2293402.19148  21471668.0864                   21471670.3244
        49.2504         48.5004
  -3319525.03146  -2549716.65243  24324778.5164                   24324780.6094
        37.5004         23.2504
   5887041.49647   4572732.12145  22875888.6724                   22875888.5744
        43.0004         34.7504
   3814866.62545   2957147.10943  24544798.4384                   24544800.1914
        35.0004         19.0004
   1357219.57047   1055689.80546  21170414.3364                   21170414.4454
        46.2504         36.5004
   1632171.37147   1268724.41046  20745905.3834                   20745905.3794
        46.0004         37.5004
  -4863854.01246  -3770607.32044  23790605.6954                   23790610.9414
        38.2504         29.2504
  -4885783.45747  -3777801.12547  21908205.2664                   21908207.5984
        45.5004         42.2504
   8040933.48046   6244319.91844  24896134.3914                   24896142.1604
        39.5004         29.5004
  -7693421.51247  -5952698.18746  22839267.7974                   22839271.9064
        44.2504         39.0004
 05 12 23 17 39  0.0000000  0 10G10G08G15G16G18G23G24G27G29G32
  -2987798.53548  -2317064.98448  21465889.1094                   21465891.4144
        49.0004         48.5004
  -3409762.66846  -2620031.70344  24307606.4694                   24307610.1374
        36.0004         27.0004
   5981381.35946   4646243.70745  22893838.6334                   22893841.0474
        40.7504         35.5004
   3878060.88345   3006389.36342  24556822.9534                   24556825.0164
        34.0004         17.2504
   1387213.05947   1079061.30946  21176121.9064                   21176121.9614
        45.5004         36.5004
   1663455.30147   1293101.47346  20751858.7814                   20751858.9064
        46.0004         37.2504
  -4918886.44546  -3813489.68744  23780132.7424                   23780138.6334
        38.2504         29.7504
  -4934391.19947  -3815677.27347  21898955.8524                   21898958.2114
        46.2504         42.2504
   8154532.84446   6332838.64144  24917751.4064                   24917759.6254
        38.7504         29.0004
  -7791901.95747  -6029436.11346  22820527.4534                   22820531.4774
        44.2504         38.2504
 05 12 23 17 39 30.0000000  0 10G10G08G15G16G18G23G24G27G29G32
  -3017921.99648  -2340537.80148  21460157.1174                   21460159.3054
        49.0004         48.5004
  -3499711.01646  -2690121.31643  24290489.3134                   24290492.0704
        36.0004         22.7504
   6076027.02046   4719993.47345  22911850.2664                   22911851.0634
        41.7504         34.0004
   3941478.41045   3055805.60943  24568889.8594                   24568893.3444
        34.5004         18.2504
   1417527.32047   1102682.76646  21181890.5784                   21181890.5514
        47.0004         36.0004
   1694946.44947   1317640.01646  20757851.4844                   20757851.3014
        47.5004         37.2504
  -4973534.16446  -3856072.26644  23769734.2274                   23769739.8834
        38.7504         29.2504
  -4982466.27047  -3853138.35947  21889807.0314                   21889809.2274
        46.0004         42.5004
   8268158.03146   6421377.48844  24939374.1484                   24939381.7624
        39.0004         28.2504
  -7890139.20747  -6105984.52746  22801833.8834                   22801837.9964
        44.5004         38.5004
 05 12 23 17 40  0.0000000  0 10G10G08G15G16G18G23G24G27G29G32
  -3047803.84048  -2363822.34048  21454470.6094                   21454472.7504
        49.7504         48.5004
  -3589369.14546  -2759984.80944  24273428.8444                   24273431.9344
        37.0004         26.7504
   6170974.47347   4793978.44945  22929918.8444                   22929919.7154
        43.0004         34.2504
   4005114.91045   3105392.40243  24581000.4774                   24581002.7424
        34.5004         18.5004
   1448161.41047   1126553.44546  21187720.0084                   21187720.0124
        46.0004         36.0004
   1726642.15647   1342337.96946  20763882.9224                   20763882.7344
        46.0004         37.5004
  -5027795.70346  -3898353.91844  23759407.9924                   23759413.9064
        38.7504         28.5004
  -5030008.50447  -3890184.24647  21880760.5234                   21880762.5824
        46.0004         42.7504
   8381805.30146   6509933.53544  24961000.4224                   24961008.8054
        39.2504         27.0004
  -7988132.37547  -6182342.76246  22783186.7504                   22783190.3754
        45.7504         39.0004
 05 12 23 17 40 30.0000000  0 10G10G08G15G16G18G23G24G27G29G32
  -3077445.49248  -2386919.71548  21448829.9144                   21448832.1024
        49.0004         48.5004
  -3678735.28946  -2829620.74644  24256423.4694                   24256425.1214
        38.0004         26.2504
   6266219.74246   4868195.50445  22948042.1724                   22948043.8524
        41.5004         34.5004
   4068966.26245   3155146.72742  24593151.0474                   24593153.0004
        34.7504         16.2504
   1479115.03947   1150673.11346  21193610.0944                   21193610.7114
        45.7504         36.2504
   1758540.37547   1367193.70746  20769952.6484                   20769953.1254
        46.0004         37.0004
  -5081669.01646  -3940333.05145  23749155.5784                   23749161.9574
        38.2504         30.0004
  -5077017.09447  -3926814.30947  21871814.5314                   21871816.8324
        46.0004         42.5004
   8495471.24646   6598504.13744  24982631.4774                   24982639.0824
        38.7504         27.5004
  -8085879.86347  -6258509.55946  22764585.3754                   22764589.5784
        44.7504         39.2504
 05 12 23 17 41  0.0000000  0 10G10G08G15G16G18G23G24G27G29G32
  -3106848.40248  -2409831.05548  21443234.8444                   21443236.9224
        49.0004         48.7504
  -3767807.72746  -2899027.90644  24239471.6484                   24239475.1254
        36.0004         25.0004
   6361759.06647   4942641.64845  22966223.2814                   22966224.7424
        42.0004         34.2504
   4133028.93445   3205065.61742  24605341.7894                   24605344.2114
        34.7504         17.2504
   1510387.97347   1175041.60246  21199561.4144                   21199561.5864
        47.0004         36.2504
   1790639.12547   1392205.70746  20776060.9694                   20776060.7814
        46.5004         38.0004
  -5135152.02046  -3982008.04345  23738977.8364                   23738984.8444
        38.0004         30.5004
  -5123491.27047  -3963027.94547  21862970.9774                   21862973.6564
        46.0004         42.5004
   8609152.57846   6687086.76244  25004264.0164                   25004271.5434
        38.2504         27.0004
  -8183380.18447  -6334483.76246  22746031.3444                   22746035.5594
        44.5004         39.0004
 05 12 23 17 41 30.0000000  0 10G10G08G15G16G18G23G24G27G29G32
  -3136013.52748  -2432557.11748  21437684.6174                   21437686.7734
        48.2504         48.7504
  -3856584.39546  -2968204.51644  24222579.0474                   24222582.1884
        37.7504         27.5004
   6457588.96947   5017314.21545  22984459.9844                   22984460.0594
        42.7504         34.0004
   4197299.30145   3255146.36342  24617572.1484                   24617575.0004
        35.2504         16.2504
   1541980.45747   1199659.08645  21205573.2974                   21205573.4344
        46.7504         35.7504
   1822937.03147   1417372.88746  20782207.0164                   20782207.1564
        47.2504         37.5004
  -5188242.17246  -4023376.89844  23728876.2114                   23728882.2774
        38.2504         29.5004
  -5169429.64147  -3998824.07047  21854229.4844                   21854231.2234
        46.5004         43.0004
   8722846.68446   6775679.32444  25025899.2664                   25025907.3674
        37.5004         25.5004
  -8280631.23047  -6410263.71946  22727525.4614                   22727529.2774
        45.2504         39.0004
 05 12 23 17 42  0.0000000  0 10G10G08G15G16G18G23G24G27G29G32
  -3164944.97348  -2455101.09048  21432179.3984                   21432181.2114
        49.7504         48.7504
  -3945065.99246  -3037151.25044  24205740.3914                   24205743.7194
        36.7504         25.0004
   6553703.41047   5092208.51645  23002750.1564                   23002750.1724
        42.2504         34.5004
   4261770.87945   3305383.93842  24629840.1174                   24629842.9494
        34.0004         17.7504
   1573889.50847   1224523.24646  21211645.1334                   21211645.6334
        46.5004         36.2504
   1855429.44147   1442691.62546  20788390.2344                   20788390.0164
        47.0004         37.2504
  -5240939.98846  -4064440.04745  23718847.1174                   23718853.3594
        38.5004         30.0004
  -5214834.11747  -4034204.17647  21845589.5314                   21845591.0904
        46.2504         43.0004
   8836547.80546   6864277.35944  25047535.7114                   25047544.1884
        38.0004         25.7504
  -8377634.06647  -6485850.28146  22709065.8914                   22709069.9454
        44.5004         40.0004
 05 12 23 17 42 30.0000000  0 10G10G08G15G16G18G23G24G27G29G32
  -3193633.85548  -2477456.05948  21426720.1334                   21426722.2464
        48.0004         48.7504
  -4033240.79746  -3105858.92644  24188962.8914                   24188965.0354
        38.2504         25.2504
   6650108.84047   5167329.56345  23021095.6414                   23021096.0514
        42.2504         33.7504
   4326450.46145   3355783.61342  24642148.4694                   24642151.7194
        34.5004         17.7504
   1606125.20747   1249641.94146  21217779.9384                   21217779.9694
        46.5004         36.2504
   1888124.69547   1468168.43046  20794611.7734                   20794611.8914
        45.5004         37.0004
  -5293233.23446  -4105187.94945  23708895.8754                   23708902.2424
        39.2504         30.2504
  -5259693.70747  -4069159.69547  21837052.5234                   21837054.7194
        46.5004         43.2504
   8950263.02346   6952886.37144  25069175.7894                   25069183.3484
        37.5004         25.7504
  -8474376.93747  -6561234.27046  22690656.5554                   22690660.5744
        44.0004         39.7504
 05 12 23 17 43  0.0000000  0 10G10G08G15G16G18G23G24G27G29G32
  -3222089.30548  -2499629.12148  21421305.2734                   21421307.3554
        50.0004         49.0004
  -4121114.53546  -3174331.95744  24172239.7344                   24172244.2234
        37.2504         25.0004
   6746794.07446   5242668.65645  23039492.6024                   23039494.6024
        41.2504         34.0004
   4391326.72745   3406336.48442  24654493.5394                   24654496.6134
        33.7504         17.7504
   1638679.63347   1275008.99246  21223974.4614                   21223974.8834
        46.7504         36.5004
   1921013.27047   1493795.87146  20800870.1484                   20800870.2304
        46.7504         37.2504
  -5345127.43746  -4145624.87944  23699020.8204                   23699026.9654
        39.7504         29.2504
  -5304015.20347  -4103695.91447  21828618.5004                   21828620.4694
        46.7504         43.2504
   9063981.52346   7041497.97344  25090815.7814                   25090823.6644
        36.7504         25.2504
  -8570865.84847  -6636420.36746  22672295.4384                   22672299.5354
        44.5004         39.5004
 05 12 23 17 43 30.0000000  0 10G10G08G15G16G18G23G24G27G29G32
  -3250313.46148  -2521621.96148  21415934.3134                   21415936.4024
        49.2504         49.0004
  -4208686.34746  -3242569.79044  24155576.5784                   24155578.8634
        39.0004         26.0004
   6843754.68447   5318222.28145  23057944.8524                   23057945.4924
        42.2504         33.5004
   4456394.89845   3457038.87143  24666877.1724                   24666879.4344
        35.5004         18.5004
   1671551.68047   1300623.53146  21230230.2424                   21230230.1764
        46.2504         36.7504
   1954092.45747   1519571.84446  20807165.5314                   20807165.2154
        46.5004         37.0004
  -5396621.28946  -4185749.86345  23689222.4924                   23689228.1994
        39.0004         31.0004
  -5347798.68047  -4137812.90247  21820286.6414                   21820289.0984
        46.0004         43.5004
   9177699.21146   7130108.92643  25112454.9774                   25112463.6174
        37.5004         22.7504
  -8667100.03147  -6711407.97746  22653982.7734                   22653986.5354
        44.2504         39.5004
 05 12 23 17 44  0.0000000  0 10G10G08G15G16G18G23G24G27G29G32
  -3278294.14548  -2543425.07848  21410609.6334                   21410611.6524
        49.5004         48.7504
  -4295940.96546  -3310560.38744  24138972.7974                   24138975.8634
        38.5004         27.5004
   6941000.51647   5393998.19545  23076450.5234                   23076450.4964
        42.7504         34.0004
   4521664.62545   3507898.35543  24679297.0704                   24679299.1094
        35.2504         18.5004
   1704754.82047   1326496.06346  21236548.3204                   21236548.5744
        46.5004         36.5004
   1987373.98447   1545505.48046  20813498.7424                   20813498.2384
        46.5004         36.5004
  -5447699.11746  -4225550.66845  23679502.0864                   23679508.1214
        39.0004         30.5004
  -5391029.74647  -4171499.44547  21812060.2734                   21812062.3834
        46.5004         43.2504
   9291426.93846   7218727.71943  25134097.4844                   25134105.1094
        37.2504         22.7504
  -8763064.25447  -6786185.22346  22635720.9614                   22635724.9694
        44.5004         39.5004
 05 12 23 17 44 30.0000000  0 10G10G08G15G16G18G23G24G27G29G32
  -3306043.06248  -2565047.59448  21405329.7974                   21405331.5784
        48.7504         48.7504
  -4382886.77746  -3378310.40244  24122426.7734                   24122429.8834
        39.0004         27.5004
   7038517.69546   5469985.54345  23095007.4064                   23095007.8914
        41.5004         33.0004
   4587122.05945   3558904.08242  24691753.1884                   24691755.9384
        35.5004         17.7504
   1738278.51647   1352618.37545  21242927.9144                   21242928.1024
        46.7504         35.7504
   2020845.69147   1571587.30946  20819868.2344                   20819867.6804
        47.7504         37.5004
  -5498369.25446  -4265033.75845  23669860.0164                   23669866.0084
        39.0004         30.2504
  -5433718.02747  -4204763.04747  21803936.7034                   21803939.2464
        46.2504         43.5004
   9405150.99246   7307343.60543  25155738.1094                   25155746.6374
        36.2504         22.5004
  -8858767.29747  -6860758.95346  22617509.3284                   22617513.4454
        44.2504         40.0004
 05 12 23 17 45  0.0000000  0 10G10G08G15G16G18G23G24G27G29G32
  -3333560.76648  -2586489.95748  21400092.8914                   21400094.8204
        48.5004         48.7504
  -4469521.42646  -3445817.93444  24105940.4534                   24105944.5744
        37.2504         27.5004
   7136303.30946   5546182.04345  23113614.1884                   23113615.2664
        40.0004         32.2504
   4652764.38746   3610053.92642  24704245.6414                   24704246.8984
        37.5004         16.7504
   1772123.23447   1378990.84446  21249368.3444                   21249368.1374
        46.0004         36.0004
   2054506.54747   1597816.51646  20826273.5944                   20826273.3404
        47.0004         37.5004
  -5548628.76646  -4304196.91445  23660295.7504                   23660301.8484
        39.2504         30.5004
  -5475861.91047  -4237602.43447  21795917.2274                   21795919.3524
        45.5004         43.5004
   9518869.06346   7395954.91843  25177378.7194                   25177386.4064
        37.5004         22.0004
  -8954206.74247  -6935127.28146  22599347.8364                   22599351.8754
        44.5004         40.2504
 05 12 23 17 45 30.0000000  0 10G10G08G15G16G18G23G24G27G29G32
  -3360846.52348  -2607751.57448  21394900.5004                   21394902.7544
        49.0004         48.5004
  -4555840.81646  -3513079.79344  24089515.0004                   24089518.5704
        38.0004         27.5004
   7234356.07446   5622586.70345  23132273.7424                   23132275.0274
        40.0004         34.0004
   4718589.83645   3661346.42643  24716770.7344                   24716772.8674
        35.5004         18.2504
   1806290.96947   1405615.01646  21255870.2894                   21255870.4494
        46.5004         36.0004
   2088356.87947   1624193.37546  20832714.8444                   20832715.0234
        47.5004         37.2504
  -5598473.44546  -4343036.80145  23650810.2034                   23650816.4024
        39.7504         30.5004
  -5517458.59447  -4270015.44147  21788001.2504                   21788003.7814
        45.7504         43.7504
   9632580.47745   7484561.01643  25199017.0704                   25199025.1214
        34.7504         20.5004
  -9049378.83247  -7009287.28146  22581236.7504                   22581240.8404
        44.0004         40.0004
 05 12 23 17 46  0.0000000  0 10G10G08G15G16G18G23G24G27G29G32
  -3387903.84048  -2628835.18748  21389751.6804                   21389753.6764
        49.5004         48.7504
  -4641845.51246  -3580096.46944  24073147.9774                   24073152.1484
        38.2504         28.2504
   7332670.00446   5699194.87945  23150982.1484                   23150983.6764
        41.0004         33.0004
   4784592.64546   3712777.17642  24729331.4384                   24729332.7624
        37.0004         16.7504
   1840779.28947   1432488.98045  21262433.0234                   21262433.3324
        46.5004         35.5004
   2122392.68447   1650714.76246  20839191.6884                   20839191.5594
        47.7504         37.2504
  -5647903.44146  -4381553.57445  23641404.3834                   23641410.1604
        40.2504         30.7504
  -5558509.46147  -4302003.12947  21780189.9844                   21780192.3054
        46.2504         43.7504
   9746279.79345   7573157.67643  25220653.6884                   25220661.6804
        35.5004         22.0004
  -9144284.14547  -7083239.39846  22563177.2034                   22563181.0634
        45.0004         40.7504
 05 12 23 17 46 30.0000000  0 10G10G08G15G16G18G23G24G27G29G32
  -3414731.56648  -2649739.89848  21384646.4224                   21384648.4844
        49.2504         48.7504
  -4727531.12546  -3646864.46144  24056842.8834                   24056846.9654
        38.0004         27.0004
   7431244.09446   5776005.79745  23169739.7974                   23169741.7624
        40.7504         33.0004
   4850771.71545   3764345.11342  24741923.4224                   24741926.8014
        33.5004         16.7504
   1875590.47347   1459614.53945  21269057.0394                   21269057.9064
        46.2504         35.7504
   2156614.69947   1677381.24646  20845704.0784                   20845703.9184
        46.2504         37.0004
  -5696914.16846  -4419743.64845  23632078.0004                   23632083.5314
        41.0004         31.5004
  -5599011.34447  -4333563.04347  21772483.1724                   21772484.7384
        46.2504         43.7504
   9859966.38346   7661744.43043  25242287.3444                   25242295.7774
        36.5004         21.7504
  -9238918.55147  -7156980.41846  22545168.7504                   22545172.4774
        44.7504         40.5004
 05 12 23 17 47  0.0000000  0 10G10G08G15G16G18G23G24G27G29G32
  -3441328.43448  -2670464.71548  21379585.3914                   21379587.4304
        49.0004         49.0004
  -4812893.26646  -3713380.41044  24040598.8444                   24040602.3244
        38.0004         28.5004
   7530077.28546   5853018.58645  23188548.1174                   23188549.1684
        41.5004         33.0004
   4917125.70346   3816049.49242  24754552.4454                   24754554.2664
        39.2504         16.7504
   1910726.92647   1486993.54345  21275743.6334                   21275743.8404
        46.0004         35.7504
   2191023.66847   1704193.39546  20852251.5704                   20852251.7544
        47.0004         37.0004
  -5745500.99646  -4457603.41445  23622831.8914                   23622837.7774
        40.7504         31.2504
  -5638960.90647  -4364692.58247  21764880.5554                   21764882.4144
        45.7504         43.7504
   9973639.74645   7750320.85243  25263919.0554                   25263927.3634
        34.5004         20.7504
  -9333277.85247  -7230507.08246  22527212.5164                   22527216.4224
        44.5004         41.0004
 05 12 23 17 47 30.0000000  0 10G10G08G15G16G18G23G24G27G29G32
  -3467694.84848  -2691009.96948  21374567.8594                   21374569.7344
        49.5004         49.0004
  -4897929.37946  -3779642.29344  24024417.7424                   24024421.5704
        39.0004         28.5004
   7629167.30547   5930231.49645  23207404.5704                   23207405.5664
        42.0004         32.5004
   4983651.93445   3867888.15642  24767209.7734                   24767213.4104
        33.5004         16.2504
   1946189.36747   1514626.58645  21282492.2034                   21282492.5084
        46.0004         35.5004
   2225618.88347   1731150.69546  20858835.1484                   20858835.2664
        47.5004         37.0004
  -5793660.85946  -4495130.47345  23613667.7034                   23613672.6454
        40.0004         30.5004
  -5678356.54747  -4395390.49247  21757383.9064                   21757386.2154
        46.0004         44.0004
  10087298.08245   7838885.57842  25285548.0234                   25285556.0234
        32.5004         17.7504
  -9427359.50447  -7303817.38746  22509309.1024                   22509313.4414
        45.0004         40.5004
 05 12 23 17 48  0.0000000  0 10G10G08G15G16G18G23G24G27G29G32
  -3493834.12148  -2711378.21548  21369593.6174                   21369596.1024
        49.2504         49.0004
  -4982639.42646  -3845650.14144  24008297.9064                   24008301.2704
        38.0004         28.7504
   7728508.64547   6007640.24245  23226308.1094                   23226309.5554
        42.0004         33.5004
   5050345.14146   3919856.73442  24779903.3134                   24779904.2814
        36.0004         16.7504
   1981975.59047   1542511.91445  21289301.6884                   21289302.2154
        45.2504         35.5004
   2260396.56347   1758250.16046  20865452.9694                   20865452.9144
        46.5004         37.0004
  -5841393.80546  -4532324.87145  23604584.2814                   23604589.3364
        40.5004         31.2504
  -5717199.60247  -4425657.82047  21749992.0474                   21749994.3134
        45.7504         43.7504
  10200936.48844   7927434.72742  25307172.1804                   25307182.0044
        29.5004         14.7504
  -9521163.88747  -7376911.62946  22491458.9614                   22491463.1054
        45.5004         40.7504
 05 12 23 17 48 30.0000000  0 10G10G08G15G16G18G23G24G27G29G32
  -3519743.25048  -2731567.13348  21364663.5704                   21364665.5164
        50.2504         49.0004
  -5067017.50446  -3911399.27044  23992241.0314                   23992244.4344
        38.0004         29.2504
   7828101.60546   6085245.04745  23245260.7194                   23245261.1374
        41.0004         33.0004
   5117205.55145   3971955.74642  24792624.2034                   24792628.4924
        35.2504         17.2504
   2018089.68847   1570652.73445  21296174.0864                   21296174.2304
        47.0004         35.5004
   2295359.32447   1785493.84446  20872106.1254                   20872106.2664
        47.2504         36.7504
  -5888693.42646  -4569181.62945  23595583.2504                   23595588.6254
        40.7504         30.5004
  -5755485.01647  -4455490.62147  21742706.8284                   21742709.1884
        46.7504         44.0004
  10314556.00414                  25328793.672
        26.750
  -9614684.98447  -7449785.14146  22473662.6484                   22473666.3404
        45.7504         41.0004
 05 12 23 17 49  0.0000000  0  9G10G08G15G16G18G23G24G27G32
  -3545431.03148  -2751583.57848  21359775.0004                   21359777.3714
        49.0004         49.0004
  -5151069.10746  -3976894.00244  23976246.2974                   23976249.9454
        38.2504         28.2504
   7927935.28146   6163037.45345  23264257.6024                   23264258.7274
        40.0004         32.7504
   5184222.10945   4024176.33642  24805376.0474                   24805380.7704
        33.2504         16.2504
   2054523.98047   1599043.04345  21303107.3284                   21303107.4344
        45.0004         35.5004
   2330497.88747   1812874.52346  20878792.8834                   20878792.9454
        46.2504         36.5004
  -5935565.16846  -4605704.95345  23586664.1334                   23586669.0234
        40.7504         31.0004
  -5793219.68747  -4484894.27747  21735526.2974                   21735528.2034
        46.5004         44.2504
  -9707928.76647  -7522442.55546  22455918.9694                   22455922.7304
        46.0004         41.0004
 05 12 23 17 49 30.0000000  0  9G10G08G15G16G18G23G24G27G32
  -3570896.00048  -2771426.39548  21354929.2894                   21354931.3364
        49.5004         49.0004
  -5234789.91446  -4042131.01644  23960314.4924                   23960318.2464
        38.7504         29.2504
   8028009.19946   6241017.05945  23283301.1484                   23283302.6334
        40.5004         32.5004
   5251393.79746   4076517.85242  24818161.6414                   24818162.8244
        37.5004         16.7504
   2091280.97747   1627684.81645  21310102.0474                   21310102.4884
        45.7504         35.2504
   2365813.34447   1840393.03946  20885513.0394                   20885513.5004
        46.5004         37.7504
  -5982004.30146  -4641891.19545  23577827.2504                   23577831.7624
        40.5004         31.0004
  -5830400.21547  -4513866.12547  21728450.9384                   21728453.3244
        45.7504         44.0004
  -9800890.82447  -7594880.44946  22438228.7894                   22438232.3134
        46.7504         41.5004
 05 12 23 17 50  0.0000000  0  9G10G08G15G16G18G23G24G27G32
  -3596126.44148  -2791086.46548  21350128.1804                   21350130.2624
        49.2504         49.0004
  -5318164.89146  -4107098.48844  23944449.7274                   23944451.8914
        39.0004         29.0004
   8128332.74246   6319191.14145  23302391.7194                   23302394.2074
        41.0004         33.0004
   5318730.25445   4128987.72742  24830973.8914                   24830976.7734
        35.7504         16.7504
   2128373.55147   1656588.06645  21317160.8204                   21317161.3984
        47.0004         35.0004
   2401317.08647   1868058.27346  20892269.4534                   20892269.5044
        47.5004         36.7504
  -6027995.70346  -4677728.53945  23569074.6174                   23569080.3674
        39.5004         31.2504
  -5867012.86747  -4542395.48847  21721483.7504                   21721485.9654
        45.7504         44.5004
  -9893556.41447  -7667087.33246  22420595.0704                   22420598.7504
        46.0004         41.7504
 05 12 23 17 50 30.0000000  0  9G10G08G15G16G18G23G24G27G32
  -3621118.54748  -2810560.81248  21345372.3284                   21345374.1994
        49.0004         48.7504
  -5401187.24246  -4171791.22744  23928650.3364                   23928654.1604
        37.0004         28.5004
   8228907.49246   6397560.94945  23321531.5704                   23321532.9574
        41.5004         32.7504
   5386232.96946   4181587.17642  24843820.2664                   24843822.1764
        36.2504         16.2504
   2165806.52047   1685756.57446  21324284.0634                   21324284.1604
        45.0004         36.0004
   2437012.45347   1895872.81346  20899062.3204                   20899062.1484
        45.5004         37.0004
  -6073532.37146  -4713211.54745  23560409.5864                   23560414.3524
        39.5004         31.5004
  -5903052.04747  -4570477.97747  21714625.7974                   21714627.8834
        46.5004         44.5004
  -9985918.99647  -7739058.10546  22403019.3594                   22403022.4734
        46.5004         41.5004
 05 12 23 17 51  0.0000000  0  9G10G08G15G16G18G23G24G27G32
  -3645870.94548  -2829848.38348  21340661.6484                   21340663.9804
        49.0004         48.7504
  -5483852.56246  -4236205.75445  23912920.2274                   23912923.3364
        38.2504         30.0004
   8329732.85946   6476126.06645  23340718.2894                   23340719.3404
        41.5004         32.0004
   5453900.64846   4234315.25442  24856696.9144                   24856700.0314
        36.5004         13.7504
   2203582.34047   1715192.22345  21331472.9454                   21331472.6374
        46.2504         35.7504
   2472900.44547   1923837.46146  20905891.7114                   20905891.0274
        47.2504         38.0004
  -6118609.54346  -4748336.48845  23551831.5314                   23551836.5434
        41.0004         31.2504
  -5938514.46947  -4598111.03947  21707877.3444                   21707879.3134
        45.2504         44.7504
 -10077974.18047  -7810789.33646  22385501.0164                   22385504.9104
        46.5004         41.7504
 05 12 23 17 51 30.0000000  0  9G10G08G15G16G18G23G24G27G32
  -3670387.20348  -2848951.94548  21335996.7344                   21335998.6094
        49.0004         48.5004
  -5566161.20346  -4300342.31244  23897257.2584                   23897260.2544
        37.7504         29.2504
   8430802.96146   6554881.92245  23359951.2114                   23359952.7774
        41.0004         31.2504
   5521727.49645   4287167.11742  24869603.1804                   24869607.4264
        34.5004         16.7504
   2241698.57447   1744893.13345  21338725.6414                   21338726.1334
        46.0004         35.7504
   2508977.21147   1951949.19946  20912756.4694                   20912756.3794
        47.7504         37.5004
  -6163227.58646  -4783103.70745  23543340.7894                   23543346.1884
        39.5004         31.5004
  -5973401.79347  -4625295.98447  21701238.6564                   21701241.0394
        45.5004         44.7504
 -10169722.67247  -7882281.60246  22368041.8594                   22368045.8874
        46.5004         41.7504
 05 12 23 17 52  0.0000000  0  9G10G08G15G16G18G23G24G27G32
  -3694674.17648  -2867876.84848  21331374.4924                   21331376.8754
        49.2504         49.0004
  -5648117.01646  -4364204.01244  23881660.7504                   23881664.7384
        36.7504         28.7504
   8532108.98847   6633821.56345  23379229.8834                   23379229.8054
        42.5004         31.7504
   5589704.53145   4340136.19142  24882539.1174                   24882542.3014
        35.7504         16.7504
   2280149.35547   1774854.73445  21346042.8834                   21346043.2274
        45.7504         35.0004
   2545235.46147   1980202.35546  20919656.3364                   20919656.1914
        47.2504         37.0004
  -6207390.09446  -4817515.94145  23534936.8674                   23534942.0784
        40.7504         31.2504
  -6007719.07847  -4652036.73847  21694707.9304                   21694710.4144
        45.0004         44.7504
 -10261168.39847  -7953537.93046  22350640.3524                   22350644.0394
        45.7504         41.7504
 05 12 23 17 52 30.0000000  0  9G10G08G15G16G18G23G24G27G32
  -3718738.25848  -2886628.07048  21326795.6174                   21326797.6764
        49.5004         49.0004
  -5729723.28546  -4427793.29744  23866132.4534                   23866136.5004
        37.5004         29.5004
   8633641.90646   6712938.02045  23398550.5164                   23398551.4104
        41.7504         31.5004
   5657822.84846   4393215.28942  24895502.6334                   24895504.8554
        36.0004         16.2504
   2318929.33647   1805072.84045  21353422.5784                   21353422.7344
        46.5004         35.0004
   2581668.42247   2008591.64146  20926589.2274                   20926589.5514
        47.5004         36.5004
  -6251100.23846  -4851575.72745  23526619.2274                   23526624.2854
        40.2504         31.0004
  -6041470.92647  -4678336.89547  21688285.5634                   21688287.6094
        45.0004         44.5004
 -10352314.89147  -8024561.10247  22333295.9924                   22333299.4734
        46.2504         42.0004
 05 12 23 17 53  0.0000000  0  9G10G08G15G16G18G23G24G27G32
  -3742586.32048  -2905210.97348  21322257.6254                   21322259.4774
        49.5004         49.0004
  -5810983.97346  -4491113.30544  23850668.8834                   23850672.4024
        37.7504         28.7504
   8735392.91447   6792224.40645  23417913.6254                   23417913.8874
        42.2504         31.7504
   5726073.11745   4446397.41442  24908488.4144                   24908492.8284
        35.0004         16.7504
   2358032.73447   1835542.97745  21360863.8444                   21360863.6684
        46.0004         35.5004
   2618268.90248   2037111.46946  20933553.9924                   20933554.1254
        48.0004         36.5004
  -6294361.65646  -4885285.84844  23518386.3674                   23518391.4804
        39.5004         29.5004
  -6074662.41047  -4704200.41047  21681969.3834                   21681971.6604
        46.0004         44.5004
 -10443166.20347  -8095354.24247  22316007.3134                   22316010.7624
        46.0004         42.0004
 05 12 23 17 53 30.0000000  0  9G10G08G15G16G18G23G24G27G32
  -3766216.02748  -2923623.72348  21317760.8054                   21317763.3364
        49.7504         49.0004
  -5891893.47746  -4554159.64544  23835272.3284                   23835276.3984
        36.7504         29.2504
   8837362.14146   6871680.85945  23437316.8914                   23437317.9454
        41.2504         31.7504
   5794455.85545   4499682.37542  24921501.8284                   24921506.5904
        33.0004         17.2504
   2397462.90247   1866267.74245  21368366.9614                   21368367.2704
        45.5004         34.7504
   2655038.94147   2065763.43446  20940551.2974                   20940551.1604
        47.7504         37.2504
  -6337168.72746  -4918641.93745  23510240.2114                   23510245.4884
        39.2504         30.5004
  -6107289.36347  -4729624.03147  21675760.3134                   21675762.9144
        45.5004         44.2504
 -10533717.03147  -8165913.25047  22298775.7274                   22298779.5744
        46.5004         42.2504
 05 12 23 17 54  0.0000000  0  9G10G08G15G16G18G23G24G27G32
  -3789629.75448  -2941868.18048  21313305.6644                   21313307.1214
        49.7504         48.7504
  -5972451.24246  -4616931.95745  23819942.4304                   23819946.2074
        37.7504         31.5004
   8939545.10546   6951303.83245  23456761.5554                   23456762.9924
        41.7504         32.0004
   5862966.05945   4553066.95342  24934539.1564                   24934543.6724
        34.0004         16.2504
   2437218.42247   1897246.01645  21375932.2344                   21375932.6254
        46.0004         35.7504
   2691975.72747   2094545.32846  20947580.2114                   20947580.1644
        47.2504         36.7504
  -6379520.80146  -4951643.48045  23502181.3134                   23502186.5274
        39.5004         31.5004
  -6139352.48847  -4754608.28947  21669659.4774                   21669661.5434
        45.5004         44.2504
 -10623967.00047  -8236237.82047  22281602.2584                   22281605.7814
        46.0004         42.0004
 05 12 23 17 54 30.0000000  0  9G10G08G15G16G18G23G24G27G32
  -3812830.49248  -2959946.66848  21308890.5394                   21308892.9884
        50.2504         48.7504
  -6052657.18046  -4679430.07444  23804679.8524                   23804683.5234
        37.0004         29.7504
   9041937.08246   7031089.66045  23476246.3834                   23476247.6604
        41.5004         31.7504
   5931598.20345   4606546.46942  24947599.9844                   24947603.4144
        35.5004         16.7504
   2477297.38747   1928476.33645  21383559.0944                   21383559.3754
        46.5004         35.0004
   2729076.00447   2123454.61346  20954640.1884                   20954640.0004
        47.7504         37.0004
  -6421417.46946  -4984290.16845  23494207.9774                   23494213.6174
        40.0004         32.2504
  -6170853.00847  -4779154.17247  21663664.9774                   21663667.2074
        45.5004         44.2504
 -10713916.16847  -8306327.99647  22264485.3444                   22264488.6994
        46.5004         42.0004
 05 12 23 17 55  0.0000000  0  9G10G08G15G16G18G23G24G27G32
  -3835818.31248  -2977859.25448  21304516.2664                   21304517.9224
        50.0004         48.7504
  -6132508.48046  -4741651.88744  23789484.3594                   23789488.3204
        36.5004         29.0004
   9144535.12947   7111036.07045  23495769.8674                   23495771.5004
        42.0004         32.0004
   6000350.00046   4660119.15642  24960684.4384                   24960685.9224
        37.7504         14.7504
   2517700.65647   1959959.34845  21391247.7664                   21391247.6994
        47.2504         35.5004
   2766339.25047   2152490.87946  20961731.1564                   20961731.1604
        47.5004         36.7504
  -6462855.91446  -5016579.78945  23486322.7664                   23486328.3284
        39.2504         32.2504
  -6201789.35947  -4803260.43747  21657778.2974                   21657780.0554
        46.2504         44.5004
 -10803561.87147  -8376181.71147  22247426.0314                   22247429.5594
        46.5004         42.5004
 05 12 23 17 55 30.0000000  0  9G10G08G15G16G18G23G24G27G32
  -3858596.48048  -2995608.47748  21300181.6564                   21300183.5944
        50.5004         48.7504
  -6212005.10946  -4803597.29744  23774357.1174                   23774360.4384
        37.2504         28.7504
   9247334.02747   7191138.97345  23515332.5004                   23515334.0204
        42.2504         32.0004
   6069215.80946   4713780.73442  24973788.1564                   24973791.0944
        36.2504         16.2504
   2558426.00447   1991693.34045  21398997.3594                   21398997.9024
        46.5004         34.7504
   2803761.99647   2181651.42646  20968852.3914                   20968852.2704
        47.7504         36.5004
  -6503836.01246  -5048512.27045  23478524.8364                   23478529.4694
        40.5004         32.5004
  -6232163.05947  -4826928.27747  21651998.0634                   21652000.4454
        45.2504         44.2504
 -10892904.47347  -8445799.23847  22230424.8834                   22230427.9494
        46.7504         42.7504
 05 12 23 17 56  0.0000000  0  9G10G08G15G16G18G23G24G27G32
  -3881163.87548  -3013193.46148  21295887.1724                   21295889.1644
        50.7504         48.7504
  -6291143.17246  -4865263.33245  23759297.4224                   23759301.5474
        38.2504         30.5004
   9350332.99646   7271397.79345  23534932.3984                   23534933.4964
        41.0004         32.2504
   6138194.31345   4767530.09442  24986914.3674                   24986917.8554
        35.0004         15.5004
   2599475.57847   2023679.96545  21406809.1414                   21406809.4924
        45.7504         34.7504
   2841345.00847   2210936.85246  20976004.2504                   20976004.0864
        47.0004         37.0004
  -6544353.67646  -5080084.39845  23470814.1024                   23470818.9924
        39.5004         32.0004
  -6261971.33647  -4850155.52347  21646325.3054                   21646327.9304
        46.7504         44.5004
 -10981940.03147  -8515177.51647  22213482.2424                   22213485.5784
        47.5004         43.0004
 05 12 23 17 56 30.0000000  0  9G10G08G15G16G18G23G24G27G32
  -3903519.14148  -3030613.14548  21291632.9144                   21291634.9534
        50.0004         49.0004
  -6369918.12146  -4926646.42645  23744307.0164                   23744310.4024
        36.0004         30.0004
   9453531.12947   7351811.82045  23554570.5784                   23554572.2344
        42.2504         33.0004
   6207284.86346   4821366.84842  25000061.8524                   25000066.0274
        37.0004         16.2504
   2640851.63347   2055921.00045  21414682.6334                   21414683.3364
        46.5004         35.5004
   2879089.32048   2240347.96546  20983186.6174                   20983186.8914
        48.2504         36.5004
  -6584404.40646  -5111292.67245  23463193.0394                   23463198.1884
        40.2504         33.0004
  -6291211.25447  -4872939.88347  21640761.7734                   21640763.7814
        46.7504         44.5004
 -11070664.41447  -8584313.31647  22196597.8834                   22196601.3054
        47.5004         43.5004
 05 12 23 17 57  0.0000000  0  9G10G08G15G16G18G23G24G27G32
  -3925671.13348  -3047874.43048  21287417.6724                   21287419.7624
        51.2504         49.0004
  -6448335.85946  -4987751.15645  23729384.1254                   23729388.6484
        37.7504         31.0004
   9556917.42246   7432372.42645  23574243.9924                   23574246.0354
        40.7504         31.5004
   6276476.26646   4875282.18842  25013229.0634                   25013232.9694
        37.7504         15.5004
   2682546.34447   2088410.33245  21422616.7584                   21422617.4224
        46.7504         35.2504
   2916985.81347   2269877.65646  20990397.9534                   20990398.2384
        47.7504         37.0004
  -6623993.95346  -5142141.61745  23455659.1414                   23455664.2854
        39.5004         31.5004
  -6319890.00847  -4895286.98847  21635304.1954                   21635306.2544
        46.0004         44.5004
 -11159083.68047  -8653211.36347  22179772.2584                   22179776.0204
        47.5004         43.5004
 05 12 23 17 57 30.0000000  0  9G10G08G15G16G18G23G24G27G32
  -3947613.97348  -3064972.74248  21283242.1484                   21283244.4614
        50.0004         49.0004
  -6526387.53946  -5048570.66045  23714531.8284                   23714535.1844
        39.0004         30.7504
   9660495.73847   7513082.64545  23593955.6024                   23593956.3484
        42.7504         31.5004
   6345771.89146   4929278.63342  25026415.3054                   25026420.0864
        37.0004         15.5004
   2724566.53147   2121153.28545  21430613.1094                   21430613.4494
        47.2504         35.5004
   2955040.07848   2299530.30146  20997639.7114                   20997640.0084
        48.0004         36.7504
  -6663113.39146  -5172624.22745  23448214.3914                   23448219.6024
        39.5004         32.5004
  -6348000.18047  -4917191.03147  21629955.3204                   21629957.0314
        46.7504         44.5004
 -11247189.09447  -8721864.85547  22163006.6804                   22163009.7154
        47.5004         43.5004
 05 12 23 17 58  0.0000000  0  9G10G08G15G16G18G23G24G27G32
  -3969348.48448  -3081908.71148  21279106.1954                   21279107.8094
        50.0004         49.0004
  -6604071.04746  -5109103.25845  23699749.9844                   23699753.5744
        39.0004         31.0004
   9764263.12146   7593940.24245  23613700.5084                   23613702.8794
        41.5004         31.5004
   6415168.90246   4983354.14142  25039621.4924                   25039625.2344
        36.7504         14.7504
   2766912.30947   2154149.94545  21438670.9224                   21438672.0394
        46.5004         35.5004
   2993250.94148   2329304.95746  21004911.1884                   21004911.6564
        48.2504         36.5004
  -6701760.50846  -5202738.78945  23440860.1644                   23440865.7624
        39.2504         31.7504
  -6375541.01647  -4938651.44147  21624714.2194                   21624716.1054
        46.7504         44.5004
 -11334978.76248  -8790272.30947  22146300.2814                   22146303.4224
        48.0004         44.0004
 05 12 23 17 58 30.0000000  0  9G10G08G15G16G18G23G24G27G32
  -3990876.57448  -3098683.84048  21275009.4694                   21275011.6334
        50.5004         49.0004
  -6681385.13746  -5169348.03145  23685037.5554                   23685041.1134
        38.7504         30.2504
   9868215.69546   7674942.10545  23633481.5084                   23633483.9844
        40.0004         30.5004
   6484662.83246   5018006.14152  25052845.4774                   25052846.7424
        36.0004         17.2504
   2809582.73047   2187399.56645  21446791.1644                   21446791.6644
        46.2504         34.5004
   3031616.30548   2359200.01646  21012212.0474                   21012212.4064
        48.0004         37.2504
  -6739934.10246  -5232484.36745  23433595.5864                   23433601.1094
        39.0004         32.0004
  -6402512.86347  -4959668.48047  21619581.7504                   21619583.6024
        46.2504         44.7504
 -11422451.79348  -8858433.04347  22129654.9774                   22129658.0004
        48.0004         43.7504
 05 12 23 17 59  0.0000000  0  9G10G08G15G16G18G23G24G27G32
  -4012195.79348  -3115296.21548  21270952.5004                   21270955.0554
        50.5004         49.0004
  -6758324.56646  -5229300.81245  23670396.3524                   23670400.0514
        40.2504         30.2504
   9972353.67246   7756088.44145  23653299.2114                   23653300.9534
        41.7504         31.0004
   6554253.907 6                  25066089.414
        38.000
   2852581.16047   2220904.77745  21454973.3674                   21454973.9734
        47.7504         35.0004
   3070138.23448   2389217.08246  21019542.4534                   21019542.5784
        48.0004         37.2504
  -6777628.81246  -5261856.78145  23426423.0704                   23426427.9064
        38.7504         31.5004
  -6428911.81247  -4980239.11747  21614558.1724                   21614560.4384
        47.0004         44.7504
 -11509602.96948  -8926342.97747  22113070.5394                   22113073.8364
        48.5004         44.0004
 05 12 23 17 59 30.0000000  0  9G10G08G15G16G18G23G24G27G32
  -4033307.36348  -3131746.78948  21266935.4304                   21266937.2504
        51.0004         49.0004
  -6834887.49646  -5288960.27045  23655826.2974                   23655830.5554
        39.0004         30.5004
  10076673.57446   7837376.53145  23673151.1414                   23673152.9694
        41.2504         31.2504
   6623938.199 5                  25079348.164
        34.750
   2895907.34047   2254665.38345  21463218.2194                   21463218.6604
        46.5004         35.5004
   3108815.33247   2419355.04346  21026902.7664                   21026902.5824
        47.5004         37.0004
  -6814842.80146  -5290854.62545  23419341.9064                   23419346.5164
        40.0004         32.0004
  -6454737.54747  -5000363.08647  21609643.6094                   21609645.8244
        45.7504         45.0004
 -11596430.78148  -8994000.93747  22096547.8204                   22096551.0204
        48.2504         44.0004
 05 12 23 18  0  0.0000000  0  9G10G08G15G16G18G23G24G27G32
  -4054210.16848  -3148034.68448  21262957.3674                   21262959.2544
        51.0004         49.0004
  -6911069.89846  -5348323.16445  23641329.3984                   23641332.7304
        39.5004         30.0004
  10181174.62146   7918805.79344  23693035.6564                   23693038.8204
        40.0004         29.5004
   6693714.910 5                  25092623.734
        33.000
   2939563.23447   2288682.91045  21471525.7974                   21471526.0984
        47.5004         35.0004
   3147648.38347   2449614.52746  21034292.0234                   21034292.2424
        47.5004         37.5004
  -6851572.00046  -5319474.70745  23412351.6334                   23412357.0394
        39.0004         32.5004
  -6479987.51247  -5020038.40647  21604838.8524                   21604840.9384
        46.0004         44.7504
 -11682931.32848  -9061403.88347  22080087.3594                   22080089.9264
        48.5004         44.2504
 05 12 23 18  0 30.0000000  0  9G10G08G15G16G18G23G24G27G32
  -4074909.28148  -3164163.85948  21259018.5234                   21259020.8204
        50.5004         49.0004
  -6986873.96146  -5407391.28545  23626904.4774                   23626908.4964
        40.0004         30.7504
  10285849.33646   8000370.36344  23712955.3594                   23712958.5164
        39.2504         29.5004
   6763576.566 5                  25105919.953
        34.750
   2983544.66047   2322954.08245  21479895.5004                   21479896.0514
        47.0004         35.2504
   3186631.98847   2479991.33246  21041710.7584                   21041710.6564
        47.5004         37.5004
  -6887818.64846  -5347718.77345  23405455.1804                   23405459.5704
        40.5004         33.0004
  -6504665.40647  -5039267.96547  21600142.6254                   21600145.0354
        45.0004         45.0004
 -11769107.05147  -9128553.73047  22063688.3364                   22063691.2774
        47.5004         44.5004
 05 12 23 18  1  0.0000000  0  9G10G08G15G16G18G23G24G27G32
  -4095403.37548  -3180133.28948  21255118.6564                   21255120.8164
        50.5004         49.0004
  -7062295.31246  -5466161.18745  23612552.7034                   23612555.9104
        39.7504         30.7504
  10390697.29747   8082069.90645  23732909.6414                   23732910.2234
        42.5004         30.5004
   6833522.320 5                  25119231.492
        35.250
   3027853.93447   2357480.73845  21488326.8444                   21488327.3794
        47.7504         35.0004
   3225767.37147   2510486.40246  21049157.9304                   21049157.6604
        47.5004         37.0004
  -6923578.26646  -5375583.35945  23398648.8984                   23398654.7854
        38.5004         32.7504
  -6528768.32047  -5058049.46947  21595556.0784                   21595558.2894
        45.5004         45.0004
 -11854953.78148  -9195447.22347  22047352.5634                   22047355.4264
        48.5004         44.7504
 05 12 23 18  1 30.0000000  0  9G10G08G15G16G18G23G24G27G32
  -4115691.29348  -3195942.05148  21251258.1254                   21251260.2114
        50.5004         49.0004
  -7137329.89546  -5524629.67645  23598273.6804                   23598277.8244
        40.5004         31.2504
  10495717.67246   8163903.85244  23752892.7584                   23752894.7074
        41.0004         29.7504
   6903550.69946   5101726.75452  25132559.3134                   25132559.6914
        37.5004         16.2504
   3072493.06647   2392264.41445  21496821.5864                   21496821.9344
        47.5004         35.0004
   3265055.40647   2541100.42646  21056634.0084                   21056633.9414
        47.2504         37.0004
  -6958846.94546  -5403065.37145  23391938.8204                   23391942.9694
        39.5004         32.7504
  -6552293.80947  -5076381.04347  21591079.3054                   21591081.4844
        45.5004         44.7504
 -11940467.70347  -9262081.38747  22031079.5784                   22031082.5234
        47.7504         45.0004
 05 12 23 18  2  0.0000000  0  9G10G08G15G16G18G23G24G27G32
  -4135775.42648  -3211592.02748  21247435.9534                   21247438.5744
        50.5004         49.0004
  -7211977.24646  -5582796.43745  23584068.4844                   23584072.3404
        39.5004         31.5004
  10600905.87546   8245868.50444  23772909.9224                   23772911.7774
        41.2504         28.7504
   6973657.230 6                  25145899.227
        36.000
   3117460.46947   2427303.87545  21505378.6644                   21505379.1334
        47.7504         34.2504
   3304493.37947   2571831.28546  21064138.6024                   21064139.0274
        47.0004         37.0004
  -6993624.14846  -5430164.41845  23385320.6334                   23385325.1024
        38.5004         33.2504
  -6575242.94147  -5094263.50447  21586712.1724                   21586714.5664
        45.0004         44.5004
 -12025648.56248  -9328456.01647  22014870.0634                   22014873.1724
        48.0004         45.0004
 05 12 23 18  2 30.0000000  0  9G10G08G15G16G18G23G24G27G32
  -4155657.41048  -3227084.47748  21243652.6954                   21243655.0164
        50.5004         49.0004
  -7286236.03546  -5640660.42645  23569937.6484                   23569941.3324
        39.2504         30.7504
  10706258.06346   8327960.99644  23792957.8054                   23792960.0634
        41.2504         29.5004
                                  25159251.4144                   25159256.2974
        32.5004         16.2504
   3162755.44547   2462598.59045  21513998.2504                   21513998.5394
        47.5004         34.5004
   3344079.49247   2602677.57046  21071671.7114                   21071671.7854
        47.0004         37.0004
  -7027908.55146  -5456879.48045  23378795.7504                   23378800.8324
        39.0004         33.2504
  -6597615.91047  -5111697.00447  21582454.5314                   21582456.8714
        44.5004         44.5004
 -12110495.19948  -9394570.22347  21998724.0704                   21998727.1214
        48.7504         45.0004
 05 12 23 18  3  0.0000000  0  9G10G08G15G16G18G23G24G27G32
  -4175339.01248  -3242420.79348  21239907.3594                   21239909.3164
        48.7504         49.0004
  -7360105.21146  -5698220.83245  23555880.8914                   23555884.9494
        39.5004         31.5004
  10811770.81346   8410178.57044  23813035.2504                   23813038.4344
        40.5004         28.5004
   7114089.01645   5236273.28542  25172622.2814                   25172626.1844
        34.0004         15.5004
   3208377.03947   2498147.82045  21522679.6414                   21522680.1644
        47.0004         34.5004
   3383811.66447   2633637.67246  21079232.5554                   21079232.6644
        47.5004         37.0004
  -7061699.25446  -5483209.85245  23372365.5784                   23372370.7704
        39.5004         33.2504
  -6619413.31647  -5128682.01647  21578306.9614                   21578309.0784
        44.2504         44.7504
 -12195006.84447  -9460423.38747  21982642.1484                   21982645.2664
        47.7504         45.0004
 05 12 23 18  3 30.0000000  0  9G10G08G15G16G18G23G24G27G32
  -4194818.55548  -3257599.65248  21236200.8674                   21236202.7584
        50.5004         49.0004
  -7433580.16446  -5755474.03145  23541899.0704                   23541902.6884
        39.7504         31.7504
  10917443.64546   8492520.90645  23833145.5784                   23833147.4384
        41.7504         30.7504
   7184409.461 5                  25186003.797
        35.250
   3254327.80947   2533953.53945  21531423.8284                   21531424.2274
        47.5004         34.5004
   3423691.44947   2664712.80146  21086821.6804                   21086821.4384
        47.0004         36.7504
  -7094991.60946  -5509151.88745  23366030.2664                   23366035.1374
        39.7504         33.2504
  -6640632.03947  -5145216.09847  21574269.1724                   21574271.5354
        45.5004         44.7504
 -12279179.00047  -9526012.03147  21966625.0164                   21966628.1134
        47.5004         45.0004
 05 12 23 18  4  0.0000000  0  9G10G08G15G16G18G23G24G27G32
  -4214096.21548  -3272621.20348  21232531.9924                   21232533.8634
        50.2504         49.2504
  -7506658.24646  -5812417.98045  23527992.9454                   23527996.4884
        39.5004         32.0004
  11023273.52346   8574985.61344  23853284.6024                   23853286.0634
        41.0004         28.0004
   7254796.945 5                  25199396.719
        32.750
   3300608.35947   2570016.24645  21540230.7504                   21540231.4224
        47.7504         35.0004
   3463718.32847   2695902.53546  21094438.1564                   21094438.6294
        47.0004         36.7504
  -7127783.03546  -5534703.57845  23359790.2274                   23359795.6214
        39.5004         32.7504
  -6661271.17647  -5161298.55547  21570341.6414                   21570344.3674
        45.7504         45.2504
 -12363009.35948  -9591334.33647  21950672.4224                   21950675.5594
        48.5004         45.2504
 05 12 23 18  4 30.0000000  0  9G10G08G15G16G18G23G24G27G32
  -4233173.26248  -3287486.42648  21228902.0234                   21228904.1604
        49.5004         49.2504
  -7579337.82446  -5869051.42245  23514162.3284                   23514165.6334
        39.5004         32.5004
  11129258.00846   8657570.74645  23873452.8754                   23873454.7934
        41.2504         30.0004
   7325247.871 6                  25212805.375
        36.500
   3347218.29747   2606335.61345  21549100.2974                   21549100.9924
        47.0004         34.0004
   3503890.93447   2727205.83246  21102083.1334                   21102083.2114
        46.5004         37.0004
  -7160071.97346  -5559863.73445  23353646.7034                   23353650.8674
        39.2504         33.0004
  -6681330.55147  -5176929.25847  21566523.8524                   21566526.7854
        44.7504         45.2504
 -12446496.42247  -9656389.14147  21934785.0314                   21934787.9614
        47.7504         45.0004
 05 12 23 18  5  0.0000000  0  9G10G08G15G16G18G23G24G27G32
  -4252052.54748  -3302197.55148  21225309.5944                   21225311.2154
        50.5004         49.5004
  -7651618.97746  -5925374.37545  23500407.6254                   23500411.4924
        39.5004         32.2504
  11235392.00046   8740272.41444  23893649.0864                   23893651.2234
        40.5004         28.0004
   7395757.023 5                  25226221.898
        34.250
   3394155.55547   2642910.03145  21558032.3204                   21558033.0354
        47.0004         35.0004
   3544206.13747   2758620.24646  21109754.8364                   21109755.2464
        46.7504         36.5004
  -7191858.63746  -5584632.52045  23347597.3204                   23347602.0004
        40.2504         32.7504
  -6700811.97347  -5192109.59847  21562817.2974                   21562819.8984
        46.2504         45.5004
 -12529640.45747  -9721176.64847  21918963.0944                   21918966.3094
        47.5004         45.0004
 05 12 23 18  5 30.0000000  0  9G10G08G15G16G18G23G24G27G32
  -4270731.45748  -3316752.54748  21221755.0864                   21221756.9964
        50.5004         49.5004
  -7723496.20346  -5981382.62945  23486729.3284                   23486733.9494
        40.0004         32.0004
  11341676.15646   8823091.08244  23913874.6884                   23913876.6914
        40.0004         28.5004
   7466324.930 5                  25239650.875
        32.750
   3441423.55547   2679742.18445  21567027.1024                   21567027.6174
        47.5004         34.5004
   3584666.41047   2790147.69146  21117453.8984                   21117454.3524
        46.5004         36.0004
  -7223137.46546  -5609005.57845  23341644.8444                   23341650.0044
        39.5004         32.5004
  -6719711.57447  -5206836.57847  21559220.9774                   21559223.1174
        46.2504         45.7504
 -12612436.25048  -9785692.80547  21903207.7664                   21903210.8484
        48.0004         45.0004
 05 12 23 18  6  0.0000000  0  9G10G08G15G16G18G23G24G27G32
  -4289213.71148  -3331154.29748  21218237.8364                   21218239.8874
        50.7504         49.2504
  -7794970.37546  -6037076.77745  23473129.8364                   23473132.3954
        40.0004         32.2504
  11448104.58646   8906022.14544  23934127.5314                   23934129.5594
        40.7504         29.5004
   7536945.457 5                  25253090.211
        35.000
   3489019.33647   2716829.73845  21576084.2194                   21576084.5394
        47.5004         34.7504
   3625267.80547   2821785.10946  21125180.3984                   21125180.2154
        46.7504         36.2504
  -7253909.69146  -5632983.87945  23335788.7664                   23335793.9844
        39.5004         32.2504
  -6738031.94547  -5221112.21947  21555734.4064                   21555737.2624
        46.0004         45.5004
 -12694884.92648  -9849938.48847  21887518.1484                   21887521.3674
        48.2504         45.0004
 05 12 23 18  6 30.0000000  0  9G10G08G15G16G18G23G24G27G32
  -4307496.47348  -3345400.59848  21214758.7424                   21214760.9104
        49.5004         49.2504
  -7866035.99646  -6092452.58645  23459605.5234                   23459609.4884
        40.0004         32.7504
  11554678.18046   8989066.35944  23954408.1724                   23954410.0864
        40.5004         28.0004
   7607619.129 5                  25266537.344
        33.000
   3536946.49647   2754175.51245  21585204.7424                   21585205.4184
        47.0004         34.7504
   3666012.90247   2853534.50846  21132933.7194                   21132934.5514
        46.0004         36.7504
  -7284169.66046  -5656563.02045  23330030.9844                   23330035.3094
        40.7504         32.0004
  -6755769.14147  -5234933.42647  21552359.6024                   21552361.9184
        44.5004         45.5004
 -12776981.03547  -9913909.44147  21871895.9384                   21871898.7544
        46.5004         45.2504
 05 12 23 18  7  0.0000000  0  9G10G08G15G16G18G23G24G27G32
  -4325584.07848  -3359494.84448  21211316.8984                   21211319.0124
        49.2504         49.5004
  -7936694.42646  -6147511.10945  23446159.4454                   23446163.6254
        39.7504         32.2504
  11661390.58246   9072218.74644  23974714.6884                   23974716.5394
        39.7504         27.7504
   7678339.367 5                  25279996.781
        33.750
   3585201.51647   2791776.75445  21594387.1564                   21594387.9734
        47.5004         34.5004
   3706897.29347   2885392.43446  21140714.0474                   21140714.3594
        45.5004         36.2504
  -7313919.00446  -5679744.27345  23324369.1334                   23324374.7234
        39.5004         32.5004
  -6772926.32047  -5248302.68047  21549094.5234                   21549096.7814
        45.5004         46.0004
 -12858726.32447  -9977607.03147  21856340.3284                   21856343.5004
        46.5004         45.2504
 05 12 23 18  7 30.0000000  0  9G10G08G15G16G18G23G24G27G32
  -4343474.77048  -3373435.64548  21207912.3444                   21207914.0744
        50.5004         49.5004
  -8006941.20746  -6202248.87945  23432792.3134                   23432796.1054
        40.2504         32.2504
  11768241.57446   9155479.09444  23995047.4774                   23995049.7774
        38.5004         28.0004
   7749105.648 5                  25293461.023
        32.000
   3633786.85947   2829635.40645  21603632.5314                   21603633.2734
        47.2504         34.2504
   3747922.44547   2917360.03146  21148520.8364                   21148520.9454
        45.5004         36.7504
  -7343153.40246  -5702524.23845  23318806.6564                   23318811.2814
        38.7504         31.0004
  -6789500.74647  -5261217.84047  21545940.5634                   21545942.5984
        47.0004         46.0004
 -12940116.51247 -10041027.92247  21840852.1884                   21840855.5434
        47.2504         45.2504
 05 12 23 18  8  0.0000000  0  9G10G08G15G16G18G23G24G27G32
  -4361171.81248  -3387225.55548  21204544.7424                   21204546.7034
        49.7504         49.2504
  -8076776.84846  -6256666.27045  23419503.3834                   23419506.7234
        40.5004         33.5004
  11875226.00846   9238843.43044  24015405.7664                   24015408.6454
        37.7504         26.7504
   7819912.37115                  25306938.188
        34.000
   3682700.02047   2867749.48845  21612940.7274                   21612941.5044
        46.5004         34.0004
   3789084.98047   2949434.68846  21156353.8204                   21156354.0314
        46.0004         36.5004
  -7371873.48846  -5724903.47345  23313342.0634                   23313346.1884
        40.2504         32.0004
  -6805494.55547  -5273680.57447  21542896.7194                   21542899.6054
        45.0004         46.0004
 -13021152.27048 -10104172.63347  21825431.3754                   21825434.4414
        48.0004         45.2504
 05 12 23 18  8 30.0000000  0  9G10G08G15G16G18G23G24G27G32
  -4378677.06648  -3400866.02048  21201213.7504                   21201215.5314
        50.2504         49.5004
  -8146200.41846  -6310762.56645  23406291.9064                   23406295.8284
        40.7504         33.5004
  11982340.16446   9322308.80544  24035790.5164                   24035791.9774
        39.0004         27.0004
                                  25320417.211
        29.250
   3731939.86747   2906118.12945  21622310.7114                   21622311.7304
        46.5004         34.2504
   3830382.86347   2981614.78946  21164212.3134                   21164213.0234
        46.0004         36.2504
  -7400078.45746  -5746881.32845  23307973.8134                   23307979.1024
        39.0004         32.0004
  -6820908.64147  -5285691.57447  21539963.9384                   21539966.4494
        46.5004         46.0004
 -13101832.93447 -10167040.64547  21810078.3134                   21810081.5744
        47.2504         45.5004
 05 12 23 18  9  0.0000000  0  9G10G08G15G16G18G23G24G27G32
  -4395993.76248  -3414359.55948  21197918.2894                   21197919.8794
        50.2504         49.2504
  -8215212.43746  -6364538.18745  23393160.0004                   23393163.2234
        39.7504         33.5004
  12089578.62546   9405871.11344  24056196.5234                   24056198.8204
        37.2504         26.7504
   7961629.59415                  25333903.773
        31.750
   3781503.88747   2944739.37145  21631742.7664                   21631743.3484
        46.7504         34.5004
   3871812.69547   3013897.73046  21172096.2114                   21172096.7034
        45.7504         36.5004
  -7427769.05146  -5768458.35545  23302705.1174                   23302709.2504
        39.5004         31.5004
  -6835745.19547  -5297252.55547  21537140.7194                   21537142.8204
        47.5004         46.0004
 -13182159.25447 -10229632.54347  21794792.6174                   21794795.9224
        47.0004         45.5004
 05 12 23 18  9 30.0000000  0  9G10G08G15G16G18G23G24G27G32
  -4413115.48048  -3427701.16048  21194660.1884                   21194662.1954
        48.5004         49.2504
  -8283803.73446  -6417985.96145  23380107.5554                   23380110.4804
        40.5004         33.5004
  12196945.91446   9489533.74244  24076628.0394                   24076630.3674
        37.7504         26.2504
   8032540.65215                  25347398.500
        31.250
   3831399.20347   2983618.77045  21641237.1954                   21641238.5554
        45.7504         34.5004
   3913380.73447   3046288.36746  21180006.4534                   21180006.5554
        45.2504         36.0004
  -7454936.21146  -5789627.54745  23297534.1174                   23297539.6374
        38.5004         31.5004
  -6849996.89147  -5308357.80947  21534428.4844                   21534430.8554
        47.0004         46.0004
 -13262122.28147 -10291941.36747  21779576.3834                   21779579.3094
        46.5004         45.7504
 05 12 23 18 10  0.0000000  0  9G10G08G15G16G18G23G24G27G32
  -4430043.32048  -3440891.69548  21191438.7664                   21191440.6414
        48.7504         49.5004
  -8351972.71946  -6471104.67245  23367135.1094                   23367138.4614
        40.7504         33.5004
  12304438.69145   9573294.13344  24097082.3834                   24097085.8524
        35.7504         26.5004
                                  25360898.977
        29.500
   3881625.43047   3022756.01645  21650795.2734                   21650796.1024
        46.2504         34.0004
   3955085.77347   3078785.75846  21187942.7664                   21187943.0434
        45.7504         36.0004
  -7481578.55146  -5810387.76245  23292464.3204                   23292469.3094
        39.2504         31.5004
  -6863663.80947  -5319007.39847  21531827.9064                   21531830.4024
        45.2504         45.7504
 -13341720.61347 -10353966.01247  21764429.1884                   21764432.3324
        46.7504         46.0004
 05 12 23 18 10 30.0000000  0  9G10G08G15G16G18G23G24G27G32
  -4446780.37948  -3453933.55948  21188254.0944                   21188255.8914
        49.0004         49.5004
  -8419719.82446  -6523894.63745  23354243.0704                   23354246.9694
        41.0004         33.5004
  12412051.90246   9657148.47344  24117561.6884                   24117564.1644
        37.0004         26.7504
   8174448.04714                  25374399.367
        28.750
   3932180.12547   3062149.22745  21660415.4694                   21660416.2074
        46.0004         33.7504
   3996924.46547   3111387.28945  21195905.0234                   21195904.8164
        46.5004         35.5004
  -7507696.62946  -5830739.45745  23287495.3054                   23287499.5124
        39.7504         31.7504
  -6876748.21147  -5329203.06647  21529338.1024                   21529340.1484
        47.5004         46.0004
 -13420954.86347 -10415706.95747  21749351.7344                   21749354.6914
        47.0004         45.7504
 05 12 23 18 11  0.0000000  0  8G10G08G15G18G23G24G27G32
  -4463328.72748  -3466828.37548  21185105.1174                   21185106.6254
        49.5004         49.5004
  -8487044.31246  -6576355.29745  23341431.9064                   23341435.7894
        41.0004         33.5004
  12519781.73846   9741093.65644  24138061.3284                   24138064.7664
        36.7504         24.7504
   3983061.94947   3101797.33645  21670098.0784                   21670098.7034
        45.5004         34.2504
   4038894.64147   3144091.27746  21203891.1564                   21203891.6414
        46.5004         36.0004
  -7533290.03146  -5850682.34045  23282624.4774                   23282629.1374
        39.5004         31.5004
  -6889251.22747  -5338945.71547  21526958.9304                   21526961.1054
        46.5004         46.0004
 -13499824.62148 -10477163.87947  21734343.2194                   21734345.8324
        48.0004         45.7504
 05 12 23 18 11 30.0000000  0  8G10G08G15G18G23G24G27G32
  -4479683.59048  -3479572.42648  21181992.5314                   21181994.5634
        50.0004         49.5004
  -8553938.87546  -6628480.94945  23328702.1174                   23328705.1334
        41.0004         34.0004
  12627630.81346   9825131.68444  24158584.8984                   24158587.9024
        36.7504         24.5004
   4034276.23447   3141704.50845  21679844.3594                   21679844.5314
        46.2504         34.5004
   4081000.93847   3176901.32446  21211903.6954                   21211904.3134
        45.5004         36.0004
  -7558351.63346  -5870210.80545  23277855.4614                   23277860.1214
        39.5004         31.0004
  -6901167.28147  -5348230.98047  21524691.2974                   21524693.4024
        47.0004         46.0004
 -13578322.72748 -10538331.20747  21719405.3204                   21719407.8914
        48.5004         46.0004
 05 12 23 18 12  0.0000000  0  8G10G08G15G18G23G24G27G32
  -4495844.77348  -3492165.55948  21178917.2894                   21178919.0234
        49.0004         49.5004
  -8620400.60246  -6680269.31645  23316054.9144                   23316058.8714
        40.0004         34.2504
  12735597.68846   9909261.59444  24179130.1414                   24179133.1214
        36.5004         25.2504
   4085823.82847   3181871.39545  21689653.3204                   21689653.9574
        46.0004         34.0004
   4123243.44147   3209817.52346  21219942.0004                   21219942.7894
        45.5004         36.0004
  -7582878.77746  -5889322.81645  23273188.3984                   23273193.2504
        40.0004         31.5004
  -6912495.30947  -5357058.04747  21522535.8284                   21522538.1334
        46.0004         46.0004
 -13656446.51247 -10599206.84847  21704538.7974                   21704541.7774
        47.0004         46.0004
 05 12 23 18 12 30.0000000  0  8G10G08G15G18G23G24G27G32
  -4511814.90648  -3504609.82448  21175878.4534                   21175880.3134
        50.2504         49.7504
  -8686429.42646  -6731720.37545  23303490.0864                   23303493.7424
        40.5004         34.5004
  12843677.66445   9993479.57444  24199697.3204                   24199700.7114
        35.0004         25.2504
   4137702.81347   3222296.51245  21699525.3524                   21699526.1484
        45.7504         33.5004
   4165619.37547   3242837.68046  21228006.3754                   21228006.6724
        47.0004         36.2504
  -7606871.59046  -5908018.48845  23268622.1094                   23268626.9344
        40.0004         31.7504
  -6923237.09447  -5365428.30547  21520491.6724                   21520493.8594
        46.7504         46.0004
 -13734196.13348 -10659790.94147  21689743.3444                   21689746.4384
        48.2504         45.7504
 05 12 23 18 13  0.0000000  0  8G10G08G15G18G23G24G27G32
  -4527597.96548  -3516908.32048  21172874.8594                   21172876.5634
        49.7504         49.7504
  -8752026.75846  -6782835.19145  23291006.5944                   23291011.3984
        41.5004         35.0004
  12951865.21946  10077781.39844  24220286.1564                   24220288.4224
        36.0004         26.0004
   4189909.82847   3262977.23445  21709460.2114                   21709461.0594
        45.5004         34.2504
   4208124.65647   3275958.63345  21236095.0864                   21236095.2664
        46.0004         35.5004
  -7630331.75446  -5926299.10545  23264157.9614                   23264162.7934
        39.2504         31.2504
  -6933395.90247  -5373344.28947  21518558.6644                   21518560.8754
        46.7504         45.7504
 -13811573.23448 -10720084.76647  21675019.0394                   21675021.8794
        48.5004         46.0004
 05 12 23 18 13 30.0000000  0  8G10G08G15G18G23G24G27G32
  -4543199.11348  -3529065.06648  21169906.1254                   21169908.0984
        50.7504         50.0004
  -8817195.18746  -6833615.80545  23278606.3754                   23278610.2704
        40.7504         35.2504
  13060152.39145  10162160.88344  24240890.3204                   24240894.3594
        34.2504         24.5004
   4242440.19947   3303909.91445  21719456.2424                   21719457.3794
        44.5004         34.0004
   4250753.91047   3309176.18046  21244207.1414                   21244207.2344
        47.2504         36.0004
  -7653262.07046  -5944166.86345  23259793.7274                   23259799.1024
        39.5004         31.7504
  -6942976.20747  -5380809.50047  21516735.5314                   21516737.9304
        45.5004         46.0004
 -13888580.57848 -10780090.46147  21660365.1564                   21660367.8594
        48.5004         45.7504
 05 12 23 18 14  0.0000000  0  8G10G08G15G18G23G24G27G32
  -4558614.71148  -3541077.23848  21166972.7814                   21166974.7344
        50.2504         50.0004
  -8881928.38746  -6884057.27345  23266287.9384                   23266291.5514
        40.5004         35.2504
  13168541.36745  10246619.58644  24261517.7034                   24261520.7384
        33.5004         25.5004
   4295298.25847   3345097.94145  21729515.0004                   21729516.1884
        44.7504         34.0004
   4293510.75447   3342493.15245  21252343.1564                   21252343.5234
        46.5004         35.7504
  -7675656.64546  -5961617.12545  23255532.9064                   23255537.4344
        39.2504         31.2504
  -6951973.55947  -5387820.46147  21515023.3364                   21515025.4454
        46.5004         46.0004
 -13965212.12147 -10839803.32447  21645782.6024                   21645785.1684
        47.7504         45.7504
 05 12 23 18 14 30.0000000  0  9G10G08G15G16G18G23G24G27G32
  -4573848.05148  -3552947.38348  21164074.1174                   21164075.8244
        50.5004         50.0004
  -8946227.23047  -6934160.28945  23254052.0314                   23254055.8094
        42.2504         35.2504
  13277026.64145  10331153.47744  24282161.5944                   24282163.9494
        35.0004         25.5004
     88747.32815                  25482561.680
        31.000
   4348481.25847   3386539.16845  21739635.2584                   21739636.6484
        45.5004         33.5004
   4336391.72747   3375906.85545  21260503.1484                   21260503.6294
        46.0004         35.5004
  -7697516.35246  -5978650.64845  23251372.9224                   23251377.6054
        39.2504         31.0004
  -6960390.62547  -5394379.25847  21513422.0084                   21513424.1884
        47.5004         46.0004
 -14041468.84848 -10899224.13347  21631271.3364                   21631274.0904
        48.7504         46.0004
 05 12 23 18 15  0.0000000  0  8G10G08G15G18G23G24G27G32
  -4588899.39848  -3564675.71548  21161209.8134                   21161211.6294
        50.5004         50.0004
  -9010089.30146  -6983922.95345  23241900.1094                   23241903.4534
        41.5004         35.5004
  13385606.60945  10415761.09044  24302823.3754                   24302827.5434
        33.5004         26.2504
   4401989.51647   3428233.83245  21749817.7584                   21749818.7624
        44.0004         33.5004
   4379396.46947   3409416.99245  21268686.8134                   21268687.1564
        45.0004         35.5004
  -7718839.22746  -5995265.84445  23247315.6884                   23247320.4534
        39.7504         31.0004
  -6968226.96947  -5400485.54347  21511930.6804                   21511932.6764
        46.2504         46.0004
 -14117348.62948 -10958351.20747  21616832.0704                   21616834.9384
        49.2504         46.0004
 05 12 23 18 15 30.0000000  0  8G10G08G15G18G23G24G27G32
  -4603766.32848  -3576260.34048  21158380.7344                   21158382.8524
        50.7504         50.0004
  -9073509.59446  -7033341.37945  23229831.2344                   23229834.6994
        41.5004         34.7504
  13494281.52345  10500442.68044  24323504.1174                   24323507.0394
        34.7504         26.5004
   4455825.95747   3470184.22345  21760062.5784                   21760063.0704
        45.0004         33.5004
   4422527.34047   3443025.40645  21276894.1094                   21276894.6454
        46.0004         35.7504
  -7739620.56246  -6011459.09845  23243360.9454                   23243365.4224
        40.7504         31.2504
  -6975479.54747  -5406136.94547  21510550.7504                   21510553.0044
        47.5004         46.0004
 -14192846.71148 -11017180.86347  21602465.2194                   21602467.7344
        49.0004         46.0004
 05 12 23 18 16  0.0000000  0  8G10G08G15G18G23G24G27G32
  -4618444.12548  -3587697.59848  21155587.9694                   21155589.5744
        51.0004         50.0004
  -9136480.97346  -7082409.98445  23217848.0944                   23217852.2074
        40.7504         35.5004
  13603054.28545  10585200.50044  24344202.5234                   24344206.1484
        35.0004         26.5004
   4509995.89547   3512394.47745  21770370.4844                   21770371.3714
        45.0004         33.2504
   4465788.91847   3476735.66846  21285127.1414                   21285127.1844
        46.2504         36.2504
  -7759853.55146  -6027225.04745  23239510.4304                   23239515.1374
        40.2504         30.7504
  -6982143.05147  -5411329.32847  21509282.6724                   21509285.0234
        47.2504         46.0004
 -14267956.10948 -11075707.64147  21588172.3054                   21588174.8484
        49.5004         46.0004
 05 12 23 18 16 30.0000000  0  8G10G08G15G18G23G24G27G32
  -4632922.46948  -3598979.44148  21152832.3444                   21152834.3364
        50.7504         50.0004
  -9198990.51646  -7131118.73446  23205953.0864                   23205956.7934
        41.7504         36.0004
  13711932.85945  10670040.78944  24364921.7974                   24364925.0514
        34.7504         25.0004
   4564510.15247   3554873.03945  21780744.5474                   21780745.6684
        46.7504         33.7504
   4509191.43047   3510555.75446  21293386.0004                   21293386.6094
        45.2504         36.0004
  -7779525.62946  -6042553.93745  23235767.2584                   23235771.7734
        37.7504         30.7504
  -6988206.60547  -5416054.23047  21508128.6564                   21508131.0514
        47.5004         46.0004
 -14342664.20348 -11133921.71947  21573955.8754                   21573958.7194
        48.7504         46.5004
 05 12 23 18 17  0.0000000  0  8G10G08G15G18G23G24G27G32
  -4647203.21148  -3610107.30148  21150114.6254                   21150116.6684
        50.7504         50.0004
  -9261037.71546  -7179467.19545  23194146.3134                   23194149.6334
        41.0004         35.7504
  13820914.51246  10754961.43044  24385661.4844                   24385663.5044
        36.7504         27.2504
   4619367.39147   3597618.85545  21791183.6884                   21791184.3444
        45.7504         33.7504
   4552732.94947   3544484.14145  21301672.1334                   21301672.5314
        45.0004         35.2504
  -7798636.41046  -6057445.47345  23232130.0084                   23232135.0434
        38.2504         30.5004
  -6993671.50047  -5420312.64147  21507088.4454                   21507091.4064
        47.0004         46.0004
 -14416970.57448 -11191822.75847  21559815.9774                   21559818.4304
        49.2504         46.7504
 05 12 23 18 17 30.0000000  0  8G10G08G15G18G23G24G27G32
  -4661290.43048  -3621084.36748  21147434.2974                   21147436.1254
        50.7504         49.7504
  -9322624.02746  -7227456.53145  23182426.1334                   23182430.2154
        41.7504         35.5004
  13929992.43045  10839957.05944  24406416.3444                   24406421.0824
        33.7504         26.7504
   4674564.07447   3640629.16845  21801687.2814                   21801688.3324
        45.5004         33.2504
   4596409.35947   3578517.64846  21309983.2814                   21309983.7464
        45.0004         36.0004
  -7817187.87546  -6071901.16045  23228599.9454                   23228604.7814
        37.5004         31.2504
  -6998541.23847  -5424107.28547  21506162.1414                   21506164.6174
        47.5004         46.0004
 -14490876.98448 -11249412.14547  21545751.9534                   21545754.8164
        49.5004         47.0004
 05 12 23 18 18  0.0000000  0  8G10G08G15G18G23G24G27G32
  -4675196.71948  -3631920.44148  21144787.9224                   21144789.8754
        50.5004         50.0004
  -9383759.67646  -7275094.69945  23170793.1414                   23170796.3324
        40.7504         35.2504
  14039152.39846  10925016.68844  24427190.9534                   24427192.8164
        36.5004         28.2504
   4730088.02747   3683894.49645  21812252.9924                   21812254.3674
        45.5004         33.2504
   4640207.92247   3612646.34846  21318318.1724                   21318318.0744
        45.0004         36.0004
  -7835190.55146  -6085929.22345  23225175.0554                   23225178.7624
        39.2504         31.2504
  -7002828.04347  -5427447.70347  21505346.3914                   21505348.9774
        47.2504         46.0004
 -14564393.84848 -11306697.98447  21531761.9614                   21531764.8754
        49.2504         47.0004
 05 12 23 18 18 30.0000000  0  8G10G08G15G18G23G24G27G32
  -4688915.17648  -3642610.15248  21142177.3674                   21142179.5044
        50.5004         49.7504
  -9444435.27346  -7322374.40245  23159246.0394                   23159250.4774
        41.0004         35.7504
  14148399.44145  11010144.13344  24447978.2734                   24447983.0274
        31.7504         25.5004
   4785946.72747   3727420.66045  21822882.4224                   21822884.1524
        46.0004         33.2504
   4684135.45747   3646875.54345  21326676.9454                   21326677.3874
        45.0004         35.5004
  -7852635.39146  -6099522.59445  23221855.5554                   23221859.6024
        40.0004         32.5004
  -7006524.45747  -5430328.07847  21504643.1254                   21504645.3914
        47.0004         45.7504
 -14637511.98448 -11363673.14147  21517848.0864                   21517850.9454
        49.0004         47.0004
 05 12 23 18 19  0.0000000  0  8G10G08G15G18G23G24G27G32
  -4702455.52348  -3653161.08648  21139600.9304                   21139602.9774
        50.7504         50.0004
  -9504658.16846  -7369301.33645  23147786.1024                   23147790.2584
        41.0004         35.5004
  14257721.88746  11095330.31344  24468783.1024                   24468785.7274
        37.2504         28.7504
   4842130.79347   3771200.36345  21833574.5234                   21833575.6484
        45.2504         32.5004
   4728182.21147   3681197.63345  21335059.0944                   21335059.6524
        45.0004         35.5004
  -7869530.14546  -6112687.32845  23218640.1484                   23218644.4574
        39.0004         32.2504
  -7009639.82447  -5432755.69147  21504050.2814                   21504052.7304
        47.0004         46.0004
 -14710238.91848 -11420343.45347  21504008.6174                   21504011.3484
        49.5004         47.0004
 05 12 23 18 19 30.0000000  0  8G10G08G15G18G23G24G27G32
  -4715821.70348  -3663576.30148  21137057.2894                   21137059.0944
        50.0004         50.0004
  -9564429.89846  -7415876.71545  23136412.7424                   23136416.0084
        41.5004         35.5004
  14367114.11745  11180570.92244  24489598.2894                   24489602.8054
        30.7504         26.0004
   4898636.81347   3815230.92245  21844327.6954                   21844328.3874
        45.5004         33.0004
   4772344.12547   3715609.45345  21343462.4384                   21343463.0084
        45.2504         34.7504
  -7885876.62546  -6125424.85945  23215528.6644                   23215533.8524
        39.5004         32.0004
  -7012177.66847  -5434733.28147  21503567.3204                   21503569.7854
        46.5004         45.7504
 -14782576.41848 -11476710.32047  21490243.0234                   21490246.0904
        49.5004         47.2504
 05 12 23 18 20  0.0000000  0  8G10G08G15G18G23G24G27G32
  -4729009.56248  -3673852.57448  21134547.8834                   21134549.8674
        49.0004         50.0004
  -9623743.85246  -7462095.38345  23125124.8524                   23125128.8364
        41.0004         35.0004
  14476578.54746  11265867.73444  24510431.0234                   24510433.3404
        38.0004         29.2504
   4955469.28947   3859515.87545  21855142.2274                   21855143.4964
        45.0004         33.0004
   4816625.32847   3750114.21545  21351889.2424                   21351889.4534
        45.7504         35.0004
  -7901668.72746  -6137730.40645  23212524.0704                   23212528.5944
        39.2504         32.5004
  -7014133.46147  -5436257.33247  21503195.2734                   21503197.9104
        46.7504         45.7504
 -14854518.16048 -11532768.80147  21476553.0394                   21476555.8094
        48.2504         47.2504
 05 12 23 18 20 30.0000000  0  8G10G08G15G18G23G24G27G32
  -4742019.81248  -3683990.44548  21132071.7974                   21132073.7734
        49.5004         50.0004
  -9682598.48446  -7507956.14545  23113925.3204                   23113929.6214
        41.2504         35.0004
  14586112.56345  11351218.83244  24531272.7584                   24531276.5274
        34.5004         26.5004
   5012627.93447   3904054.96545  21866019.0394                   21866020.2734
        45.0004         32.5004
   4861025.01247   3784711.30945  21360337.9224                   21360338.5044
        45.2504         35.5004
  -7916905.27346  -6149603.03945  23209624.3594                   23209629.0314
        39.0004         32.5004
  -7015507.59847  -5437328.14147  21502933.5474                   21502936.1094
        47.2504         46.0004
 -14926062.68448 -11588517.76647  21462938.8834                   21462941.3284
        48.7504         47.5004
 05 12 23 18 21  0.0000000  0  8G10G08G15G18G23G24G27G32
  -4754854.64148  -3693991.62148  21129629.3754                   21129631.4384
        49.2504         50.0004
  -9740993.52746  -7553458.77745  23102813.1644                   23102817.4344
        41.5004         35.5004
  14695711.82446  11436620.74645  24552130.0314                   24552133.6684
        38.5004         31.0004
   5070111.05547   3948846.89145  21876957.3984                   21876958.9884
        44.5004         33.2504
   4905541.00047   3819399.02345  21368809.2274                   21368809.8984
        46.0004         35.0004
  -7931586.42646  -6161042.93045  23206831.1414                   23206835.4454
        37.7504         32.5004
  -7016301.91047  -5437947.14547  21502782.5004                   21502784.8674
        47.0004         45.7504
 -14997210.03548 -11643957.23447  21449399.8754                   21449402.3834
        48.5004         47.5004
 05 12 23 18 21 30.0000000  0  8G10G08G15G18G23G24G27G32
  -4767515.52048  -3703857.25448  21127220.4534                   21127222.0664
        49.0004         50.0004
  -9798928.21546  -7598602.70345  23091788.3204                   23091792.5864
        41.2504         35.0004
  14805373.39545  11522071.22744  24572997.5234                   24573000.5744
        35.5004         26.0004
   5127917.52047   3993890.78145  21887958.5864                   21887958.9654
        44.5004         32.5004
   4950171.67247   3854176.09845  21377302.6644                   21377303.1684
        45.7504         35.5004
  -7945711.78546  -6172049.73045  23204143.5164                   23204147.9734
        38.7504         34.0004
  -7016517.66847  -5438115.32447  21502741.7734                   21502743.9454
        47.5004         45.7504
 -15067959.57048 -11699086.73047  21435936.5394                   21435939.0594
        48.5004         47.5004
 05 12 23 18 22  0.0000000  0  8G10G08G15G18G23G24G27G32
  -4780004.39548  -3713588.85548  21124843.5634                   21124845.9144
        49.5004         50.0004
  -9856402.16846  -7643387.60545  23080851.9844                   23080855.8444
        40.7504         35.0004
  14915093.13346  11607567.09845  24593876.1724                   24593880.1174
        37.7504         30.5004
   5186045.74647   4039185.40245  21899019.3204                   21899020.9264
        45.0004         32.5004
   4994915.07447   3889041.01245  21385816.9534                   21385817.5554
        45.2504         35.5004
  -7959281.48046  -6182623.56645  23201560.2114                   23201565.5704
        38.0004         32.7504
  -7016156.48847  -5437833.94947  21502810.6954                   21502812.8204
        46.2504         45.7504
 -15138311.14148 -11753906.11747  21422549.0234                   21422551.4884
        49.5004         47.5004
 05 12 23 18 22 30.0000000  0  8G10G08G15G18G23G24G27G32
  -4792321.01648  -3723186.23848  21122499.8054                   21122501.8094
        49.0004         50.0004
  -9913412.77746  -7687811.47745  23070003.1724                   23070007.2774
        40.5004         34.5004
  15024870.15246  11693107.46944  24614766.7974                   24614770.0234
        37.0004         28.5004
   5244496.41447   4084731.27345  21910142.5474                   21910143.6994
        43.7504         32.5004
   5039771.50847   3923994.01645  21394352.5944                   21394353.0904
        45.7504         35.0004
  -7972293.18046  -6192762.60245  23199084.9144                   23199089.3954
        38.2504         32.7504
  -7015217.86347  -5437102.61747  21502989.0314                   21502991.5164
        45.5004         45.5004
 -15208262.32048 -11808413.51647  21409237.6414                   21409240.8634
        48.5004         47.7504
 05 12 23 18 23  0.0000000  0  8G10G08G15G18G23G24G27G32
  -4804466.71948  -3732650.44148  21120188.7974                   21120190.7734
        50.0004         49.7504
  -9969959.20746  -7731873.64545  23059242.5554                   23059246.0434
        40.7504         34.5004
  15134700.57846  11778689.71145  24635667.0944                   24635670.1484
        39.0004         31.7504
   5303268.42647   4130527.53945  21921326.2504                   21921327.6054
        45.0004         32.5004
   5084739.52047   3959033.96145  21402909.7274                   21402910.6644
        45.5004         35.5004
  -7984746.64846  -6202466.61745  23196714.9774                   23196719.6724
        39.5004         33.2504
  -7013703.05147  -5435922.30947  21503277.1024                   21503279.8554
        47.0004         45.5004
 -15277812.48048 -11862608.43047  21396002.4694                   21396005.4104
        49.7504         47.5004
 05 12 23 18 23 30.0000000  0  8G10G08G15G18G23G24G27G32
  -4816439.17648  -3741979.64148  21117910.5864                   21117912.5204
        49.0004         49.7504
 -10026036.83246  -7775570.49645  23048571.2974                   23048575.2854
        41.2504         35.0004
  15244585.36356  11864313.99055  24656577.7814                   24656580.4144
        39.7504         32.7504
   5362364.48047   4176576.30545  21932571.9304                   21932573.3444
        46.0004         33.0004
   5129821.34447   3994162.59445  21411488.7274                   21411489.1254
        46.2504         35.2504
  -7996637.63346  -6211732.35245  23194451.7814                   23194457.1174
        39.2504         32.5004
  -7011609.50047  -5434291.03147  21503675.8984                   21503678.3484
        47.0004         45.5004
 -15346957.23848 -11916487.44547  21382844.6484                   21382847.4614
        48.2504         47.7504
 05 12 23 18 24  0.0000000  0  8G10G08G15G18G23G24G27G32
  -4828240.98848  -3751175.87948  21115664.5784                   21115666.6644
        50.5004         49.7504
 -10081646.05946  -7818902.39145  23037989.2274                   23037992.7774
        41.5004         34.7504
  15354519.88345  11949977.35944  24677495.9304                   24677499.7074
        35.2504         28.0004
   5421782.26247   4222875.75445  21943878.7504                   21943880.2544
        45.7504         32.7504
   5175014.38747   4029377.88345  21420088.8914                   21420089.5354
        46.5004         35.7504
  -8007967.05546  -6220560.50845  23192296.7734                   23192301.0634
        40.0004         33.2504
  -7008939.67647  -5432210.71147  21504183.7734                   21504186.2344
        46.5004         45.5004
 -15415697.15648 -11970051.00847  21369764.0864                   21369767.2114
        49.0004         47.5004
 05 12 23 18 24 30.0000000  0  8G10G08G15G18G23G24G27G32
  -4839871.84048  -3760238.89548  21113451.3134                   21113453.3524
        49.5004         49.7504
 -10136784.28547  -7861867.25045  23027496.7274                   23027500.5514
        42.2504         34.7504
  15464502.83646  12035678.25445  24698426.4224                   24698429.8714
        38.0004         30.0004
   5481522.48047   4269426.46945  21955247.1334                   21955248.7584
        45.5004         32.5004
   5220318.94947   4064680.06645  21428710.3594                   21428710.3054
        44.5004         35.0004
  -8018732.73446  -6228949.36345  23190247.6884                   23190252.1024
        38.7504         33.5004
  -7005693.11747  -5429680.98447  21504802.1094                   21504803.9184
        47.0004         45.0004
 -15484029.85248 -12023297.24647  21356760.6884                   21356763.6414
        49.0004         47.7504
 05 12 23 18 25  0.0000000  0  8G10G08G15G18G23G24G27G32
  -4851338.27048  -3769173.78948  21111269.6724                   21111271.2934
        49.5004         49.7504
 -10191455.93446  -7904468.56245  23017093.4694                   23017096.5314
        41.5004         35.5004
  15574525.85246  12121410.43845  24719362.6174                   24719366.0234
        38.0004         31.5004
   5541578.78547   4316223.47745  21966676.0944                   21966677.1604
        45.5004         33.0004
   5265728.45347   4100064.02345  21437351.1254                   21437351.8444
        45.0004         35.2504
  -8028939.63146  -6236902.81245  23188305.6644                   23188310.3984
        38.2504         33.2504
  -7001876.34847  -5426706.93747  21505528.1334                   21505530.3984
        46.0004         45.2504
 -15551959.93448 -12076229.76248  21343834.0164                   21343837.2584
        49.2504         48.0004
 05 12 23 18 25 30.0000000  0  7G10G08G18G23G24G27G32
  -4862637.13748  -3777978.11348  21109119.2894                   21109121.0124
        49.7504         49.7504
 -10245655.67246  -7946702.13745  23006779.6024                   23006782.7854
        41.7504         34.5004
   5601954.64847   4363269.48845  21978164.9454                   21978166.4844
        45.5004         33.0004
   5311246.03147   4135532.19945  21446013.0634                   21446013.4454
        46.0004         35.5004
  -8038582.98046  -6244417.14845  23186470.0554                   23186474.6954
        38.5004         33.0004
  -6997486.12547  -5423286.05147  21506363.5004                   21506365.9454
        46.5004         45.0004
 -15619482.25048 -12128844.53548  21330985.4304                   21330987.8754
        48.7504         48.0004
 05 12 23 18 26  0.0000000  0  7G10G08G18G23G24G27G32
  -4873764.41848  -3786648.74248  21107001.8674                   21107004.0394
        51.0004         49.7504
 -10299377.33247  -7988563.18745  22996556.4454                   22996560.0234
        42.2504         34.5004
   5662654.35247   4410567.84445  21989716.0704                   21989717.4694
        45.0004         32.2504
   5356875.69147   4171087.71945  21454695.8524                   21454696.5044
        46.0004         35.5004
  -8047656.96946  -6251487.83245  23184743.3674                   23184748.5314
        38.2504         33.2504
  -6992518.46147  -5419415.20347  21507308.8754                   21507311.4384
        47.5004         44.7504
 -15686590.85548 -12181136.94148  21318214.6414                   21318217.6884
        49.7504         48.2504
 05 12 23 18 26 30.0000000  0  7G10G08G18G23G24G27G32
  -4884713.34448  -3795180.39548  21104918.1804                   21104920.0554
        51.2504         49.5004
 -10352611.97347  -8030044.73045  22986426.2274                   22986429.6644
        42.0004         34.5004
   5723684.88347   4458123.96945  22001329.7424                   22001331.1994
        46.0004         32.2504
   5402624.14547   4206735.77745  21463401.2894                   21463402.1414
        46.2504         35.5004
  -8056153.30946  -6258108.38745  23183126.9694                   23183131.9384
        38.0004         32.7504
  -6986966.54347  -5415089.09447  21508365.1954                   21508367.9884
        46.5004         45.0004
 -15753277.02348 -12233100.17648  21305524.9064                   21305527.4964
        49.5004         48.2504
 05 12 23 18 27  0.0000000  0  7G10G08G18G23G24G27G32
  -4895478.82048  -3803569.09048  21102869.8984                   21102871.4884
        50.5004         49.7504
 -10405352.50047  -8071141.25045  22976390.5634                   22976394.1724
        42.5004         35.0004
   5785051.62147   4505942.09845  22013007.7974                   22013009.1644
        46.0004         32.7504
   5448496.54347   4242480.43845  21472131.2894                   21472131.4184
        46.5004         35.2504
  -8064065.22346  -6264273.54345  23181620.6564                   23181626.1024
        38.7504         32.7504
  -6980825.33647  -5410303.79347  21509534.1564                   21509536.9654
        46.5004         44.7504
 -15819533.71948 -12284728.75048  21292915.9844                   21292918.9884
        48.7504         48.2504
 05 12 23 18 27 30.0000000  0  7G10G08G18G23G24G27G32
  -4906060.69548  -3811814.72348  21100856.1724                   21100857.6994
        50.2504         49.7504
 -10457596.57447  -8111850.93445  22966448.2034                   22966452.1414
        42.0004         35.0004
   5846754.83647   4554022.40245  22024749.6884                   22024750.8634
        46.2504         32.5004
   5494492.92247   4278321.70345  21480883.9064                   21480884.7974
        47.0004         35.2504
  -8071391.09846  -6269982.03145  23180227.3054                   23180231.6604
        38.5004         32.5004
  -6974094.80947  -5405059.28947  21510814.9224                   21510817.8284
        47.0004         45.0004
 -15885358.98848 -12336021.16848  21280390.5864                   21280393.2584
        49.7504         48.2504
 05 12 23 18 28  0.0000000  0  7G10G08G18G23G24G27G32
  -4916467.31648  -3819923.79748  21098875.8834                   21098877.8954
        51.5004         49.7504
 -10509350.54746  -8152178.72345  22956600.1334                   22956603.9384
        41.5004         34.5004
   5908786.49247   4602358.64545  22036553.8284                   22036554.9184
        46.0004         33.0004
   5540605.08247   4314253.18445  21489658.5784                   21489659.4184
        46.0004         34.7504
  -8078137.75046  -6275239.21145  23178943.5234                   23178948.3364
        38.0004         32.0004
  -6966783.29747  -5399362.07447  21512205.9694                   21512209.1024
        46.7504         45.2504
 -15950759.18748 -12386982.36348  21267945.1884                   21267948.0824
        49.2504         48.5004
 05 12 23 18 28 30.0000000  0  7G10G08G18G23G24G27G32
  -4926704.03548  -3827900.47748  21096927.9694                   21096930.0234
        51.0004         49.7504
 -10560617.75446  -8192127.19145  22946844.3444                   22946847.7894
        41.5004         34.2504
   5971141.27047   4650946.66045  22048419.6804                   22048421.0744
        46.5004         31.5004
   5586827.50847   4350270.58645  21498454.5004                   21498455.3134
        46.5004         34.7504
  -8084309.10546  -6280048.09445  23177768.6414                   23177774.2074
        38.0004         31.7504
  -6958896.41447  -5393216.51247  21513707.4694                   21513709.8484
        47.5004         45.5004
 -16015737.89548 -12437615.11748  21255580.0944                   21255582.8594
        50.0004         48.7504
 05 12 23 18 29  0.0000000  0  7G10G08G18G23G24G27G32
  -4936771.53148  -3835745.29748  21095012.2274                   21095013.9534
        51.0004         49.7504
 -10611396.74246  -8231695.24245  22937181.2584                   22937184.7114
        41.5004         34.7504
   6033818.78547   4699786.16045  22060346.7584                   22060348.2504
        46.5004         31.5004
   5633159.62947   4386373.48445  21507271.4144                   21507272.4384
        46.2504         34.7504
  -8089904.21146  -6284407.93745  23176704.0554                   23176709.2664
        37.5004         31.7504
  -6950434.93447  -5386623.20747  21515317.5634                   21515319.9454
        47.2504         45.2504
 -16080293.89148 -12487918.48448  21243295.4144                   21243298.5204
        50.2504         48.7504
 05 12 23 18 29 30.0000000  0  7G10G08G18G23G24G27G32
  -4946671.38748  -3843459.48448  21093128.3594                   21093130.1134
        50.5004         49.7504
 -10661687.27347  -8270882.68745  22927611.3754                   22927614.9694
        42.2504         34.2504
   6096817.50847   4748875.94145  22072334.8754                   22072336.6644
        46.5004         31.0004
   5679599.82447   4422560.59845  21516108.8444                   21516109.2934
        45.7504         34.5004
  -8094923.43746  -6288319.05145  23175748.8134                   23175754.4384
        37.5004         31.7504
  -6941400.63747  -5379583.55947  21517036.4694                   21517039.6914
        46.7504         45.2504
 -16144427.01248 -12537892.35248  21231091.5084                   21231094.3914
        50.7504         48.7504
 05 12 23 18 30  0.0000000  0  7G10G08G18G23G24G27G32
  -4956405.36348  -3851044.41448  21091275.6024                   21091277.5634
        51.2504         49.5004
 -10711488.98446  -8309689.21545  22918133.9924                   22918137.7464
        41.7504         34.7504
   6160135.89147   4798214.80945  22084384.2584                   22084385.7584
        45.7504         31.7504
   5726146.30947   4458830.53145  21524966.0004                   21524967.0394
        46.7504         35.2504
  -8099367.05546  -6291781.63745  23174903.9224                   23174908.6054
        38.2504         32.0004
  -6931795.49247  -5372099.09847  21518864.2504                   21518867.1844
        47.2504         45.2504
 -16208137.13748 -12587536.59448  21218967.7734                   21218970.6724
        50.0004         48.7504
 05 12 23 18 30 30.0000000  0  7G10G08G18G23G24G27G32
  -4965978.85548  -3858504.28948  21089454.0314                   21089455.8984
        51.5004         49.5004
 -10760805.41447  -8348117.61345  22908749.6954                   22908753.0234
        42.2504         35.2504
   6223768.65647   4847798.64545  22096493.2974                   22096494.6454
        45.7504         31.0004
   5772793.76247   4495179.14845  21533842.8284                   21533843.9224
        47.0004         34.7504
  -8103239.07046  -6294798.80945  23174166.7344                   23174171.8794
        39.0004         32.2504
  -6921625.16047  -5364174.23047  21520799.6804                   21520802.4184
        47.5004         45.5004
 -16271427.92248 -12636854.07848  21206923.9064                   21206926.5354
        50.5004         48.7504
 05 12 23 18 31  0.0000000  0  7G10G08G18G23G24G27G32
  -4975383.19548  -3865832.35948  21087664.9454                   21087666.6024
        50.7504         49.5004
 -10809625.92646  -8386159.57445  22899459.2814                   22899462.9734
        41.7504         35.0004
   6287724.52747   4897634.25445  22108663.8204                   22108665.2734
        45.5004         31.5004
   5819550.78147   4531613.13345  21542740.6644                   21542741.5744
        47.0004         34.0004
  -8106529.49646  -6297362.80545  23173540.8524                   23173545.7464
        38.5004         31.5004
  -6910881.31247  -5355802.45747  21522844.4384                   21522847.0824
        47.7504         45.5004
 -16334288.95348 -12685836.68748  21194961.7814                   21194964.6294
        50.2504         49.0004
 05 12 23 18 31 30.0000000  0  7G10G08G18G23G24G27G32
  -4984615.83648  -3873026.63348  21085907.6804                   21085909.5664
        50.7504         50.0004
 -10857946.07847  -8423811.64145  22890264.6644                   22890268.3284
        42.0004         35.0004
   6352006.20347   4947723.73045  22120895.9694                   22120898.1454
        45.7504         31.5004
   5866419.98047   4568134.52345  21551659.4384                   21551660.6374
        46.2504         34.2504
  -8109234.50046  -6299470.64145  23173026.6024                   23173031.0744
        37.5004         32.0004
  -6899561.53547  -5346981.91047  21524998.5004                   21525001.2194
        47.0004         45.5004
 -16396715.93448 -12734481.07848  21183082.4614                   21183085.1954
        49.5004         49.0004
 05 12 23 18 32  0.0000000  0  7G10G08G18G23G24G27G32
  -4993677.95748  -3880088.03548  21084183.2034                   21084184.8164
        51.0004         49.5004
 -10905765.14547  -8461073.25845  22881165.1334                   22881167.8484
        42.2504         35.0004
   6416612.55147   4998066.20745  22133190.6334                   22133192.4454
        45.2504         31.5004
   5913400.17647   4604742.41445  21560600.1724                   21560600.6524
        46.2504         33.7504
  -8111354.04346  -6301122.24245  23172622.6254                   23172627.5944
        37.5004         31.7504
  -6887667.44947  -5337713.84847  21527261.9224                   21527264.6914
        47.2504         45.2504
 -16458708.35248 -12782786.84848  21171285.7894                   21171288.4494
        49.7504         49.0004
 05 12 23 18 32 30.0000000  0  7G10G08G18G23G24G27G32
  -5002571.36748  -3887017.97748  21082491.1174                   21082492.7154
        49.0004         49.5004
 -10953083.13746  -8497944.43445  22872160.2034                   22872163.9534
        41.5004         35.2504
   6481541.81347   5048660.29745  22145546.4454                   22145548.3874
        45.5004         32.0004
   5960489.60247   4641435.42245  21569560.5084                   21569561.3014
        46.0004         34.5004
  -8112888.59846  -6302318.01645  23172330.2584                   23172335.7114
        37.5004         32.0004
  -6875201.21547  -5327999.95747  21529634.2114                   21529636.8794
        47.0004         45.5004
 -16520266.26648 -12830754.03148  21159571.7344                   21159574.4884
        50.0004         49.2504
 05 12 23 18 33  0.0000000  0  7G10G08G18G23G24G27G32
  -5011295.55148  -3893816.05948  21080830.8524                   21080833.0354
        50.0004         49.5004
 -10999897.69147  -8534423.31645  22863252.0394                   22863255.7894
        42.0004         35.0004
   6546794.53547   5099506.44545  22157963.4224                   22157965.0314
        45.5004         31.5004
   6007688.78547   4678213.95345  21578542.4694                   21578543.1294
        46.5004         34.0004
  -8113836.58246  -6303056.74645  23172151.1954                   23172155.5124
        38.5004         32.2504
  -6862162.73047  -5317840.15647  21532115.3054                   21532118.2934
        47.0004         45.5004
 -16581387.54348 -12878380.97348  21147940.6954                   21147943.4804
        50.2504         49.5004
 05 12 23 18 33 30.0000000  0  8G10G08G02G18G23G24G27G32
  -5019862.31248  -3900491.47748  21079200.7894                   21079202.3524
        51.2504         49.5004
 -11046218.71947  -8570517.62945  22854437.4304                   22854441.0164
        42.2504         35.2504
   -209410.70356   -141325.89552  25367024.7734                   25367025.4064
        37.2504         16.2504
   6612359.03147   5150595.51245  22170439.9844                   22170442.1294
        45.5004         32.0004
   6054985.96147   4715068.85245  21587542.5634                   21587543.3014
        46.5004         34.0004
  -8114208.46946  -6303346.58245  23172080.1254                   23172084.8984
        39.5004         32.7504
  -6848564.18047  -5307243.93747  21534703.1644                   21534705.5984
        47.5004         45.5004
 -16642082.24648 -12925675.52048  21136390.5394                   21136393.6914
        50.2504         49.5004
 05 12 23 18 34  0.0000000  0  8G10G08G02G18G23G24G27G32
  -5028281.23048  -3907051.68048  21077598.3594                   21077600.4304
        50.0004         49.7504
 -11092054.16046  -8606233.55945  22845714.7194                   22845718.6054
        41.2504         34.7504
   -303053.38346   -214294.15643  25349204.8444                   25349205.7544
        38.2504         19.5004
   6678225.62547   5201919.98845  22182974.2034                   22182976.3754
        45.0004         31.5004
   6102371.53147   4751992.62545  21596559.7274                   21596560.5354
        46.0004         33.7504
  -8114012.83246  -6303194.17245  23172116.6174                   23172121.6134
        39.0004         32.5004
  -6834415.67647  -5296219.19147  21537396.2664                   21537398.5354
        47.2504         45.7504
 -16702358.46548 -12972643.98048  21124920.3914                   21124923.3164
        50.0004         49.5004
 05 12 23 18 34 30.0000000  0  8G10G08G02G18G23G24G27G32
  -5036547.63348  -3913493.04748  21076025.3444                   21076027.0704
        49.2504         49.7504
 -11137397.47747  -8641566.02045  22837086.2344                   22837090.3874
        42.0004         35.5004
   -396757.30946   -287310.04343  25331372.3754                   25331375.0784
        37.5004         19.7504
   6744399.00047   5253483.50445  22195566.8444                   22195568.8244
        45.2504         31.7504
   6149850.23447   4788988.96145  21605594.8984                   21605595.7734
        45.0004         33.2504
  -8113243.78146  -6302594.94145  23172263.2734                   23172268.4064
        38.7504         33.2504
  -6819713.00047  -5284762.61347  21540193.5394                   21540196.5904
        47.2504         45.5004
 -16762209.84048 -13019281.39148  21113530.8284                   21113533.8954
        50.5004         49.5004
 05 12 23 18 35  0.0000000  0  8G10G08G02G18G23G24G27G32
  -5044659.04348  -3919813.63348  21074482.1414                   21074483.7814
        50.5004         49.7504
 -11182244.52347  -8676511.78545  22828552.3594                   22828556.0314
        42.0004         34.7504
   -490518.07846   -360370.59442  25313531.6644                   25313532.2584
        38.0004         16.2504
   6810881.68047   5305288.05145  22208218.0164                   22208220.2624
        45.5004         30.0004
   6197424.55947   4826059.80945  21614648.0704                   21614648.8554
        46.2504         33.5004
  -8111897.85246  -6301546.19945  23172519.3284                   23172524.6174
        37.5004         33.2504
  -6804454.13347  -5272872.65247  21543097.3594                   21543100.3284
        47.0004         45.7504
 -16821632.30548 -13065584.58248  21102223.1564                   21102226.1294
        50.7504         49.5004
 05 12 23 18 35 30.0000000  0  8G10G08G02G18G23G24G27G32
  -5052615.25448  -3926013.28148  21072967.9614                   21072969.7774
        51.0004         49.7504
 -11226593.34447  -8711069.30945  22820113.2814                   22820116.3874
        42.0004         35.5004
   -584334.01246   -433473.82043  25295679.2584                   25295680.1414
        39.7504         21.2504
   6877673.79347   5357333.71545  22220928.2344                   22220930.3054
        44.5004         30.5004
   6245094.71147   4863205.32845  21623719.1484                   21623720.5044
        46.2504         33.0004
  -8109973.76646  -6300046.91445  23172885.8914                   23172890.5554
        38.2504         32.2504
  -6788639.50447  -5260549.62147  21546106.7274                   21546109.6134
        47.2504         45.2504
 -16880624.14548 -13111552.21148  21090997.4454                   21091000.2774
        51.0004         49.5004
 05 12 23 18 36  0.0000000  0  8G10G08G02G18G23G24G27G32
  -5060411.97348  -3932088.65648  21071484.3204                   21071486.2704
        51.0004         50.0004
 -11270437.96947  -8745233.96145  22811769.4614                   22811773.7034
        42.0004         35.7504
   -678199.17246   -506615.43043  25277815.6094                   25277817.9804
        38.2504         19.5004
   6944779.57047   5409623.78945  22233698.3364                   22233700.3954
        46.0004         31.5004
   6292865.04747   4900428.90245  21632809.6484                   21632810.4844
        46.0004         34.0004
  -8107466.17646  -6298092.94545  23173362.9454                   23173367.5314
        39.0004         32.7504
  -6772265.35947  -5247790.61347  21549222.9144                   21549225.6724
        47.2504         45.5004
 -16939179.46548 -13157179.71148  21079854.8524                   21079857.5514
        51.0004         49.7504
 05 12 23 18 36 30.0000000  0  8G10G08G02G18G23G24G27G32
  -5068046.84448  -3938037.91048  21070031.5004                   21070033.3554
        51.0004         50.0004
 -11313774.37147  -8779002.59445  22803522.9224                   22803527.0314
        42.0004         35.5004
   -772109.11746   -579792.16042  25259946.4614                   25259946.2974
        39.2504         17.2504
   7012201.31647   5462160.07045  22246528.3284                   22246530.5594
        45.5004         30.7504
   6340737.97747   4937732.42645  21641919.9534                   21641920.2704
        46.2504         33.5004
  -8104371.78546  -6295681.73445  23173951.3284                   23173956.5314
        38.2504         32.7504
  -6755329.89547  -5234594.20747  21552444.8754                   21552448.2344
        47.7504         45.5004
 -16997294.42248 -13202464.06248  21068795.8674                   21068798.4144
        51.0004         49.5004
 05 12 23 18 37  0.0000000  0  8G10G08G02G18G23G24G27G32
  -5075529.18048  -3943868.30148  21068607.4694                   21068609.5944
        49.0004         50.0004
 -11356610.19546  -8812381.16045  22795371.1484                   22795375.7114
        41.7504         35.2504
   -866071.55546   -653009.62143  25242065.6254                   25242066.7384
        38.7504         19.5004
   7079929.59047   5514935.20345  22259417.0784                   22259418.7384
        45.0004         30.5004
   6388704.18847   4975108.64845  21651047.2584                   21651048.1054
        46.5004         33.2504
  -8100699.01646  -6292819.81245  23174650.3754                   23174655.1994
        38.0004         33.2504
  -6737843.12947  -5220968.21547  21555773.0784                   21555775.8244
        47.0004         45.7504
 -17054976.78548 -13247411.33648  21057819.1724                   21057821.9414
        51.0004         49.7504
 05 12 23 18 37 30.0000000  0  8G10G08G02G18G23G24G27G32
  -5082852.42248  -3949574.72748  21067213.7734                   21067215.8914
        50.5004         50.0004
 -11398937.33647  -8845363.35245  22787317.0084                   22787320.9454
        42.5004         35.2504
   -960078.33646   -726261.47742  25224177.3444                   25224178.1914
        39.7504         17.7504
   7147970.93847   5567954.30145  22272364.7274                   22272366.9734
        45.5004         31.5004
   6436770.38747   5012562.79745  21660194.0164                   21660194.8954
        46.0004         33.0004
  -8096440.30946  -6289501.34045  23175460.2894                   23175465.8834
        37.7504         33.5004
  -6719799.09447  -5206907.99247  21559206.7504                   21559209.7854
        46.5004         45.5004
 -17112218.52048 -13292015.26648  21046926.2974                   21046929.2154
        50.7504         49.7504
 05 12 23 18 38  0.0000000  0  8G10G08G02G18G23G24G27G32
  -5090016.64848  -3955157.24648  21065850.6954                   21065852.8444
        49.5004         50.0004
 -11440754.25046  -8877947.96545  22779359.5164                   22779363.4574
        41.5004         35.5004
  -1054127.65246   -799546.75843  25206280.2034                   25206280.0904
        37.5004         21.0004
   7216325.16047   5621217.19545  22285372.4454                   22285374.5944
        45.2504         31.0004
   6484936.46947   5050094.77045  21669359.8754                   21669360.5234
        46.0004         33.0004
  -8091594.93746  -6285725.72345  23176383.0784                   23176388.1054
        38.2504         34.0004
  -6701198.59047  -5192414.16047  21562746.4534                   21562749.3324
        46.5004         45.5004
 -17169018.29348 -13336274.79748  21036117.7194                   21036120.9024
        50.5004         49.7504
 05 12 23 18 38 30.0000000  0  8G10G08G02G18G23G24G27G32
  -5097020.51648  -3960614.80148  21064517.9454                   21064519.7704
        49.5004         50.0004
 -11482058.02347  -8910132.71945  22771499.6804                   22771503.6454
        42.0004         35.5004
  -1148216.44546   -872862.63343  25188375.1414                   25188376.2034
        36.5004         20.7504
   7284993.39547   5674724.76245  22298439.0864                   22298441.6174
        45.2504         31.0004
   6533203.80147   5087705.64845  21678544.7974                   21678545.4534
        46.0004         33.0004
  -8086160.70346  -6281491.23445  23177416.5084                   23177422.1844
        36.5004         33.2504
  -6682040.97347  -5177486.21147  21566391.7584                   21566394.9024
        46.0004         45.2504
 -17225373.29748 -13380187.75848  21025393.7194                   21025396.8204
        51.0004         50.0004
 05 12 23 18 39  0.0000000  0  8G10G08G02G18G23G24G27G32
  -5103872.10248  -3965953.70748  21063214.0234                   21063216.1724
        49.0004         50.0004
 -11522855.19147  -8941922.72345  22763736.2734                   22763740.0084
        42.0004         35.7504
  -1242350.86346   -946214.05543  25170463.5234                   25170462.8094
        37.2504         21.0004
   7353967.46147   5728470.64145  22311564.5474                   22311567.2664
        45.0004         30.7504
   6581564.34047   5125389.14545  21687747.6414                   21687748.5004
        46.2504         33.2504
  -8080144.84446  -6276803.52745  23178562.2584                   23178566.7344
        37.7504         33.0004
  -6662335.09847  -5162131.04747  21570141.7034                   21570145.0314
        46.0004         45.2504
 -17281290.19948 -13423759.34848  21014753.1884                   21014755.7624
        50.5004         50.0004
 05 12 23 18 39 30.0000000  0  8G10G08G02G18G23G24G27G32
  -5110568.19148  -3971171.44148  21061939.5784                   21061941.5044
        48.7504         50.0004
 -11563141.04346  -8973314.29745  22756070.0474                   22756074.2154
        40.5004         35.0004
  -1336526.12146  -1019597.33643  25152541.5394                   25152541.8284
        37.0004         19.2504
   7423250.45747   5782457.24245  22324749.0864                   22324751.0554
        45.0004         30.7504
   6630021.42247   5163147.85945  21696968.8204                   21696969.5044
        45.7504         32.2504
  -8073543.32846  -6271659.45745  23179818.0784                   23179823.4304
        37.0004         34.0004
  -6642078.43047  -5146346.69147  21573996.7894                   21574000.0204
        46.0004         45.2504
 -17336764.35548 -13466985.93048  21004196.6174                   21004199.5984
        50.7504         50.0004
 05 12 23 18 40  0.0000000  0  8G10G08G02G18G23G24G27G32
  -5117110.36748  -3976269.24648  21060694.6724                   21060696.9304
        50.5004         50.0004
 -11602915.65246  -9004307.50846  22748501.0864                   22748505.4924
        41.5004         36.0004
  -1430741.92246  -1093012.19143  25134613.4454                   25134613.9064
        37.5004         20.2504
   7492840.54347   5836683.13345  22337991.9694                   22337994.0274
        44.5004         30.0004
   6678573.45347   5200980.56645  21706208.0164                   21706208.5864
        45.5004         33.0004
  -8066357.07046  -6266059.75045  23181185.5084                   23181190.6374
        38.5004         33.7504
  -6621273.47347  -5130135.09847  21577955.6884                   21577958.7934
        45.2504         45.2504
 -17391796.03548 -13509867.72748  20993724.5314                   20993727.1484
        51.7504         50.2504
 05 12 23 18 40 30.0000000  0  8G10G08G02G18G23G24G27G32
  -5123498.05948  -3981246.66448  21059479.3364                   21059481.3484
        50.7504         50.0004
 -11642177.03946  -9034900.79746  22741029.7734                   22741033.9924
        41.5004         36.0004
  -1524996.30945  -1166457.08242  25116675.2114                   25116676.6764
        34.5004         17.7504
   7562738.09047   5891148.60544  22351292.9384                   22351295.2464
        44.7504         29.0004
   6727221.07847   5238887.76245  21715465.4384                   21715466.1804
        46.0004         32.7504
  -8058584.70746  -6260003.33245  23182664.4694                   23182669.4264
        37.5004         34.0004
  -6599920.42647  -5113496.42247  21582018.9304                   21582021.9384
        44.5004         45.0004
 -17446383.32048 -13552403.23848  20983336.8444                   20983339.5434
        51.5004         50.0004
 05 12 23 18 41  0.0000000  0  8G10G08G02G18G23G24G27G32
  -5129733.48448  -3986105.43748  21058292.6414                   21058294.4024
        50.2504         50.0004
 -11680925.98446  -9065094.78546  22733656.2274                   22733660.3714
        41.7504         36.5004
  -1619288.96946  -1239931.83643  25098733.0784                   25098733.1334
        36.0004         19.5004
   7632940.72747   5945851.81345  22364652.2974                   22364654.4734
        45.0004         30.0004
   6775962.12947   5276867.75845  21724740.1174                   21724741.2074
        46.0004         33.0004
  -8050227.88746  -6253491.49645  23184255.6804                   23184259.6094
        39.0004         33.5004
  -6578022.45747  -5096433.12947  21586185.8204                   21586189.0234
        45.0004         44.7504
 -17500527.08648 -13594593.14548  20973033.7894                   20973036.4534
        51.2504         50.0004
 05 12 23 18 41 30.0000000  0  8G10G08G02G18G23G24G27G32
  -5135814.45748  -3990843.85548  21057135.5864                   21057137.7304
        50.7504         50.0004
 -11719158.86746  -9094886.65246  22726380.7344                   22726384.4454
        40.5004         36.5004
  -1713616.43045  -1313433.66843  25080783.8754                   25080783.2544
        35.7504         18.2504
   7703450.38347   6000794.26645  22378069.6334                   22378072.0554
        45.2504         30.0004
   6824798.89147   5314922.33645  21734033.6724                   21734034.6174
        46.0004         33.2504
  -8041283.66846  -6246521.91845  23185957.4614                   23185961.6564
        40.2504         34.0004
  -6555578.11747  -5078944.08647  21590457.0084                   21590460.5124
        45.0004         45.0004
 -17554223.83648 -13636434.73048  20962815.4844                   20962818.0164
        51.5004         50.0004
 05 12 23 18 42  0.0000000  0  8G10G08G02G18G23G24G27G32
  -5141742.82448  -3995463.36348  21056007.3054                   21056009.5354
        50.5004         50.0004
 -11756876.17646  -9124276.77046  22719203.9064                   22719207.7194
        40.7504         36.2504
  -1807978.66046  -1386962.64543  25062826.7664                   25062826.6134
        36.2504         19.5004
   7774264.97747   6055974.32045  22391545.4924                   22391547.9694
        44.2504         30.5004
   6873729.49247   5353050.04745  21743345.2344                   21743345.9734
        45.7504         33.0004
  -8031753.30546  -6239095.62145  23187769.7584                   23187774.9184
        37.7504         33.2504
  -6532590.30147  -5061031.56247  21594831.4224                   21594834.6374
        45.0004         44.7504
 -17607474.15248 -13677928.44148  20952682.1094                   20952684.7074
        51.0004         50.0004
 05 12 23 18 42 30.0000000  0  8G10G08G02G18G23G24G27G32
  -5147516.03948  -3999961.97348  21054908.7194                   21054910.8524
        51.0004         50.0004
 -11794073.98046  -9153262.07846  22712125.1804                   22712128.7584
        41.2504         36.5004
  -1902371.41845  -1460515.26643  25044863.8284                   25044865.1134
        35.2504         18.5004
   7845386.74247   6111393.72745  22405079.3444                   22405081.8754
        45.0004         30.5004
   6922756.57447   5391252.91045  21752674.6564                   21752675.4184
        45.7504         32.5004
  -8021633.75446  -6231210.18745  23189695.2424                   23189700.8794
        37.7504         33.5004
  -6509057.33647  -5042694.24647  21599310.1884                   21599312.8524
        45.2504         45.0004
 -17660274.23048 -13719071.31648  20942634.5864                   20942637.5594
        51.2504         50.0004
 05 12 23 18 43  0.0000000  0  8G10G08G02G18G23G24G27G32
  -5153138.57048  -4004343.16848  21053839.0164                   21053841.0664
        51.0004         50.0004
 -11830755.43446  -9181845.03546  22705144.7814                   22705149.1524
        41.5004         36.2504
  -1996797.36745  -1534093.90643  25026894.8204                   25026896.0594
        33.5004         19.0004
   7916811.00847   6167048.85544  22418671.2114                   22418673.9104
        44.7504         29.2504
   6971875.69947   5429527.50045  21762021.6884                   21762022.8014
        46.2504         32.2504
  -8010928.88346  -6222868.69145  23191732.3984                   23191737.7304
        38.2504         33.5004
  -6484984.73047  -5023936.42647  21603890.7194                   21603894.1294
        46.2504         44.7504
 -17712627.34448 -13759865.90648  20932672.0314                   20932674.5084
        51.7504         50.0004
 05 12 23 18 43 30.0000000  0  8G10G08G02G18G23G24G27G32
  -5158608.41448  -4008605.38348  21052798.0944                   21052800.1644
        51.0004         50.0004
 -11866917.24647  -9210023.07846  22698263.4304                   22698267.3954
        42.0004         36.5004
  -2091252.83245  -1607695.49643  25008920.8364                   25008921.2894
        32.5004         20.2504
   7988539.44547   6222941.00044  22432321.1094                   22432323.4024
        44.0004         29.7504
   7021089.02747   5467875.49245  21771386.7344                   21771387.2074
        45.7504         32.5004
  -7999636.20746  -6214069.14145  23193882.0234                   23193886.6684
        40.0004         33.2504
  -6460371.40647  -5004757.27047  21608574.6484                   21608577.5474
        45.5004         45.0004
 -17764530.20348 -13800309.64148  20922795.3284                   20922797.8014
        51.7504         50.0004
 05 12 23 18 44  0.0000000  0  8G10G08G02G18G23G24G27G32
  -5163926.78548  -4012749.56248  21051785.9224                   21051787.7704
        48.7504         50.0004
 -11902559.33647  -9237796.13746  22691481.2034                   22691484.5784
        42.0004         36.5004
  -2185736.94545  -1681319.44542  24990942.2344                   24990940.9774
        33.0004         17.7504
   8060570.52347   6279068.96945  22446028.4454                   22446030.4344
        44.0004         30.0004
   7070395.29747   5506295.91845  21780769.2584                   21780770.1644
        46.7504         32.5004
  -7987756.40246  -6204812.12145  23196142.1334                   23196147.0044
        39.0004         34.2504
  -6435219.65247  -4985158.55547  21613361.1334                   21613363.7624
        46.0004         44.7504
 -17815982.94148 -13840402.63348  20913003.9924                   20913006.6884
        51.5004         50.0004
 05 12 23 18 44 30.0000000  0  8G10G08G02G18G23G24G27G32
  -5169098.10948  -4016779.16048  21050801.9304                   21050804.0784
        49.0004         50.0004
 -11937684.94147  -9265166.73846  22684797.2114                   22684800.9924
        42.2504         37.0004
  -2280252.45746  -1754967.78143  24972956.1414                   24972956.3794
        36.5004         21.0004
   8132899.52347   6335429.07845  22459791.6954                   22459794.1604
        44.2504         30.0004
   7119790.18447   5544785.38345  21790168.9454                   21790169.8554
        45.7504         32.2504
  -7975293.52346  -6195100.73445  23198514.0554                   23198518.8444
        39.5004         34.0004
  -6409534.97347  -4965144.56647  21618248.6564                   21618251.7624
        46.0004         45.0004
 -17866988.71548 -13880147.34048  20903298.1414                   20903300.6604
        52.0004         50.2504
 05 12 23 18 45  0.0000000  0  8G10G08G02G18G23G24G27G32
  -5174121.28148  -4020693.32848  21049845.7894                   21049848.3594
        50.0004         50.0004
 -11972291.61747  -9292132.98446  22678211.7814                   22678215.3364
        42.7504         37.5004
  -2374796.30945  -1828638.24642  24954963.8914                   24954964.3014
        35.0004         16.7504
   8205527.19547   6392021.90644  22473612.4534                   22473615.2344
        44.0004         29.2504
   7169274.89847   5583344.86345  21799585.6884                   21799586.4304
        45.5004         31.5004
  -7962245.97746  -6184933.79745  23200997.6724                   23201001.6454
        40.5004         34.0004
  -6383317.29747  -4944715.27347  21623237.4774                   21623240.8874
        44.7504         45.0004
 -17917545.36348 -13919542.08648  20893677.3134                   20893680.1724
        51.5004         50.2504
 05 12 23 18 45 30.0000000  0  8G10G08G02G18G23G24G27G32
  -5178995.57048  -4024491.46948  21048918.7194                   21048920.5234
        50.7504         50.0004
 -12006377.62147  -9318693.50846  22671725.4614                   22671728.7974
        42.0004         36.5004
  -2469366.07845  -1902329.02343  24936967.7114                   24936968.3094
        34.7504         20.2504
   8278453.89547   6448847.77345  22487489.5864                   22487492.4844
        43.7504         30.5004
   7218850.15247   5621974.88745  21809019.5004                   21809020.3984
        45.7504         31.7504
  -7948612.77046  -6174310.46945  23203590.9614                   23203595.8914
        37.5004         32.5004
  -6356567.09447  -4923871.00447  21628327.8204                   21628331.3554
        45.2504         45.0004
 -17967651.03548 -13958585.40648  20884142.4304                   20884145.2234
        51.7504         50.2504
 05 12 23 18 46  0.0000000  0  9G10G08G02G28G18G23G24G27G32
  -5183731.52348  -4028181.82048  21048017.1024                   21048019.3404
        50.0004         50.0004
 -12039952.18046  -9344855.50446  22665336.1954                   22665339.7774
        41.7504         36.7504
  -2563970.50856  -1976046.59453  24918965.0554                   24918966.1724
        36.0004         19.5004
   -198092.73815                  25297934.172
        33.250
   8351668.67247   6505898.09044  22501423.0554                   22501425.4614
        43.7504         29.0004
   7268505.56347   5660667.37545  21818468.6884                   21818469.6804
        45.5004         32.2504
  -7934403.96946  -6163238.64845  23206293.9694                   23206299.6804
        37.7504         33.2504
  -6329295.99247  -4902620.84447  21633517.8984                   21633521.1644
        45.0004         44.7504
 -18017315.13348 -13997284.65248  20874691.9614                   20874694.3714
        51.0004         50.5004
 05 12 23 18 46 30.0000000  0  9G10G08G02G28G18G23G24G27G32
  -5188336.37148  -4031770.01648  21047141.1094                   21047142.9734
        50.7504         50.0004
 -12073021.41847  -9370623.73846  22659043.6644                   22659046.9694
        42.0004         37.0004
  -2658615.16846  -2049795.69143  24900955.2664                   24900955.4344
        36.7504         20.2504
   -299492.844 5                  25278638.766
        33.250
   8425164.00047   6563167.03144  22515408.0784                   22515410.6374
        44.5004         29.5004
   7318233.96947   5699416.75045  21827931.3834                   21827932.8834
        45.2504         30.7504
  -7919626.56646  -6151723.77345  23209107.1954                   23209111.6524
        38.5004         32.5004
  -6301512.36347  -4880971.30947  21638805.1884                   21638808.1414
        44.7504         44.7504
 -18066543.82848 -14035644.62148  20865323.9534                   20865326.4494
        51.5004         50.5004
 05 12 23 18 47  0.0000000  0  9G10G08G02G28G18G23G24G27G32
  -5192808.27348  -4035254.61748  21046290.1414                   21046291.8594
        49.7504         50.0004
 -12105582.44147  -9395995.96946  22652847.4384                   22652850.9924
        42.0004         36.7504
  -2753296.18746  -2123573.00043  24882936.7274                   24882938.0354
        36.5004         19.5004
   -401075.906 5                  25259308.305
        33.250
   8498941.24647   6620655.65245  22529447.8284                   22529450.3204
        42.5004         30.5004
   7368037.25847   5738224.47745  21837409.1804                   21837409.9734
        45.5004         31.2504
  -7904278.41846  -6139764.16845  23212027.6884                   23212032.2234
        39.0004         32.2504
  -6273215.61347  -4858921.93747  21644189.6884                   21644192.8594
        45.0004         45.0004
 -18115334.23448 -14073663.06648  20856039.2894                   20856041.9494
        50.2504         50.5004
 05 12 23 18 47 30.0000000  0  9G10G08G02G28G18G23G24G27G32
  -5197147.78148  -4038636.05548  21045464.2894                   21045466.3674
        49.7504         50.0004
 -12137634.68746  -9420971.76246  22646747.8054                   22646751.4774
        41.5004         36.7504
  -2848012.44945  -2197377.86343  24864913.5944                   24864913.9494
        35.5004         19.5004
   -502839.645 5                  25239942.781
        33.750
   8572999.43447   6678363.18444  22543540.4064                   22543543.3204
        43.5004         29.0004
   7417914.85247   5777090.09045  21846899.9614                   21846901.1094
        45.5004         32.0004
  -7888359.88746  -6127360.10545  23215056.1334                   23215061.6844
        38.2504         31.7504
  -6244407.54347  -4836474.13347  21649671.7274                   21649674.8554
        45.5004         45.2504
 -18163685.95748 -14111339.68048  20846838.2584                   20846840.6524
        51.7504         50.5004
 05 12 23 18 48  0.0000000  0  9G10G08G02G28G18G23G24G27G32
  -5201348.98048  -4041909.71948  21044664.7344                   21044666.4264
        50.7504         50.0004
 -12169171.18746  -9445545.66446  22640746.8524                   22640750.1524
        41.7504         37.0004
  -2942755.99646  -2271203.94143  24846884.5554                   24846884.9774
        36.5004         19.0004
   -604775.227 5                  25220545.359
        34.500
   8647344.08247   6736293.93044  22557688.2194                   22557690.6764
        43.5004         29.2504
   7467872.86347   5816018.37145  21856407.2344                   21856408.0784
        45.0004         31.0004
  -7871864.82446  -6114506.80145  23218196.7504                   23218200.6374
        38.7504         32.0004
  -6215083.43047  -4813624.21547  21655251.7504                   21655254.9734
        47.0004         45.2504
 -18211591.96148 -14148668.98848  20837722.0944                   20837724.3284
        51.7504         50.5004
 05 12 23 18 48 30.0000000  0  9G10G08G02G28G18G23G24G27G32
  -5205408.39148  -4045072.89548  21043892.3204                   21043894.3444
        50.5004         50.0004
 -12200187.43447  -9469714.18046  22634844.6724                   22634847.9454
        43.0004         37.5004
  -3037521.71146  -2345047.29343  24828850.6094                   24828852.0704
        36.2504         20.5004
   -706876.41045    -17144.85952  25201115.6094                   25201123.7544
        34.5004         17.2504
   8721978.16047   6794450.20345  22571890.7974                   22571893.6094
        43.5004         30.0004
   7517914.80147   5855012.05145  21865929.7034                   21865930.4494
        44.7504         31.0004
  -7854789.52346  -6101201.39545  23221446.1884                   23221449.5354
        38.5004         31.7504
  -6185241.16447  -4790370.54347  21660930.6174                   21660934.1174
        45.5004         45.5004
 -18259047.90648 -14185647.59048  20828691.5474                   20828693.9804
        51.7504         50.5004
 05 12 23 18 49  0.0000000  0  9G10G08G02G28G18G23G24G27G32
  -5209325.35548  -4048125.07448  21043146.7974                   21043148.6334
        51.0004         49.7504
 -12230681.79747  -9493476.03146  22629041.7274                   22629044.9304
        42.7504         37.5004
  -3132307.30546  -2418906.18443  24810813.7814                   24810813.8324
        36.7504         19.2504
   -809139.54345    -96830.42642  25181657.0394                   25181665.5164
        34.7504         14.7504
   8796901.85247   6852832.15644  22586148.3754                   22586151.0554
        43.0004         29.5004
   7568041.37947   5894071.68845  21875468.4614                   21875469.3244
        45.7504         32.0004
  -7837133.22346  -6087443.23445  23224804.8444                   23224809.3364
        38.0004         31.7504
  -6154881.28947  -4766713.55147  21666708.2194                   21666711.1174
        47.5004         45.2504
 -18306052.10248 -14222274.18748  20819746.7894                   20819748.8484
        51.7504         50.2504
 05 12 23 18 49 30.0000000  0  9G10G08G02G28G18G23G24G27G32
  -5213096.12948  -4051063.34448  21042429.5004                   21042431.4614
        50.2504         49.7504
 -12260649.55547  -9516827.54346  22623338.7344                   22623342.4104
        42.0004         37.5004
  -3227106.73846  -2492775.75843  24792774.9384                   24792774.8484
        39.0004         20.2504
   -911558.17645   -176637.14142  25162166.2504                   25162176.3914
        34.7504         14.7504
   8872118.44147   6911442.33644  22600461.4304                   22600464.5084
        43.0004         29.2504
   7618256.38747   5933200.21545  21885024.2194                   21885025.2304
        45.7504         31.2504
  -7818892.02346  -6073229.36745  23228276.8054                   23228280.6804
        38.5004         32.2504
  -6124001.50447  -4742651.42647  21672584.6724                   21672587.4344
        47.2504         45.2504
 -18352599.93748 -14258545.17648  20810888.9224                   20810891.1294
        52.0004         50.5004
 05 12 23 18 50  0.0000000  0  9G10G08G02G28G18G23G24G27G32
  -5216726.92648  -4053892.53548  21041738.2734                   21041740.2544
        48.5004         49.7504
 -12290095.92647  -9539772.77746  22617735.3524                   22617739.0274
        43.5004         37.2504
  -3321924.76246  -2566659.81643  24774730.8914                   24774731.0234
        39.0004         18.5004
  -1014135.56645   -256567.54342  25142645.7584                   25142656.6174
        34.5004         16.7504
   8947621.16847   6970275.48844  22614829.9614                   22614832.7034
        43.5004         28.2504
   7668553.71547   5972392.88745  21894595.4454                   21894596.5204
        45.2504         30.5004
  -7800072.11746  -6058564.51245  23231857.3524                   23231862.0744
        38.7504         33.2504
  -6092609.31647  -4718190.02347  21678558.5314                   21678561.1804
        47.7504         45.2504
 -18398696.69548 -14294464.67648  20802116.9534                   20802119.2814
        51.7504         50.5004
 05 12 23 18 50 30.0000000  0  9G10G08G02G28G18G23G24G27G32
  -5220216.02348  -4056611.31248  21041074.6024                   21041076.6764
        49.0004         49.7504
 -12319018.38747  -9562309.77346  22612231.9304                   22612235.5234
        43.2504         37.5004
  -3416757.60545  -2640555.54743  24756684.8674                   24756685.1094
        35.2504         20.5004
  -1116867.19545   -336618.12542  25123096.5554                   25123107.4844
        34.7504         16.2504
   9023411.29347   7029332.58244  22629252.0394                   22629254.6334
        42.5004         29.2504
   7718935.14147   6011651.09445  21904183.1094                   21904183.4144
        45.5004         30.7504
  -7780671.69546  -6043447.31645  23235549.1884                   23235554.0824
        38.2504         32.5004
  -6060704.46147  -4693329.14147  21684629.4224                   21684632.4734
        47.5004         45.0004
 -18444339.76648 -14330030.64548  20793431.3364                   20793433.5704
        51.7504         50.2504
 05 12 23 18 51  0.0000000  0  9G10G08G02G28G18G23G24G27G32
  -5223563.51648  -4059219.75048  21040437.3134                   21040439.4414
        50.0004         49.7504
 -12347416.05147  -9584437.84046  22606827.3134                   22606831.1334
        44.0004         37.5004
  -3511603.79346  -2714461.57843  24738636.3984                   24738636.3674
        39.0004         20.7504
  -1219750.31645   -416786.69142  25103519.0704                   25103529.2544
        35.5004         16.7504
   9099488.06647   7088613.03544  22643729.2034                   22643732.3794
        43.2504         28.5004
   7769400.64847   6050974.81345  21913785.9304                   21913787.2384
        45.2504         30.7504
  -7760690.82446  -6027877.84045  23239352.1094                   23239356.3714
        38.7504         32.5004
  -6028288.38747  -4668069.91047  21690797.9224                   21690801.0354
        47.0004         45.0004
 -18489528.43048 -14365242.53148  20784832.0164                   20784834.3874
        50.7504         50.2504
 05 12 23 18 51 30.0000000  0  9G10G08G02G28G18G23G24G27G32
  -5226770.69148  -4061718.84448  21039826.9694                   21039829.1414
        51.7504         49.7504
 -12375289.36747  -9606157.32846  22601523.1094                   22601527.4454
        44.0004         38.0004
  -3606462.24646  -2788377.21143  24720584.5164                   24720584.8094
        37.0004         19.2504
  -1322783.23845   -497072.01642  25083912.5394                   25083922.9884
        35.2504         17.2504
   9175849.79347   7148115.53144  22658260.2344                   22658263.4344
        43.0004         28.7504
   7819949.09447   6090363.16045  21923405.0784                   21923406.0594
        44.5004         31.2504
  -7740130.78546  -6011857.05145  23243263.9144                   23243268.6134
        38.0004         32.5004
  -5995363.80147  -4642414.43047  21697063.2894                   21697066.7344
        47.5004         44.7504
 -18534263.07848 -14400100.64548  20776319.1024                   20776321.6334
        51.5004         50.2504
 05 12 23 18 52  0.0000000  0  9G10G08G02G28G18G23G24G27G32
  -5229831.23448  -4064103.68448  21039244.6254                   21039246.6414
        49.2504         49.7504
 -12402631.25847  -9627462.71146  22596321.0164                   22596324.6994
        43.7504         38.2504
  -3701325.31646  -2862296.39843  24702534.3914                   24702533.4224
        38.2504         21.0004
  -1425956.91446   -577467.03142  25064279.4454                   25064289.0124
        36.7504         16.7504
   9252502.12947   7207844.47744  22672846.7584                   22672849.6214
        43.0004         29.0004
   7870586.77747   6129821.05145  21933041.4224                   21933041.8134
        45.0004         31.0004
  -7718985.48846  -5995380.24645  23247288.5634                   23247292.8874
        39.5004         33.0004
  -5961925.96547  -4616359.02047  21703426.1414                   21703429.7154
        46.7504         44.7504
 -18578536.67648 -14434599.50448  20767894.2894                   20767896.5704
        51.5004         50.5004
 05 12 23 18 52 30.0000000  0  9G10G08G02G28G18G23G24G27G32
  -5232750.78948  -4066378.64848  21038688.9924                   21038691.1724
        49.5004         49.7504
 -12429446.48447  -9648357.71146  22591218.2974                   22591222.4734
        43.7504         38.5004
  -3796196.65246  -2936222.07843  24684480.0004                   24684479.4184
        37.0004         19.0004
  -1529273.99246   -657973.79742  25044618.9534                   25044628.3754
        37.0004         17.7504
   9329438.82847   7267794.99244  22687487.7274                   22687490.6684
        43.0004         29.2504
   7921308.19547   6169344.18845  21942693.3204                   21942694.2974
        44.7504         32.0004
  -7697260.44146  -5978451.64845  23251421.3594                   23251426.8484
        37.5004         32.5004
  -5927981.88747  -4589909.13347  21709885.7734                   21709889.1524
        46.5004         44.5004
 -18622354.01648 -14468742.82848  20759556.1334                   20759558.3984
        51.2504         50.2504
 05 12 23 18 53  0.0000000  0  9G10G08G02G28G18G23G24G27G32
  -5235529.16848  -4068543.61348  21038160.2734                   21038162.2934
        49.0004         49.7504
 -12455734.12947  -9668841.60246  22586215.7034                   22586219.6644
        44.0004         38.2504
  -3891074.27346  -3010152.59843  24666424.8134                   24666425.0474
        37.0004         19.5004
  -1632731.56646   -738589.96543  25024931.7664                   25024940.6024
        37.5004         18.5004
   9406659.43847   7327966.73844  22702182.0784                   22702185.1214
        43.5004         28.0004
   7972113.56347   6208932.73445  21952361.4224                   21952362.3554
        44.7504         31.0004
  -7674955.72746  -5961071.37945  23255666.7814                   23255671.1334
        38.0004         33.0004
  -5893533.06247  -4563065.92647  21716441.2894                   21716444.4344
        47.0004         44.5004
 -18665714.17248 -14502529.91848  20751305.1724                   20751307.3014
        51.0004         50.2504
 05 12 23 18 53 30.0000000  0  9G10G08G02G28G18G23G24G27G32
  -5238168.62948  -4070600.32848  21037658.2114                   21037660.3134
        50.7504         49.7504
 -12481495.72747  -9688915.59046  22581313.7664                   22581317.1564
        43.5004         38.5004
  -3985958.55546  -3084088.34443  24648369.1884                   24648368.0314
        38.0004         19.7504
  -1736328.80146   -819315.02043  25005217.4924                   25005227.1294
        37.7504         18.2504
   9484161.19147   7388357.56344  22716930.8204                   22716933.7974
        42.0004         28.0004
   8023000.74647   6248585.04345  21962044.9454                   21962045.4734
        44.2504         31.7504
  -7652073.69146  -5943241.26245  23260020.3984                   23260025.6134
        37.7504         33.2504
  -5858583.14147  -4535832.25847  21723091.7504                   21723095.0204
        46.5004         44.5004
 -18708618.65648 -14535961.93448  20743140.4304                   20743142.8094
        51.0004         50.2504
 05 12 23 18 54  0.0000000  0  9G10G08G02G28G18G23G24G27G32
  -5240666.60548  -4072546.80148  21037182.6024                   21037184.6764
        51.5004         49.7504
 -12506727.94147  -9708577.07446  22576511.9844                   22576515.8284
        44.5004         38.2504
  -4080844.78946  -3158025.60543  24630312.7814                   24630313.0664
        37.5004         19.5004
  -1840060.45746   -900144.75443  24985477.3364                   24985487.1764
        36.2504         20.0004
   9561945.94147   7448968.89844  22731732.4924                   22731735.5084
        42.7504         27.0004
   8073972.35947   6288303.15645  21971744.2504                   21971745.9574
        45.0004         31.7504
  -7628611.95346  -5924959.41045  23264485.3134                   23264490.4304
        37.0004         33.5004
  -5823131.20747  -4508207.41447  21729838.3754                   21729841.2194
        47.2504         44.5004
 -18751064.23048 -14569036.35948  20735063.6334                   20735065.4224
        51.0004         50.5004
 05 12 23 18 54 30.0000000  0  9G10G08G02G28G18G23G24G27G32
  -5243024.81648  -4074384.36748  21036733.9844                   21036735.9494
        49.7504         50.0004
 -12531431.89847  -9727826.91846  22571811.2274                   22571814.8164
        43.7504         38.5004
  -4175733.25846  -3231964.61343  24612256.1334                   24612255.8914
        38.2504         20.7504
  -1943925.19946   -981078.20343  24965712.8284                   24965721.7704
        37.7504         18.2504
   9640011.38347   7509798.95344  22746587.3134                   22746591.0124
        42.0004         27.7504
   8125026.77047   6328085.77045  21981459.7664                   21981460.7424
        44.0004         32.0004
  -7604572.50846  -5906227.41845  23269059.7814                   23269064.9734
        37.5004         32.5004
  -5787180.59047  -4480193.98447  21736679.5474                   21736682.5234
        46.7504         45.0004
 -18793051.86348 -14601753.94548  20727073.3054                   20727075.7114
        50.7504         50.5004
 05 12 23 18 55  0.0000000  0  9G10G08G02G28G18G23G24G27G32
  -5245245.00848  -4076114.37948  21036311.6564                   21036313.7234
        50.0004         50.0004
 -12555608.60247  -9746665.92246  22567210.7584                   22567214.1844
        44.2504         38.5004
  -4270623.75446  -3305905.18443  24594199.6414                   24594199.4804
        38.5004         20.0004
  -2047921.96946  -1062114.51643  24945922.4304                   24945931.8794
        37.5004         19.7504
   9718355.02746   7570845.78544  22761496.4144                   22761499.8794
        41.5004         28.5004
   8176162.23047   6367931.52745  21991190.6094                   21991191.9224
        45.0004         32.0004
  -7579957.27346  -5887046.74645  23273744.6884                   23273748.8014
        37.7504         32.5004
  -5750734.64547  -4451794.58247  21743614.6484                   21743618.0124
        47.2504         44.5004
 -18834582.68448 -14634115.57448  20719170.1254                   20719172.3484
        51.0004         50.5004
 05 12 23 18 55 30.0000000  0  9G10G08G02G28G18G23G24G27G32
  -5247325.91048  -4077735.85548  21035915.7274                   21035917.5234
        49.5004         49.7504
 -12579256.22747  -9765092.65246  22562710.6024                   22562714.1334
        44.2504         38.0004
  -4365513.10946  -3379844.87543  24576142.1484                   24576142.0354
        38.0004         20.2504
  -2152046.62146  -1143250.48043  24926108.8524                   24926117.0944
        37.5004         19.7504
   9796977.49647   7632109.88744  22776458.0864                   22776461.2854
        42.0004         28.5004
   8227380.15647   6407841.54745  22000937.1094                   22000937.9064
        43.7504         32.0004
  -7554765.37946  -5867416.72745  23278538.2274                   23278542.8284
        37.5004         32.2504
  -5713793.76647  -4423009.52347  21750644.3134                   21750647.8834
        47.0004         44.2504
 -18875654.77348 -14666119.75448  20711354.3284                   20711356.8794
        50.5004         50.7504
 05 12 23 18 56  0.0000000  0  9G10G08G02G28G18G23G24G27G32
  -5249269.19148  -4079250.09448  21035545.7664                   21035547.6334
        49.2504         50.0004
 -12602375.81647  -9783107.93046  22558310.7894                   22558314.3164
        44.5004         38.0004
  -4460401.03146  -3453783.45743  24558086.3834                   24558085.7624
        38.7504         21.0004
  -2256297.96546  -1224485.16043  24906269.9924                   24906279.4344
        38.7504         20.2504
   9875876.36346   7693589.35544  22791472.2734                   22791475.4414
        41.7504         28.0004
   8278678.97347   6447814.60945  22010698.9384                   22010700.2194
        44.7504         32.0004
  -7528998.66846  -5847338.76245  23283440.5314                   23283446.1174
        36.7504         32.2504
  -5676361.28147  -4393841.39847  21757767.9304                   21757771.0704
        47.0004         44.2504
 -18916269.18048 -14697767.29348  20703625.6414                   20703627.8014
        51.0004         50.7504
 05 12 23 18 56 30.0000000  0  9G10G08G02G28G18G23G24G27G32
  -5251073.06648  -4080655.69948  21035202.7894                   21035204.5824
        49.2504         50.0004
 -12624965.00847  -9800709.91846  22554012.4304                   22554016.0274
        44.0004         38.5004
  -4555284.07846  -3527718.21543  24540029.6954                   24540029.0984
        37.2504         19.2504
  -2360671.22746  -1305814.84443  24886408.3134                   24886417.6134
        39.5004         20.0004
   9955052.74646   7755285.06344  22806538.4534                   22806541.7544
        41.7504         28.2504
   8330060.48447   6487852.09045  22020476.3444                   22020477.7934
        44.0004         32.0004
  -7502655.86746  -5826811.93745  23288454.2194                   23288458.8164
        36.5004         31.7504
  -5638437.14147  -4364290.15647  21764984.1254                   21764988.0004
        46.5004         44.0004
 -18956423.58648 -14729056.39548  20695984.4844                   20695986.8714
        50.7504         50.7504
 05 12 23 18 57  0.0000000  0  9G10G08G02G28G18G23G24G27G32
  -5252740.69948  -4081955.14548  21034885.1564                   21034887.3524
        50.7504         50.0004
 -12647026.51247  -9817900.72746  22549813.9064                   22549818.6134
        44.7504         38.0004
  -4650163.49246  -3601650.16043  24521974.4304                   24521975.2734
        36.0004         19.7504
  -2465166.76246  -1387239.82043  24866523.5634                   24866532.5634
        39.5004         20.7504
  10034502.62546   7817193.90644  22821657.4304                   22821661.1254
        41.7504         26.5004
   8381521.61347   6527951.60945  22030269.5474                   22030270.7034
        44.2504         32.5004
  -7475740.34046  -5805838.82845  23293576.2734                   23293580.6254
        37.2504         32.5004
  -5600026.24647  -4334359.62947  21772294.3134                   21772297.0904
        47.0004         44.0004
 -18996120.55148 -14759989.05548  20688430.3524                   20688432.5664
        50.7504         51.0004
 05 12 23 18 57 30.0000000  0  9G10G08G02G28G18G23G24G27G32
  -5254273.14148  -4083149.24648  21034593.4694                   21034595.5904
        50.0004         49.7504
 -12668560.77047  -9834680.68446  22545715.9924                   22545720.0514
        45.0004         37.7504
  -4745038.25846  -3675578.48843  24503921.1804                   24503920.3094
        37.7504         20.7504
  -2569782.68746  -1468758.59043  24846615.5084                   24846624.2584
        40.2504         21.2504
  10114224.36347   7879314.55944  22836828.2974                   22836831.6334
        43.0004         29.0004
   8433061.40647   6568112.41845  22040077.3364                   22040078.2194
        44.2504         32.5004
  -7448253.68046  -5784420.64845  23298807.1094                   23298811.7734
        38.0004         33.0004
  -5561131.32847  -4304051.93747  21779695.4924                   21779698.4454
        46.7504         44.0004
 -19035360.51248 -14790565.59448  20680963.3524                   20680965.3524
        50.7504         51.0004
 05 12 23 18 58  0.0000000  0  9G10G08G02G28G18G23G24G27G32
  -5255665.93048  -4084234.53148  21034328.6414                   21034330.5594
        50.2504         49.7504
 -12689562.91847  -9851046.02046  22541719.7034                   22541723.5124
        44.5004         38.0004
  -4839902.11346  -3749498.31243  24485868.9144                   24485868.5474
        38.2504         20.5004
  -2674511.65246  -1550365.45743  24826686.4454                   24826695.3484
        40.2504         20.2504
  10194221.57046   7941649.87544  22852051.6954                   22852055.3874
        41.5004         26.5004
   8484684.33647   6608338.00845  22049900.9534                   22049901.8364
        44.2504         32.0004
  -7420191.91846  -5762554.35545  23304147.3134                   23304151.4844
        38.2504         33.0004
  -5521749.79347  -4273365.07047  21787189.1094                   21787192.6884
        47.0004         44.0004
 -19074138.62148 -14820782.25848  20673583.9304                   20673586.2274
        50.5004         51.0004
 05 12 23 18 58 30.0000000  0  9G10G08G02G28G18G23G24G27G32
  -5256922.87948  -4085213.96948  21034089.2584                   21034091.1054
        50.5004         49.7504
 -12710036.22747  -9866999.26646  22537824.0394                   22537827.5904
        44.2504         38.0004
  -4934757.22346  -3823411.36343  24467818.9224                   24467817.5084
        38.2504         19.5004
  -2779354.55546  -1632061.08243  24806735.2894                   24806744.2464
        41.0004         20.7504
  10274489.62147   8004196.23844  22867325.8204                   22867329.7464
        42.0004         27.2504
   8536386.79347   6648625.56645  22059739.5314                   22059740.7774
        44.0004         32.5004
  -7391559.29346  -5740243.23845  23309595.2424                   23309599.9774
        39.2504         32.0004
  -5481887.19547  -4242303.34447  21794774.9844                   21794778.6174
        46.7504         43.7504
 -19112458.12148 -14850641.56248  20666292.0004                   20666294.1604
        50.2504         51.0004
 05 12 23 18 59  0.0000000  0  9G10G08G02G28G18G23G24G27G32
  -5258040.94148  -4086085.18448  21033876.4144                   21033878.8524
        51.0004         49.7504
 -12729977.31647  -9882537.80546  22534029.2424                   22534032.8794
        44.2504         37.5004
  -5029598.40246  -3897313.51643  24449771.6644                   24449770.8364
        38.2504         20.5004
  -2884305.45746  -1713840.91843  24786763.3054                   24786772.2854
        40.0004         20.5004
  10355030.84446   8066955.44944  22882652.6724                   22882655.8874
        41.7504         27.5004
   8588171.87947   6688977.51645  22069593.9534                   22069595.0784
        43.7504         31.7504
  -7362353.23046  -5717485.28545  23315153.5784                   23315157.3364
        38.7504         31.5004
  -5441542.33647  -4210865.82447  21802452.7344                   21802455.9384
        47.0004         43.5004
 -19150315.48848 -14880140.77348  20659088.0784                   20659090.3134
        50.0004         51.0004
 05 12 23 18 59 30.0000000  0  9G10G08G02G28G18G23G24G27G32
  -5259026.09048  -4086852.82048  21033689.0554                   21033691.0634
        50.7504         50.0004
 -12749391.75447  -9897665.95746  22530334.6094                   22530338.7544
        43.5004         38.2504
  -5124430.15246  -3971208.33643  24431724.9774                   24431723.6564
        37.7504         20.7504
  -2989367.44146  -1795707.26243  24766770.2974                   24766779.3554
        39.0004         21.5004
  10435838.34047   8129922.15644  22898030.4224                   22898033.6294
        42.2504         28.2504
   8640033.64147   6729389.23845  22079462.2504                   22079463.9104
        44.0004         32.0004
  -7332580.27346  -5694285.58645  23320818.4144                   23320823.5044
        39.0004         32.0004
  -5400723.07047  -4179058.64847  21810219.6884                   21810223.5514
        47.0004         43.7504
 -19187716.29348 -14909284.20748  20651970.4844                   20651973.0704
        50.5004         51.2504
 05 12 23 19  0  0.0000000  0  9G10G08G02G28G18G23G24G27G32
  -5259871.87148  -4087511.86348  21033528.1174                   21033530.3914
        51.0004         50.0004
 -12768272.72347  -9912378.43446  22526741.9064                   22526745.9264
        44.5004         38.0004
  -5219243.78546  -4045089.00443  24413681.6484                   24413682.3404
        37.7504         22.0004
  -3094531.10946  -1877652.88343  24746758.8134                   24746767.4574
        40.0004         22.5004
  10516917.78146   8193100.75844  22913459.5634                   22913462.6484
        41.7504         27.7504
   8691978.59447   6769865.76645  22089347.4304                   22089349.5124
        44.0004         31.5004
  -7302234.59846  -5670639.58245  23326592.4774                   23326598.0394
        37.0004         32.0004
  -5359424.78147  -4146878.19947  21818078.9534                   21818082.2464
        46.5004         43.2504
 -19224653.65648 -14938066.53148  20644942.0784                   20644944.2624
        50.0004         51.2504
 05 12 23 19  0 30.0000000  0  9G10G08G02G28G18G23G24G27G32
  -5260578.98848  -4088062.86348  21033393.7274                   21033395.6484
        49.2504         49.7504
 -12786620.66447  -9926675.55546  22523250.3444                   22523253.9694
        44.2504         38.2504
  -5314038.06246  -4118954.64843  24395643.3594                   24395642.4804
        37.5004         22.5004
  -3199794.28546  -1959676.00443  24726727.8524                   24726736.6844
        39.2504         22.2504
  10598267.59047   8256490.03144  22928939.5634                   22928943.2194
        42.2504         27.2504
   8744006.09047   6810406.61345  22099247.8364                   22099249.5704
        44.5004         31.5004
  -7271317.50446  -5646548.37945  23332477.2664                   23332480.9494
        37.5004         32.5004
  -5317650.12147  -4114326.55547  21826028.6174                   21826031.9534
        46.2504         43.7504
 -19261127.90648 -14966487.98448  20638001.0864                   20638003.1954
        50.5004         51.5004
 05 12 23 19  1  0.0000000  0  9G10G08G02G28G18G23G24G27G32
  -5261150.59848  -4088508.25448  21033284.8524                   21033286.5704
        50.7504         49.7504
 -12804438.33647  -9940559.47746  22519859.7504                   22519863.2734
        44.5004         38.2504
  -5408814.44546  -4192806.28943  24377608.3284                   24377607.9184
        38.7504         21.5004
  -3305157.24646  -2041776.94143  24706677.5164                   24706686.5744
        39.0004         21.5004
  10679883.74647   8320086.84044  22944471.0164                   22944474.4774
        42.5004         28.0004
   8796113.12947   6851009.44945  22109163.9454                   22109164.9024
        44.0004         31.0004
  -7239832.76246  -5622014.80545  23338467.5784                   23338472.6884
        37.2504         32.0004
  -5275404.14147  -4081407.65647  21834067.8444                   21834071.5744
        47.0004         43.5004
 -19297141.81648 -14994550.71948  20631147.7194                   20631149.7974
        50.7504         51.5004
 05 12 23 19  1 30.0000000  0  9G10G08G02G28G18G23G24G27G32
  -5261587.38748  -4088848.60248  21033201.5314                   21033203.5554
        50.7504         50.0004
 -12821726.20347  -9954030.56646  22516570.0314                   22516573.7424
        44.0004         37.5004
  -5503571.63046  -4266642.99543  24359575.7424                   24359575.7114
        39.7504         21.7504
  -3410617.67646  -2123953.79343  24686609.3914                   24686618.0314
        39.5004         22.0004
  10761764.72346   8383890.00044  22960052.7734                   22960056.0434
        41.5004         28.2504
   8848299.02047   6891673.72345  22119094.8834                   22119096.0234
        43.5004         32.0004
  -7207781.80145  -5597040.00845  23344565.0554                   23344571.6054
        34.7504         31.7504
  -5232689.50047  -4048123.56647  21842195.6254                   21842199.5824
        46.2504         43.7504
 -19332695.69148 -15022255.00048  20624382.0944                   20624384.2504
        50.7504         51.5004
 05 12 23 19  2  0.0000000  0  9G10G08G02G28G18G23G24G27G32
  -5261885.53548  -4089080.92248  21033145.0554                   21033146.6414
        50.0004         49.7504
 -12838480.14547  -9967085.61746  22513381.6644                   22513385.5004
        43.7504         37.5004
  -5598304.18746  -4340460.52343  24341549.2194                   24341549.1994
        38.7504         21.5004
  -3516168.83246  -2206201.37943  24666523.1094                   24666531.8284
        39.7504         22.2504
  10843913.40246   8447901.73844  22975684.7034                   22975688.7344
        41.2504         28.2504
   8900567.62947   6932402.44145  22129041.0944                   22129042.4184
        43.5004         31.7504
  -7175161.45346  -5571621.55945  23350773.6024                   23350779.2114
        37.5004         31.5004
  -5189504.31647  -4014472.81647  21850414.0474                   21850417.3714
        46.5004         43.5004
 -19367785.43748 -15049597.62148  20617704.6884                   20617706.8444
        50.7504         51.2504
 05 12 23 19  2 30.0000000  0  9G10G08G02G28G18G23G24G27G32
  -5262049.87148  -4089208.97348  21033114.0004                   21033115.3244
        49.7504         49.7504
 -12854704.92647  -9979728.32846  22510294.0554                   22510298.0164
        44.0004         38.0004
  -5693014.82446  -4414260.96943  24323526.7584                   24323526.0314
        39.7504         21.5004
  -3621812.73846  -2288521.22343  24646419.9454                   24646428.6644
        40.2504         21.7504
  10926324.03146   8512117.60544  22991367.4694                   22991370.7774
        41.5004         27.7504
   8952914.27047   6973191.97745  22139002.2424                   22139003.2344
        43.5004         31.5004
  -7141977.32046  -5545763.81245  23357089.7424                   23357094.0044
        39.2504         31.7504
  -5145855.44947  -3980460.76247  21858720.2034                   21858723.5314
        46.5004         43.7504
 -19402415.56248 -15076582.09048  20611114.7114                   20611116.7734
        50.0004         51.5004
 05 12 23 19  3  0.0000000  0  9G10G08G02G28G18G23G24G27G32
  -5262082.36348  -4089234.27748  21033107.4774                   21033109.5084
        50.7504         49.7504
 -12870402.18747  -9991959.98846  22507307.7424                   22507311.3524
        44.5004         38.0004
  -5787703.62546  -4488044.40643  24305508.0784                   24305507.0784
        39.5004         21.7504
  -3727548.39146  -2370912.57443  24626299.2734                   24626307.8714
        40.5004         22.5004
  11008993.71146   8576535.32844  23007099.5634                   23007102.9804
        41.5004         27.7504
   9005337.04747   7014040.84845  22148977.7424                   22148979.2734
        43.5004         30.7504
  -7108232.09846  -5519468.84045  23363511.4844                   23363515.3594
        38.0004         32.5004
  -5101746.88747  -3946090.49647  21867113.5864                   21867117.1764
        46.5004         43.7504
 -19436587.75848 -15103209.73848  20604611.8914                   20604613.9184
        51.0004         51.5004
 05 12 23 19  3 30.0000000  0  9G10G08G02G28G18G23G24G27G32
  -5261977.77748  -4089152.78148  21033127.2734                   21033129.5044
        49.5004         50.0004
 -12885566.66847 -10003776.50046  22504421.7034                   22504425.5474
        44.0004         38.0004
  -5882363.66046  -4561805.40643  24287494.6334                   24287493.7584
        38.2504         22.5004
  -3833367.62146  -2453369.02043  24606162.2894                   24606170.7424
        39.5004         22.0004
  11091926.66847   8641158.18844  23022880.3984                   23022885.1294
        42.5004         28.2504
   9057841.17247   7054953.09845  22158969.0004                   22158970.9024
        44.5004         31.0004
  -7073921.46146  -5492733.28945  23370039.5394                   23370044.9494
        39.0004         32.5004
  -5057175.46147  -3911359.55947  21875595.1724                   21875598.5984
        46.2504         43.5004
 -19470296.59048 -15129476.30948  20598197.5864                   20598199.1254
        50.0004         51.5004
 05 12 23 19  4  0.0000000  0  9G10G08G02G28G18G23G24G27G32
  -5261737.89848  -4088965.84048  21033173.2424                   21033174.7074
        50.2504         50.0004
 -12900199.94947 -10015179.09846  22501637.5474                   22501640.8404
        43.5004         37.5004
  -5976994.37546  -4635543.59443  24269486.6724                   24269486.1564
        38.2504         22.0004
  -3939269.25446  -2535889.68443  24586009.8834                   24586018.8134
        39.2504         22.5004
  11175120.30547   8705984.17644  23038712.1024                   23038715.8634
        42.2504         27.7504
   9110425.03547   7095927.46945  22168975.5234                   22168976.9304
        44.2504         30.0004
  -7039047.91846  -5465559.08645  23376675.4304                   23376681.1884
        38.2504         32.5004
  -5012144.97347  -3876270.91847  21884164.4064                   21884167.8484
        46.2504         43.7504
 -19503543.55148 -15155382.98848  20591870.7664                   20591872.7814
        50.2504         51.5004
 05 12 23 19  4 30.0000000  0  9G10G08G02G28G18G23G24G27G32
  -5261363.23048  -4088673.87948  21033244.1174                   21033246.6054
        50.0004         50.0004
 -12914302.46147 -10026168.10546  22498953.5004                   22498957.0944
        44.2504         37.2504
  -6071594.77046  -4709258.13343  24251484.7734                   24251484.0474
        38.0004         22.0004
  -4045250.93046  -2618472.76243  24565841.9454                   24565851.0744
        38.7504         21.5004
  11258573.05147   8771012.07044  23054592.4844                   23054597.1094
        42.0004         28.0004
   9163088.09047   7136963.53145  22178996.8204                   22178998.7274
        44.0004         30.5004
  -7003612.84046  -5437947.35545  23383418.4924                   23383423.6294
        37.2504         31.0004
  -4966657.98847  -3840826.55547  21892820.5864                   21892823.8054
        45.7504         43.5004
 -19536328.99248 -15180930.03948  20585631.6884                   20585633.8444
        50.7504         51.7504
 05 12 23 19  5  0.0000000  0  9G10G08G02G28G18G23G24G27G32
  -5260852.40248  -4088275.82048  21033341.4304                   21033343.3484
        49.0004         50.0004
 -12927872.80947 -10036742.43046  22496370.7424                   22496374.7074
        44.0004         38.0004
  -6166161.70346  -4782946.60543  24233489.3134                   24233488.3984
        38.7504         22.0004
  -4151308.27746  -2701114.77043  24545660.3284                   24545668.5664
        39.0004         21.5004
  11342285.25847   8836242.14144  23070522.8674                   23070526.9494
        42.0004         28.0004
   9215831.84447   7178062.49245  22189033.9694                   22189035.6294
        43.7504         30.5004
  -6967615.84446  -5409897.72745  23390268.3524                   23390274.0594
        39.0004         33.2504
  -4920715.36747  -3805027.16847  21901562.5784                   21901566.2544
        46.0004         43.7504
 -19568651.36748 -15206116.26248  20579480.6884                   20579482.9384
        50.5004         51.7504
 05 12 23 19  5 30.0000000  0  9G10G08G02G28G18G23G24G27G32
  -5260208.68048  -4087774.20748  21033464.1884                   21033465.9024
        48.7504         49.7504
 -12940914.18047 -10046904.57846  22493889.6254                   22493893.6454
        44.5004         37.7504
  -6260696.33646  -4856609.89143  24215499.8674                   24215499.4224
        38.5004         22.0004
  -4257441.65646  -2783816.02743  24525463.4064                   24525471.8714
        39.0004         22.2504
  11426252.66047   8901671.05144  23086501.7114                   23086505.6174
        42.0004         28.0004
   9268653.09847   7219221.84045  22199085.4774                   22199087.0864
        43.7504         30.2504
  -6931061.07046  -5381413.52345  23397225.6884                   23397230.2704
        39.0004         31.5004
  -4874322.43047  -3768876.87947  21910391.4224                   21910394.8754
        46.5004         43.7504
 -19600513.78548 -15230944.08248  20573417.8444                   20573419.9654
        50.5004         51.7504
 05 12 23 19  6  0.0000000  0  9G10G08G02G28G18G23G24G27G32
  -5259429.48848  -4087167.04748  21033612.2424                   21033614.0084
        48.5004         50.0004
 -12953424.07447 -10056652.57446  22491508.8054                   22491512.4804
        44.5004         37.5004
  -6355194.30546  -4930244.65243  24197517.6644                   24197516.9654
        39.0004         22.7504
  -4363645.57846  -2866572.23043  24505252.9844                   24505261.7114
        39.5004         21.5004
  11510476.84046   8967300.05144  23102529.1094                   23102533.6454
        41.5004         27.0004
   9321554.42247   7260443.56345  22209152.7114                   22209154.2664
        44.5004         30.5004
  -6893946.90646  -5352493.39545  23404286.5234                   23404292.4184
        37.5004         31.7504
  -4827478.83647  -3732375.43747  21919305.2424                   21919309.2734
        45.7504         43.5004
 -19631913.55148 -15255411.39548  20567442.6564                   20567444.7464
        49.5004         51.7504
 05 12 23 19  6 30.0000000  0  9G10G08G02G28G18G23G24G27G32
  -5258518.12548  -4086456.89548  21033785.8204                   21033787.7464
        48.7504         49.7504
 -12965405.67647 -10065988.92646  22489228.6484                   22489232.6454
        43.5004         37.0004
  -6449656.71146  -5003851.67243  24179541.8364                   24179541.0394
        39.0004         22.5004
  -4469920.43046  -2949383.69543  24485030.1724                   24485038.6254
        39.5004         21.0004
  11594953.46146   9033125.74644  23118604.6644                   23118608.8244
        41.5004         26.5004
   9374532.66447   7301725.23845  22219234.0554                   22219235.2034
        44.2504         30.0004
  -6856277.59046  -5323140.72745  23411457.4064                   23411460.7034
        40.0004         32.2504
  -4780189.95347  -3695527.01247  21928304.0554                   21928307.7814
        46.0004         43.5004
 -19662853.82848 -15279520.65648  20561554.6484                   20561556.7384
        49.5004         51.7504
 05 12 23 19  7  0.0000000  0  9G10G08G02G28G18G23G24G27G32
  -5257475.93048  -4085644.80148  21033984.0164                   21033985.9694
        50.5004         50.0004
 -12976860.57447 -10074914.86346  22487049.4694                   22487052.8714
        44.5004         38.0004
  -6544083.27346  -5077430.75444  24161572.7114                   24161572.7424
        39.0004         24.2504
  -4576264.60546  -3032249.23043  24464793.2504                   24464801.8204
        39.7504         22.2504
  11679680.07446   9099146.24244  23134727.7974                   23134732.4804
        41.5004         27.0004
   9427586.55947   7343065.87144  22229329.5004                   22229331.3954
        44.0004         29.0004
  -6818055.63746  -5293357.35245  23418727.8524                   23418734.1804
        37.5004         31.7504
  -4732459.38347  -3658334.42647  21937386.7344                   21937390.8674
        46.2504         43.5004
 -19693335.91448 -15303272.89548  20555754.2114                   20555756.0864
        51.5004         52.0004
 05 12 23 19  7 30.0000000  0  9G10G08G02G28G18G23G24G27G32
  -5256300.96548  -4084729.23848  21034207.5634                   21034209.7234
        49.7504         50.0004
 -12987786.80547 -10083428.84046  22484970.0234                   22484973.8324
        43.5004         37.5004
  -6638470.17246  -5150978.95743  24143611.9144                   24143611.3204
        39.5004         23.2504
  -4682673.25846  -3115164.95343  24444544.1724                   24444552.9384
        39.5004         21.7504
  11764657.50847   9165362.16844  23150898.8444                   23150902.9454
        42.0004         27.2504
   9480718.05547   7384466.95744  22239440.5704                   22239441.8794
        44.0004         29.5004
  -6779280.08646  -5263142.65245  23426108.6564                   23426113.3094
        39.5004         32.0004
  -4684287.41847  -3620797.89847  21946553.7274                   21946557.4804
        46.0004         43.2504
 -19723357.81248 -15326666.55148  20550041.0004                   20550042.9414
        50.7504         52.0004
 05 12 23 19  8  0.0000000  0  9G10G08G02G28G18G23G24G27G32
  -5254991.27348  -4083708.69148  21034456.9924                   21034459.0354
        50.2504         50.0004
 -12998182.59047 -10091529.48846  22482991.9304                   22482995.5864
        43.2504         37.0004
  -6732813.61746  -5224493.30143  24125659.2424                   24125658.1374
        39.5004         22.7504
  -4789141.50846  -3198127.12943  24424284.0234                   24424292.2704
        39.2504         21.7504
  11849886.73846   9231774.31344  23167117.4304                   23167121.7154
        41.5004         27.5004
   9533929.09447   7425930.04744  22249566.2664                   22249567.8714
        43.5004         29.7504
  -6739950.00046  -5232495.87945  23433591.7814                   23433597.7194
        37.5004         31.5004
  -4635674.32847  -3582917.63747  21955804.8054                   21955808.5704
        46.0004         43.0004
 -19752917.57048 -15349700.08248  20544416.1254                   20544417.8834
        52.0004         52.0004
 05 12 23 19  8 30.0000000  0  9G10G08G02G28G18G23G24G27G32
  -5253547.17248  -4082583.41448  21034731.6884                   21034733.3094
        51.0004         50.0004
 -13008048.36747 -10099217.12946  22481113.9924                   22481118.0864
        43.2504         37.5004
  -6827111.80946  -5297972.33243  24107715.2344                   24107714.2704
        39.7504         22.5004
  -4895666.67646  -3281133.68743  24404013.5634                   24404021.3404
        39.0004         21.0004
  11935366.19146   9298381.43044  23183383.9144                   23183388.7704
        41.2504         28.0004
   9587219.52347   7467454.96544  22259707.5394                   22259708.7194
        43.7504         29.7504
  -6700066.96146  -5201418.16845  23441181.1254                   23441186.6134
        37.0004         32.0004
  -4586622.76647  -3544695.71547  21965138.9534                   21965142.6174
        46.0004         43.2504
 -19782015.45748 -15372373.71948  20538878.9384                   20538880.9964
        52.2504         52.0004
 05 12 23 19  9  0.0000000  0  9G10G08G02G28G18G23G24G27G32
  -5251974.27748  -4081357.77348  21035031.1174                   21035032.7934
        51.0004         50.0004
 -13017389.94547 -10106496.32046  22479336.6484                   22479340.5164
        43.2504         38.5004
  -6921368.65646  -5371419.21143  24089778.1884                   24089777.4304
        38.7504         22.5004
  -5002251.43746  -3364186.62943  24383730.7584                   24383739.0594
        39.0004         21.5004
  12021089.24647   9365178.36744  23199696.6334                   23199701.4494
        42.0004         26.5004
   9640583.73847   7509037.40244  22269861.6954                   22269863.1054
        43.0004         29.7504
  -6659637.68046  -5169914.86345  23448875.3134                   23448880.3404
        38.7504         31.7504
  -4537140.57047  -3506138.23047  21974554.8914                   21974558.5664
        46.5004         43.0004
 -19810657.12148 -15394691.85948  20533428.3594                   20533430.2704
        52.7504         52.0004
 05 12 23 19  9 30.0000000  0  9G10G08G02G28G18G23G24G27G32
  -5250269.44948  -4080029.33248  21035355.3054                   21035357.1254
        51.5004         50.0004
 -13026204.42647 -10113364.77746  22477659.3914                   22477663.1214
        43.5004         38.0004
  -7015578.95746  -5444829.78943  24071850.3364                   24071849.5084
        39.0004         22.2504
  -5108889.84446  -3447281.37143  24363437.9924                   24363446.1094
        39.0004         21.7504
  12107057.83646   9432166.64544  23216055.9304                   23216060.6604
        41.5004         26.0004
   9694024.92647   7550679.81344  22280031.2734                   22280032.7624
        43.7504         29.5004
  -6618660.10246  -5137984.33645  23456674.3674                   23456678.1174
        39.7504         31.5004
  -4487226.94547  -3467244.56647  21984053.5474                   21984057.2384
        46.0004         43.0004
 -19838839.50848 -15416652.12148  20528065.3754                   20528067.3094
        52.5004         52.2504
 05 12 23 19 10  0.0000000  0  9G10G08G02G28G18G23G24G27G32
  -5248430.21548  -4078596.15648  21035705.4774                   21035707.3444
        50.2504         50.0004
 -13034489.54747 -10119820.74246  22476082.1644                   22476086.7114
        43.0004         37.5004
  -7109738.46146  -5518200.79343  24053932.2974                   24053931.9924
        39.5004         22.7504
  -5215576.37946  -3530413.59843  24343135.2894                   24343144.2504
        39.0004         22.0004
  12193273.29747   9499347.28544  23232462.3914                   23232466.9694
        42.5004         28.5004
   9747545.61747   7592384.19544  22290216.3444                   22290217.8754
        43.2504         28.7504
  -6577133.07446  -5105625.55945  23464574.6414                   23464579.6684
        37.7504         31.5004
  -4436881.75047  -3428014.61747  21993634.1174                   21993637.6644
        46.0004         43.2504
 -19866560.19948 -15438252.62148  20522790.4144                   20522792.4304
        52.5004         52.2504
 05 12 23 19 10 30.0000000  0  9G10G08G02G28G18G23G24G27G32
  -5246459.42248  -4077060.46948  21036080.3364                   21036082.1214
        50.0004         50.0004
 -13042248.41447 -10125866.64546  22474606.0474                   22474610.4734
        43.7504         38.0004
  -7203848.02346  -5591532.89843  24036023.4614                   24036022.6414
        39.5004         22.2504
  -5322311.00846  -3613583.30943  24322825.1414                   24322833.4654
        38.7504         21.2504
  12279731.60947   9566717.15244  23248914.8524                   23248919.7664
        42.7504         26.0004
   9801143.02347   7634148.33244  22300415.7664                   22300417.0904
        42.0004         29.0004
  -6535060.54746  -5072841.82845  23472582.3444                   23472586.3524
        40.2504         32.5004
  -4386110.16047  -3388452.41047  22003295.5474                   22003299.4734
        44.5004         42.7504
 -19893822.09848 -15459495.62148  20517602.7034                   20517604.5354
        52.0004         52.2504
 05 12 23 19 11  0.0000000  0  9G10G08G02G28G18G23G24G27G32
  -5244356.15248  -4075421.54748  21036480.3914                   21036482.5664
        49.0004         50.0004
 -13049480.48847 -10131502.06646  22473230.1094                   22473234.6884
        43.2504         38.2504
  -7297904.93446  -5664823.93043  24018126.0554                   24018124.9534
        39.2504         22.5004
  -5429089.83246  -3696787.43043  24302505.3284                   24302513.8594
        38.5004         20.2504
  12366432.51647   9634276.05544  23265413.7664                   23265418.7154
        43.0004         26.7504
   9854818.03947   7675972.95344  22310629.5864                   22310630.9494
        43.5004         28.2504
  -6492443.02746  -5039633.41845  23480692.5474                   23480697.2814
        39.0004         33.2504
  -4334913.65247  -3348559.09447  22013037.9844                   22013041.4494
        45.5004         43.2504
 -19920624.41448 -15480380.50048  20512502.2504                   20512504.7034
        51.5004         52.2504
 05 12 23 19 11 30.0000000  0  9G10G08G02G28G18G23G24G27G32
  -5242121.76248  -4073680.45348  21036905.7344                   21036907.8054
        50.0004         49.7504
 -13056187.38347 -10136728.25446  22471953.6414                   22471957.9224
        42.0004         37.7504
  -7391908.59846  -5738073.51244  24000236.4064                   24000236.7384
        39.7504         24.7504
  -5535911.30146  -3780024.77743  24282178.1094                   24282186.1994
        38.0004         21.7504
  12453373.47347   9702022.01644  23281958.2344                   23281963.4654
        42.2504         25.5004
   9908569.49247   7717857.12544  22320858.3284                   22320859.9384
        43.7504         29.5004
  -6449283.08646  -5006002.27745  23488903.3914                   23488910.4104
        36.0004         31.0004
  -4283295.96547  -3308337.59047  22022860.6414                   22022864.4884
        45.2504         43.0004
 -19946968.66048 -15500908.45348  20507489.2664                   20507491.0004
        51.0004         52.2504
 05 12 23 19 12  0.0000000  0  9G10G08G02G28G18G23G24G27G32
  -5239752.10948  -4071833.96548  21037356.6954                   21037358.6564
        49.5004         50.0004
 -13062365.34447 -10141542.28946  22470777.8674                   22470782.4884
        43.5004         38.0004
  -7485853.17646  -5811277.02344  23982359.6954                   23982359.0594
        39.0004         24.5004
  -5642768.35946  -3863289.85543  24261843.5634                   24261851.9734
        38.5004         21.5004
  12540557.35247   9769957.25844  23298549.1884                   23298554.0984
        42.0004         26.0004
   9962401.46547   7759804.04344  22331102.6644                   22331103.6174
        43.5004         29.2504
  -6405577.96546  -4971946.35945  23497221.1254                   23497226.9064
        39.0004         32.0004
  -4231255.38747  -3267786.55547  22032763.7424                   22032767.4104
        45.7504         43.0004
 -19972850.85248 -15521076.35548  20502563.7814                   20502565.9534
        51.7504         52.0004
 05 12 23 19 12 30.0000000  0  9G10G08G02G28G18G23G24G27G32
  -5237246.90248  -4069881.84448  21037833.3914                   21037835.4104
        49.2504         50.0004
 -13068014.51247 -10145944.27746  22469703.2194                   22469707.3524
        43.0004         37.7504
  -7579736.07446  -5884432.48443  23964494.6564                   23964494.0434
        38.5004         22.7504
  -5749657.70746  -3946580.10243  24241503.2814                   24241511.5354
        38.2504         20.7504
  12627983.25046   9838081.08244  23315185.8054                   23315191.0084
        41.5004         25.2504
  10016314.27747   7801813.95344  22341361.4924                   22341362.5944
        43.2504         29.0004
  -6361328.59846  -4937466.33645  23505640.4534                   23505647.3484
        36.0004         31.5004
  -4178794.10247  -3226907.71147  22042746.5314                   22042750.7234
        45.7504         43.0004
 -19998270.90648 -15540884.15648  20497726.5944                   20497728.7194
        51.7504         52.2504
 05 12 23 19 13  0.0000000  0  9G10G08G02G28G18G23G24G27G32
  -5234607.24248  -4067824.95748  21038335.7504                   21038337.6374
        49.0004         50.0004
 -13073136.32847 -10149935.34446  22468729.2814                   22468732.9224
        43.2504         38.2504
  -7673556.62546  -5957539.34843  23946641.2894                   23946640.4224
        38.0004         22.5004
  -5856577.55946  -4029894.08643  24221157.3054                   24221165.2624
        37.5004         21.0004
  12715648.85546   9906391.70744  23331868.4224                   23331873.5164
        41.7504         24.7504
  10070307.00447   7843886.15644  22351635.9064                   22351637.5784
        43.0004         29.0004
  -6316537.53146  -4902564.23045  23514164.9454                   23514169.4574
        38.5004         30.7504
  -4125915.58247  -3185703.73847  22052809.1024                   22052812.8014
        45.0004         43.2504
 -20023230.09848 -15560332.84448  20492976.8364                   20492979.0554
        51.0004         52.2504
 05 12 23 19 13 30.0000000  0  9G10G08G02G28G18G23G24G27G32
  -5231835.77048  -4065665.36748  21038862.9064                   21038865.1954
        50.5004         50.0004
 -13077733.99647 -10153517.98046  22467853.6724                   22467857.9024
        42.7504         38.0004
  -7767315.74646  -6030598.34443  23928799.5164                   23928798.7584
        40.0004         23.0004
  -5963527.68046  -4113231.67643  24200804.7734                   24200812.6764
        38.0004         20.0004
  12803550.13746   9974885.94944  23348595.5314                   23348600.5864
        41.2504         25.5004
  10124376.86347   7886018.44944  22361925.5864                   22361926.6994
        43.0004         28.7504
  -6271209.03146  -4867243.36745  23522791.7814                   23522794.7854
        39.0004         31.0004
  -4072625.05547  -3144178.71947  22062950.0704                   22062953.5634
        45.2504         43.0004
 -20047731.39148 -15579424.72748  20488314.6644                   20488316.4454
        51.2504         52.0004
 05 12 23 19 14  0.0000000  0  9G10G08G02G28G18G23G24G27G32
  -5228930.92248  -4063401.84048  21039415.9534                   21039417.7774
        49.7504         50.0004
 -13081806.35947 -10156691.28546  22467078.8524                   22467083.1684
        43.5004         38.5004
  -7861009.83246  -6103606.68743  23910969.8134                   23910969.6214
        39.5004         23.5004
  -6070503.49646  -4196589.23043  24180447.9844                   24180455.8204
        37.2504         19.5004
  12891687.50046  10043564.16444  23365368.1254                   23365373.0904
        41.0004         25.2504
  10178525.58247   7928212.19144  22372229.6564                   22372231.0784
        43.2504         28.7504
  -6225342.64146  -4831503.31245  23531518.2194                   23531523.7424
        38.0004         31.0004
  -4018923.38747  -3102333.33247  22073169.0634                   22073172.9064
        44.7504         43.0004
 -20071773.38748 -15598158.71148  20483739.3984                   20483741.3244
        51.5004         52.0004
 05 12 23 19 14 30.0000000  0  9G10G08G02G28G18G23G24G27G32
  -5225894.68448  -4061035.93448  21039993.9144                   21039995.5204
        50.5004         50.0004
 -13085355.88747 -10159457.18046  22466403.4534                   22466407.5314
        42.7504         38.0004
  -7954639.01246  -6176564.44143  23893152.5704                   23893152.1684
        39.7504         23.7504
  -6177504.01646  -4279966.07843  24160085.5704                   24160094.2894
        37.2504         20.0004
  12980057.64147  10112423.76644  23382183.6564                   23382189.5124
        42.0004         26.0004
  10232751.19547   7970465.84844  22382548.3204                   22382550.0664
        43.7504         28.5004
  -6178942.02746  -4795347.03945  23540349.2194                   23540353.8054
        39.2504         31.0004
  -3964815.00847  -3060171.03547  22083466.2424                   22083469.4694
        45.7504         43.0004
 -20095358.36748 -15616536.59048  20479251.3204                   20479252.8524
        51.5004         52.2504
 05 12 23 19 15  0.0000000  0  9G10G08G02G28G18G23G24G27G32
  -5222726.05548  -4058566.87548  21040596.6414                   21040598.2854
        48.7504         50.0004
 -13088382.21147 -10161815.39846  22465827.5944                   22465831.7934
        42.2504         37.7504
  -8048200.15246  -6249469.18743  23875347.8524                   23875347.5664
        39.2504         22.7504
  -6284525.37946  -4363359.14843  24139720.1484                   24139728.6484
        37.2504         20.0004
  13068660.22746  10181464.49244  23399044.6804                   23399050.3014
        41.0004         25.2504
  10287054.69547   8012780.21944  22392881.6954                   22392883.7304
        43.2504         28.0004
  -6132007.64646  -4758774.77245  23549280.1724                   23549284.8754
        39.0004         30.7504
  -3910301.57447  -3017693.10547  22093839.6804                   22093843.4024
        45.5004         42.7504
 -20118485.67648 -15634557.82848  20474850.3914                   20474852.1454
        50.0004         52.2504
 05 12 23 19 15 30.0000000  0  9G10G08G02G28G18G23G24G27G32
  -5219421.12548  -4055991.60248  21041225.5634                   21041227.1954
        50.5004         50.0004
 -13090881.92247 -10163763.26246  22465351.5164                   22465356.2234
        42.5004         37.7504
  -8141687.64546  -6322316.52343  23857558.2034                   23857557.6684
        40.2504         22.2504
  -6391560.75446  -4446763.10543  24119351.5944                   24119360.2304
        37.0004         19.5004
  13157497.86346  10250688.37644  23415950.4144                   23415955.6684
        40.5004         24.5004
  10341440.04747   8055158.36744  22403231.4534                   22403232.5434
        43.0004         28.0004
  -6084537.07846  -4721784.75445  23558314.3834                   23558318.2154
        38.7504         30.5004
  -3855381.68447  -2974898.44947  22104290.1724                   22104293.9534
        44.5004         43.0004
 -20141151.70348 -15652219.63348  20470537.0864                   20470538.5164
        52.0004         52.2504
 05 12 23 19 16  0.0000000  0  9G10G08G02G28G18G23G24G27G32
  -5215982.80948  -4053312.39148  21041880.1024                   21041882.0004
        51.2504         50.0004
 -13092858.58647 -10165303.55946  22464976.0234                   22464979.8794
        43.0004         37.5004
  -8235102.68446  -6395107.40244  23839782.5554                   23839781.3594
        40.5004         24.5004
  -6498610.01646  -4530177.87943  24098981.0004                   24098988.8674
        37.7504         19.7504
  13246566.22346  10320092.05144  23432899.7734                   23432905.3284
        40.5004         25.5004
  10395904.37947   8097598.03944  22413595.7504                   22413597.7464
        43.0004         28.0004
  -6036534.84846  -4684380.42245  23567448.3444                   23567452.7034
        39.5004         32.2504
  -3800060.80947  -2931791.34047  22114817.4774                   22114821.3794
        45.0004         42.5004
 -20163359.74648 -15669524.55948  20466310.8984                   20466312.9184
        52.5004         52.2504
 05 12 23 19 16 30.0000000  0  9G10G08G02G28G18G23G24G27G32
  -5212411.82448  -4050529.81248  21042559.5554                   21042561.2074
        51.0004         50.2504
 -13094313.50847 -10166437.30146  22464699.0634                   22464703.6094
        43.0004         37.7504
  -8328443.87546  -6467840.75844  23822020.3594                   23822019.0664
        40.0004         25.0004
  -6605671.03146  -4613601.83243  24078607.5084                   24078615.5474
        38.0004         19.0004
  13335863.35946  10389673.98844  23449892.4224                   23449898.0514
        41.2504         24.5004
  10450446.94947   8140098.68444  22423974.7274                   22423976.2034
        43.2504         27.7504
  -5988003.21946  -4646563.57845  23576682.5784                   23576688.4804
        39.7504         32.5004
  -3744342.27747  -2888374.37547  22125420.2274                   22125424.3554
        43.7504         42.5004
 -20185110.87948 -15686473.45748  20462171.8364                   20462173.5164
        52.5004         52.2504
 05 12 23 19 17  0.0000000  0  9G10G08G02G28G18G23G24G27G32
  -5208707.74648  -4047643.42646  21043264.4144                   21043266.3054
        50.7504         40.2504
 -13095246.97347 -10167164.62544  22464521.8364                   22464525.5474
        43.5004         28.5004
  -8421708.68746  -6540514.47743  23804272.1804                   23804271.5634
        40.0004         18.5004
  -6712740.45346  -4697032.15242  24058233.0784                   24058241.4804
        37.5004         15.5004
  13425388.23846  10459433.48042  23466928.9144                   23466934.2234
        40.7504         17.7504
  10505068.20347   8182660.73043  22434368.8914                   22434370.8794
        42.7504         21.7504
  -5938943.43046  -4608335.11743  23586019.3284                   23586024.1484
        39.0004         22.7504
  -3688228.29747  -2844649.18045  22136098.2974                   22136102.7814
        45.0004         32.5004
 -20206405.10948 -15703066.23447  20458119.6414                   20458121.7384
        52.2504         42.5004
 05 12 23 19 17 30.0000000  0  9G10G08G02G28G18G23G24G27G32
  -5204869.44548  -4044652.62548  21043994.6484                   21043996.7194
        51.2504         50.2504
 -13095658.53147 -10167485.45746  22464443.1884                   22464447.3054
        43.5004         37.7504
  -8514894.27746  -6613126.66444  23786538.7974                   23786539.2234
        41.0004         24.0004
  -6819814.21146  -4744868.18053  24037857.7734                   24037863.3324
        36.7504         20.0004
  13515140.66046  10529370.11743  23484008.4924                   23484014.0274
        40.7504         22.7504
  10559769.37147   8225284.86744  22444778.1484                   22444779.7424
        42.5004         28.0004
  -5889355.98846  -4569695.63745  23595455.3524                   23595460.0124
        40.5004         32.0004
  -3631720.32047  -2800617.14847  22146851.7034                   22146855.8014
        45.0004         42.0004
 -20227241.73048 -15719302.61348  20454154.8054                   20454156.6254
        52.0004         52.2504
 05 12 23 19 18  0.0000000  0  9G10G08G02G28G18G23G24G27G32
  -5200899.96948  -4041559.52048  21044749.9064                   21044752.0124
        51.2504         50.0004
 -13095551.89547 -10167402.40246  22464463.4064                   22464467.5784
        43.5004         37.7504
  -8608001.95346  -6685678.05544  23768821.1094                   23768820.4734
        41.5004         25.7504
  -6926892.32446  -4828305.41843  24017481.1414                   24017488.1214
        37.2504         20.2504
  13605116.14146  10599480.63343  23501130.1024                   23501135.8674
        41.2504         22.5004
  10614547.38747   8267968.98444  22455201.9534                   22455203.7894
        44.0004         28.5004
  -5839245.48446  -4530648.52745  23604990.6174                   23604996.3794
        38.0004         31.0004
  -3574824.05147  -2756282.46947  22157678.6644                   22157682.6884
        44.5004         42.2504
 -20247624.19148 -15735185.01248  20450275.8754                   20450277.7384
        52.2504         52.2504
 05 12 23 19 18 30.0000000  0  9G10G08G02G28G18G23G24G27G32
  -5196795.58648  -4038361.30548  21045531.1414                   21045532.8554
        51.0004         50.2504
 -13094924.20747 -10166913.33646  22464583.4224                   22464587.7274
        43.0004         37.7504
  -8701026.02046  -6758164.28543  23751119.3674                   23751118.9104
        41.0004         23.2504
  -7033968.24246  -4911740.93043  23997104.7274                   23997112.4104
        37.2504         20.0004
  13695316.97746  10669766.73843  23518294.9384                   23518300.4024
        41.0004         22.5004
  10669405.94547   8310715.85944  22465641.5394                   22465643.4104
        42.0004         28.0004
  -5788610.07046  -4491192.38345  23614627.1954                   23614631.6484
        39.0004         31.0004
  -3517538.47747  -2711644.43447  22168580.2814                   22168583.8164
        44.0004         42.5004
 -20267549.28148 -15750711.03148  20446484.3674                   20446486.2854
        52.0004         52.2504
 05 12 23 19 19  0.0000000  0  9G10G08G02G28G18G23G24G27G32
  -5192556.39848  -4035058.03148  21046337.6094                   21046339.5744
        50.7504         49.2504
 -13093776.27047 -10166018.88346  22464801.4224                   22464805.8014
        42.2504         37.5004
  -8793964.57846  -6830583.87544  23733434.3524                   23733433.6454
        40.2504         24.0004
  -7141039.10546  -4995172.53943  23976729.6334                   23976737.6914
        37.5004         19.7504
  13785741.61346  10740227.27043  23535502.5164                   23535508.3794
        41.2504         22.5004
  10724344.98847   8353525.43044  22476096.0784                   22476097.9264
        43.2504         28.2504
  -5737451.52046  -4451328.56645  23624361.5314                   23624366.8204
        38.5004         30.0004
  -3459866.39547  -2666705.22346  22179554.8594                   22179558.7464
        45.2504         41.5004
 -20287017.60948 -15765881.11748  20442779.6414                   20442781.2464
        52.2504         51.5004
 05 12 23 19 19 30.0000000  0  9G10G08G02G28G18G23G24G27G32
  -5188183.94948  -4031650.93748  21047169.8364                   21047171.7304
        51.2504         49.5004
 -13092110.43447 -10164720.86346  22465118.6414                   22465122.9574
        44.0004         37.0004
  -8886817.18446  -6902936.49243  23715764.6414                   23715763.8524
        40.2504         22.7504
  -7248103.53546  -5078599.08643  23956356.0164                   23956363.8484
        37.5004         19.5004
  13876387.13346  10810859.92243  23552751.7194                   23552757.7624
        41.5004         22.5004
  10779363.03947   8396396.58644  22486565.7664                   22486567.4454
        43.5004         27.0004
  -5685773.05546  -4411059.64544  23634196.2114                   23634201.2814
        37.5004         29.7504
  -3401811.99247  -2621468.10946  22190602.0164                   22190606.1524
        45.0004         41.2504
 -20306031.22748 -15780696.89548  20439161.1644                   20439162.7704
        53.5004         51.5004
 05 12 23 19 20  0.0000000  0  9G10G08G02G28G18G23G24G27G32
  -5183679.00848  -4028140.59448  21048027.0234                   21048029.0044
        51.5004         48.2504
 -13089928.31247 -10163020.53946  22465533.7894                   22465537.8244
        44.0004         36.5004
  -8979583.01646  -6975221.49643  23698111.9064                   23698111.1764
        41.5004         22.2504
  -7355159.33246  -5162018.90643  23935984.3754                   23935991.1174
        37.7504         19.2504
  13967251.33646  10881662.96543  23570042.8524                   23570048.8284
        41.5004         22.2504
  10834459.30547   8439328.70344  22497050.6564                   22497051.6134
        43.7504         26.7504
  -5633577.25446  -4370387.59344  23644128.2344                   23644133.7664
        38.5004         28.5004
  -3343378.76647  -2575935.79346  22201721.9384                   22201725.4574
        45.0004         40.7504
 -20324591.36348 -15795159.30148  20435629.4924                   20435631.4414
        52.5004         50.0004
