     2.11           OBSERVATION DATA    G (GPS)             RINEX VERSION / TYPE
teqc  2019Feb25     K Rivera            20250820 05:52:47UTCPGM / RUN BY / DATE
Linux 2.6.32-573.12.1.x86_64|x86_64|gcc -static|Linux 64|=+ COMMENT
BIT 2 OF LLI FLAGS DATA COLLECTED UNDER A/S CONDITION       COMMENT
PNCL                                                        MARKER NAME
                                                            MARKER NUMBER
Gareth Funning, LiChUniversity of California, Riverside     OBSERVER / AGENCY
0220283712          TRIMBLE 5700        2.32                REC # / TYPE / VERS
60111214            TRM41249.00                             ANT # / TYPE
 -2389014.4079 -4610136.9733  3692598.0761                  APPROX POSITION XYZ
        1.1852        0.0000        0.0000                  ANTENNA: DELTA H/E/N
     1     1                                                WAVELENGTH FACT L1/2
     7    L1    L2    C1    P1    P2    S1    S2            # / TYPES OF OBSERV
 SNR is mapped to RINEX snr flag value [0-9]                COMMENT
  L1 & L2: min(max(int(snr_dBHz/6), 0), 9)                  COMMENT
  2025     8     9     0     0    0.0000000     GPS         TIME OF FIRST OBS
                                                            END OF HEADER
 25  8  9  0  0  0.0000000  0  8G03G16G04G31G09G01G26G28
 304471874.39548 237291870.59448  20051854.1334                   20051855.2074
        50.0004         50.0004
 341185402.33247 265910062.03944  22263255.2424                   22263254.8094
        43.7504         28.7504
 317139262.86747 247162154.92245  21255366.2424                   21255365.7274
        47.0004         34.0004
 295920780.32447 230677267.92647  21874775.2114                   21874773.4924
        45.7504         42.0004
 358894165.50847 279696236.38345  23772715.6254                   23772717.2384
        42.2504         33.5004
 305124994.06347 237805216.93444  23073958.8204                   23073959.4534
        42.2504         26.5004
 322124269.68847 251047882.13747  21582705.1724                   21582706.9224
        44.7504         42.7504
 297569205.00846 231927686.02743  24645333.0864                   24645333.5704
        38.0004         22.0004
 25  8  9  0  0 15.0000000  0  8G03G16G04G31G09G01G26G28
 304412406.69948 237245532.13348  20040537.9304                   20040538.3284
        48.0004         50.0004
 341083545.29347 265830692.98044  22243871.6414                   22243871.5944
        44.0004         29.0004
 317060070.93847 247100446.93045  21240296.1484                   21240295.5274
        47.2504         34.0004
 295904497.41447 230664579.93446  21871677.3984                   21871675.6724
        45.7504         41.5004
 358796975.36346 279620503.87545  23754220.2034                   23754222.2814
        40.7504         33.0004
 305110061.41446 237793581.07444  23071117.0474                   23071118.6644
        41.5004         27.7504
 322064048.61347 251000956.64847  21571245.4224                   21571247.0394
        44.7504         42.7504
 297560266.40246 231920720.79343  24643632.8984                   24643633.0664
        39.0004         20.0004
 25  8  9  0  0 30.0000000  0  8G03G16G04G31G09G01G26G28
 304353078.53948 237199302.39848  20029247.9924                   20029248.5164
        48.0004         50.0004
 340981773.64547 265751390.47744  22224505.2734                   22224505.3674
        44.0004         29.0004
 316980915.42247 247038767.32445  21225233.6024                   21225232.5904
        47.7504         34.5004
 295888276.96147 230651940.61347  21868591.0004                   21868588.7384
        45.5004         42.0004
 358699790.25447 279544775.30145  23735727.3834                   23735729.0744
        42.0004         34.5004
 305095177.44146 237781983.15244  23068284.7424                   23068286.4384
        41.7504         26.7504
 322003981.70347 250954151.28947  21559815.1414                   21559816.8484
        44.5004         42.7504
 297551330.47346 231913757.75043  24641931.5944                   24641932.4884
        36.7504         21.5004
 25  8  9  0  0 45.0000000  0  8G03G16G04G31G09G01G26G28
 304293889.30148 237153180.92248  20017984.6174                   20017985.1454
        48.0004         50.0004
 340880087.06647 265672154.25044  22205155.0634                   22205155.0164
        44.2504         29.0004
 316901795.65247 246977115.57045  21210177.2734                   21210176.5864
        47.0004         34.7504
 295872117.81647 230639349.07046  21865515.1564                   21865513.6134
        46.2504         41.2504
 358602609.53146 279469050.10945  23717233.5004                   23717236.0354
        41.0004         32.5004
 305080341.05946 237770422.28944  23065461.7424                   23065462.9184
        41.0004         27.0004
 321944068.34847 250907465.58647  21548413.7424                   21548415.7584
        44.5004         42.5004
 297542396.48446 231906796.07843  24640232.5314                   24640232.5204
        37.5004         20.2504
 25  8  9  0  1  0.0000000  0  8G03G16G04G31G09G01G26G28
 304234839.44548 237107168.05148  20006748.0474                   20006748.3094
        48.5004         50.0004
 340778486.49647 265592985.06344  22185820.8984                   22185820.3324
        44.2504         28.7504
 316822712.01247 246915491.97345  21195128.6254                   21195127.3594
        47.7504         34.5004
 295856020.23047 230626805.49246  21862451.6564                   21862450.5084
        45.7504         41.7504
 358505433.48046 279393328.60245  23698741.2034                   23698743.7114
        40.7504         32.7504
 305065552.15247 237758898.43844  23062646.9534                   23062648.7624
        42.0004         27.5004
 321884308.89547 250860899.80547  21537041.4614                   21537043.5204
        44.5004         42.7504
 297533464.44946 231899836.07043  24638532.8364                   24638532.6764
        38.5004         20.2504
 25  8  9  0  1 15.0000000  0  8G03G16G04G31G09G01G26G28
 304175927.89148 237061262.94948  19995537.3364                   19995537.8444
        49.5004         50.0004
 340676971.13747 265513882.25444  22166503.1024                   22166502.8954
        45.0004         29.0004
 316743663.43047 246853895.68845  21180085.7194                   21180085.1174
        47.5004         34.0004
 295839982.66847 230614308.67246  21859400.2664                   21859398.4024
        46.2504         41.7504
 358408261.07446 279317609.89545  23680250.8364                   23680252.3984
        41.0004         33.0004
 305050809.22346 237747410.41444  23059841.1644                   23059843.1374
        41.0004         26.7504
 321824702.28147 250814453.11747  21525699.2894                   21525700.8954
        44.5004         42.5004
 297524533.11346 231892876.51243  24636832.3914                   24636833.3284
        37.5004         21.5004
 25  8  9  0  1 30.0000000  0  8G03G16G04G31G09G01G26G28
 304117155.03148 237015465.93048  19984353.2344                   19984353.6414
        50.5004         50.2504
 340575541.59447 265434846.32844  22147201.9774                   22147201.3954
        44.5004         29.5004
 316664650.18847 246792326.93845  21165050.0784                   21165049.3204
        47.2504         34.7504
 295824004.90247 230601858.46546  21856359.9924                   21856358.1374
        46.5004         41.7504
 358311092.52346 279241894.23445  23661758.8914                   23661762.0824
        39.5004         32.0004
 305036112.09846 237735958.07844  23057044.8134                   23057046.4414
        41.5004         27.0004
 321765248.78147 250768125.74247  21514385.6954                   21514387.5514
        45.0004         42.7504
 297515602.48446 231885917.53143  24635133.1954                   24635133.5904
        37.7504         19.5004
 25  8  9  0  1 45.0000000  0  8G03G16G04G31G09G01G26G28
 304058520.10548 236969776.37948  19973195.3134                   19973195.5664
        50.2504         50.0004
 340474197.60547 265355877.06344  22127916.8674                   22127916.0704
        44.5004         29.5004
 316585671.52047 246730785.12545  21150020.6484                   21150020.0554
        47.0004         34.5004
 295808085.88747 230589454.04347  21853330.5004                   21853329.0274
        47.0004         42.0004
 358213927.02746 279166180.94145  23643269.4534                   23643271.0984
        40.7504         30.7504
 305021459.64846 237724540.55144  23054256.4844                   23054258.6374
        40.5004         26.5004
 321705947.65647 250721917.09447  21503101.3054                   21503102.8284
        46.7504         42.5004
 297506671.53946 231878958.30943  24633433.6884                   24633434.1134
        37.7504         19.7504
 25  8  9  0  2  0.0000000  0  8G03G16G04G31G09G01G26G28
 304000025.81648 236924196.41448  19962064.1024                   19962064.4804
        50.2504         50.0004
 340372942.10247 265276976.73844  22108648.3674                   22108647.7304
        44.7504         28.7504
 316506730.03547 246669272.28945  21134998.4694                   21134998.4614
        47.5004         34.0004
 295792227.96147 230577097.20746  21850313.0314                   21850310.9384
        46.0004         41.5004
 358116767.32046 279090472.12145  23624780.8914                   23624781.6804
        40.2504         31.7504
 305006853.99246 237713159.48044  23051477.4694                   23051478.6334
        40.2504         26.0004
 321646801.52047 250675829.22347  21491846.1024                   21491847.5904
        45.2504         42.7504
 297497742.60946 231872000.70343  24631735.5944                   24631735.0124
        39.2504         21.5004
 25  8  9  0  2 15.0000000  0  7G03G16G04G31G09G01G26
 303941669.87148 236878724.25448  19950959.2584                   19950959.7854
        50.5004         50.2504
 340271773.11747 265198143.83244  22089396.4064                   22089395.4734
        44.5004         29.2504
 316427823.41448 246607786.62945  21119983.3444                   21119982.5594
        48.0004         34.5004
 295776428.37147 230564785.83247  21847306.7344                   21847304.4884
        46.7504         42.0004
 358019610.95346 279014765.93445  23606291.8834                   23606294.9384
        39.5004         32.5004
 304992292.35546 237701812.72744  23048706.2344                   23048707.5354
        40.7504         26.7504
 321587808.02047 250629860.28147  21480619.3444                   21480621.5904
        44.7504         42.5004
 25  8  9  0  2 30.0000000  0  7G03G16G04G31G09G01G26
 303883452.44548 236833360.02748  19939880.8134                   19939881.6804
        51.0004         50.2504
 340170691.17247 265119378.75444  22070161.1804                   22070160.5124
        44.0004         29.0004
 316348951.83647 246546328.27745  21104975.0084                   21104974.2194
        47.7504         34.5004
 295760686.84047 230552519.69546  21844310.9614                   21844309.0314
        47.0004         41.5004
 357922458.02046 278939062.44145  23587804.0554                   23587806.7274
        39.7504         31.5004
 304977774.45346 237690500.02344  23045942.8594                   23045945.5864
        40.7504         26.5004
 321528967.25447 250584010.36747  21469422.6254                   21469424.4454
        44.7504         42.7504
 25  8  9  0  2 45.0000000  0  7G03G16G04G31G09G01G26
 303825375.14148 236788104.99248  19928829.2734                   19928830.0394
        50.2504         50.2504
 340069698.18447 265040682.97744  22050942.5234                   22050942.0234
        45.0004         29.2504
 316270116.80547 246484898.39545  21089972.7034                   21089972.0004
        47.5004         34.0004
 295745004.68047 230540299.84046  21841326.5944                   21841324.7344
        46.7504         41.2504
 357825310.09846 278863362.85545  23569317.9304                   23569320.0234
        39.7504         31.7504
 304963301.37546 237679222.27044  23043189.4844                   23043191.1804
        40.7504         27.5004
 321470280.80947 250538280.68847  21458255.0164                   21458256.5784
        45.7504         42.5004
 25  8  9  0  3  0.0000000  0  7G03G16G04G31G09G01G26
 303767440.74648 236742961.31348  19917804.8984                   19917805.3204
        50.5004         50.0004
 339968797.23847 264962058.93444  22031742.0944                   22031740.9224
        43.7504         27.5004
 316191321.05548 246423499.12545  21074978.8204                   21074977.6914
        48.0004         34.2504
 295729384.20747 230528128.02746  21838354.2974                   21838351.9264
        46.2504         41.2504
 357728169.90646 278787669.25445  23550832.6484                   23550834.2734
        40.5004         31.5004
 304948875.44146 237667981.24644  23040444.5704                   23040446.2624
        40.5004         27.5004
 321411751.42247 250492673.40247  21447116.7734                   21447118.6524
        45.0004         42.7504
 25  8  9  0  3 15.0000000  0  7G03G16G04G31G09G01G26
 303709655.21948 236697933.63748  19906808.4304                   19906809.3554
        49.7504         50.0004
 339867994.71947 264883511.56644  22012559.8134                   22012558.5164
        44.2504         27.5004
 316112570.51248 246362135.06645  21059992.7664                   21059991.8634
        48.2504         35.0004
 295713830.93047 230516008.59446  21835394.6254                   21835392.6764
        46.0004         40.7504
 357631043.34446 278711986.27345  23532349.6804                   23532351.5474
        40.5004         33.0004
 304934502.09446 237656781.18844  23037709.4224                   23037711.0044
        40.2504         28.0004
 321353384.94147 250447193.04747  21436010.1414                   21436012.0004
        45.5004         42.5004
 25  8  9  0  3 30.0000000  0  7G03G16G04G31G09G01G26
 303652017.07848 236653020.80548  19895840.6804                   19895840.8834
        50.7504         50.0004
 339767289.40647 264805039.96944  21993395.8054                   21993395.2934
        43.7504         28.5004
 316033863.68848 246300805.09045  21045015.0314                   21045014.6254
        48.0004         35.0004
 295698342.96147 230503940.03146  21832447.1884                   21832445.3444
        46.2504         41.0004
 357533928.87546 278636312.74245  23513869.0234                   23513872.4654
        40.5004         33.5004
 304920179.39846 237645620.62544  23034983.6334                   23034985.4884
        40.5004         26.7504
 321295179.88747 250401838.48447  21424934.1484                   21424935.8954
        45.5004         42.5004
 25  8  9  0  3 45.0000000  0  7G03G16G04G31G09G01G26
 303594525.04348 236608221.82448  19884899.8204                   19884900.5204
        50.0004         50.0004
 339666680.35247 264726643.35544  21974250.8914                   21974249.9454
        43.5004         27.2504
 315955199.27347 246239508.16045  21030045.7894                   21030045.3634
        47.5004         35.5004
 295682918.63347 230491921.07446  21829511.8284                   21829510.4454
        46.5004         40.7504
 357436825.19546 278560647.61745  23495390.9144                   23495393.7194
        40.0004         34.0004
 304905905.61746 237634498.15644  23032268.0394                   23032269.1954
        40.5004         26.2504
 321237134.92647 250356608.66047  21413888.6254                   21413890.2194
        45.2504         42.5004
 25  8  9  0  4  0.0000000  0  7G03G16G04G31G09G01G26
 303537178.74248 236563536.40648  19873987.4224                   19873987.7424
        49.2504         50.0004
 339566167.48847 264648321.71544  21955123.4224                   21955123.0664
        44.0004         27.5004
 315876576.80547 246178243.90645  21015084.3914                   21015084.0164
        47.2504         35.2504
 295667557.18447 230479951.10546  21826588.4384                   21826586.8714
        45.7504         40.7504
 357339731.80546 278484990.48045  23476914.3674                   23476916.9654
        40.0004         33.2504
 304891679.83246 237623413.09844  23029560.0704                   23029562.2194
        40.5004         25.7504
 321179249.60547 250311503.23447  21402873.3444                   21402875.3244
        45.5004         43.0004
 25  8  9  0  4 15.0000000  0  7G03G16G04G31G09G01G26
 303479978.60248 236518964.87948  19863102.3674                   19863102.9384
        50.0004         50.0004
 339465751.66047 264570075.68044  21936015.2814                   21936014.6374
        43.5004         27.5004
 315797996.73848 246117012.69945  21000131.3134                   21000130.5634
        48.2504         35.0004
 295652258.74647 230468030.23846  21823677.1804                   21823675.8014
        45.2504         40.2504
 357242649.18446 278409341.75045  23458441.2194                   23458442.9884
        41.2504         33.5004
 304877502.05546 237612365.44544  23026863.1804                   23026864.5784
        40.2504         26.5004
 321121524.29747 250266522.49647  21391888.9534                   21391890.6564
        45.2504         42.7504
 25  8  9  0  4 30.0000000  0  7G03G16G04G31G09G01G26
 303422924.18848 236474506.89848  19852245.6254                   19852245.8134
        50.0004         50.2504
 339365432.66847 264491905.10544  21916925.3364                   21916924.6094
        42.5004         26.5004
 315719458.55947 246055814.14145  20985186.0394                   20985185.1524
        47.7504         35.0004
 295637022.30947 230456157.68446  21820778.3284                   21820776.4264
        46.5004         40.5004
 357145576.75046 278333700.96545  23439968.7504                   23439970.4804
        40.7504         33.5004
 304863371.36746 237601354.48844  23024173.8914                   23024175.6024
        40.7504         26.0004
 321063958.51647 250221666.07047  21380934.2504                   21380936.1054
        45.5004         42.7504
 25  8  9  0  4 45.0000000  0  7G03G16G04G31G09G01G26
 303366015.03548 236430162.10548  19841415.5944                   19841416.0314
        48.5004         50.2504
 339265210.43047 264413809.91844  21897852.6724                   21897852.7704
        43.2504         27.7504
 315640961.78947 245994647.83645  20970248.6804                   20970247.8484
        47.5004         35.2504
 295621846.99247 230444332.74246  21817890.7194                   21817888.4024
        45.0004         40.0004
 357048514.03946 278258067.75445  23421498.1094                   23421500.4414
        40.7504         34.2504
 304849286.76646 237590379.43844  23021493.1094                   23021495.1804
        38.7504         24.2504
 321006551.69147 250176933.50447  21370009.9774                   21370011.8834
        44.5004         43.0004
 25  8  9  0  5  0.0000000  0  7G03G16G04G31G09G01G26
 303309251.43048 236385930.72748  19830614.5314                   19830614.4384
        48.7504         50.5004
 339165085.72747 264335790.70345  21878800.1024                   21878799.4924
        45.0004         30.0004
 315562506.72347 245933514.03546  20955319.0704                   20955318.3594
        47.7504         36.0004
 295606732.86746 230432555.51645  21815014.2814                   21815012.3914
        41.7504         34.7504
 356951461.28546 278182442.28145  23403029.1804                   23403031.3914
        40.5004         32.0004
 304835248.18846 237579440.24644  23018822.2974                   23018824.1374
        41.0004         26.5004
 320949304.18446 250132325.09845  21359116.3834                   21359118.1454
        39.5004         34.7504
 25  8  9  0  5 15.0000000  0  7G03G16G04G31G09G01G26
 303252632.08648 236341811.77748  19819839.9694                   19819840.7344
        49.5004         49.5004
 339065057.54747 264257846.75444  21859765.3914                   21859764.7424
        43.2504         28.2504
 315484091.99247 245872411.67245  20940397.2114                   20940396.4184
        46.2504         35.5004
 295591678.02746 230420824.48845  21812149.6334                   21812147.5274
        41.0004         30.7504
 356854417.18446 278106823.56645  23384562.3674                   23384564.8954
        40.5004         33.5004
 304821253.77746 237568535.47344  23016159.3754                   23016160.4224
        41.7504         25.5004
 320892214.48046 250087839.63345  21348252.7114                   21348254.0744
        39.2504         32.0004
