     2.11           OBSERVATION DATA    G (GPS)             RINEX VERSION / TYPE
teqc  2019Feb25                         20250821 05:38:45UTCPGM / RUN BY / DATE
Linux 2.6.32-573.12.1.x86_64|x86_64|gcc -static|Linux 64|=+ COMMENT
BIT 2 OF LLI FLAGS DATA COLLECTED UNDER A/S CONDITION       COMMENT
35323561                                                    MARKER NAME
3561                                                        MARKER NUMBER
-Unknown-           -Unknown-                               OBSERVER / AGENCY
0220413532          TRIMBLE R7          2.32                REC # / TYPE / VERS
-Unknown-           TRM39105.00     NONE                    ANT # / TYPE
 -2418317.7335 -4604948.7708  3681201.8318                  APPROX POSITION XYZ
        0.0000        0.0000        0.0000                  ANTENNA: DELTA H/E/N
     1     1                                                WAVELENGTH FACT L1/2
     7    L1    L2    C1    P1    P2    S1    S2            # / TYPES OF OBSERV
    18                                                      LEAP SECONDS
 SNR is mapped to RINEX snr flag value [0-9]                COMMENT
  L1 & L2: min(max(int(snr_dBHz/6), 0), 9)                  COMMENT
  2025     8     7    21    36   30.0000000     GPS         TIME OF FIRST OBS
                                                            END OF HEADER
 25  8  7 21 36 30.0000000  0  8G01G02G03G10G28G31G32G04
   -320344.28957   -166844.84855  21732346.7894                   21732348.0824
        45.5004         34.0004
   -252136.04358   -137296.57456  21407882.2194                   21407880.3324
        48.7504         38.0004
   -323441.92256   -136246.99255  23324679.8834                   23324685.3014
        39.0004         34.2504
   -181912.41057   -102073.93456  22968167.8054                   22968171.9614
        43.0004         39.2504
   -261609.23057   -136214.64856  20928806.8444                   20928807.1294
        45.5004         38.0004
   -330088.04358   -172922.02757  20967959.3674                   20967959.4574
        49.5004         45.2504
   -195192.43057   -101286.67257  22398446.1024                   22398447.9734
        47.0004         43.5004
   -289780.82856   -132660.79753  24666909.8594                   24666918.7074
        39.0004         22.7504
 25  8  7 21 37  0.0000000  0 10G01G02G03G10G28G31G32G04G26G25
   -635240.85247   -412218.76245  21672424.4614                   21672424.8794
        45.2504         34.0004
   -501663.98448   -331733.95346  21360398.3834                   21360396.2894
        50.0004         38.0004
   -668846.74646   -405393.37145  23258950.4144                   23258957.0554
        38.7504         31.5004
   -376970.37947   -254067.26246  22931049.3834                   22931053.7974
        42.2504         39.0004
   -518731.38347   -336569.56246  20879878.3364                   20879878.4924
        45.5004         37.2504
   -656654.79348   -427389.56247  20905815.8204                   20905815.7934
        49.2504         45.5004
   -388891.62947   -252221.15247  22361586.1024                   22361588.6414
        45.7504         43.0004
   -630548.74246   -398194.08643  24602063.5864                   24602072.8714
        37.0004         20.0004
   -557273.59856   -361993.90654  25177584.7114                   25177597.9224
        37.0004         28.2504
   -487950.60256   -285645.55554  24476410.0084                   24476415.5124
        36.2504         25.0004
 25  8  7 21 37 30.0000000  0 10G01G02G03G10G28G31G32G04G26G25
   -949740.71547   -657283.57845  21612576.5784                   21612577.7624
        46.0004         34.7504
   -750757.24648   -525832.61746  21312997.2584                   21312995.6414
        49.0004         38.0004
  -1014313.68446   -674588.39845  23193210.8364                   23193216.4654
        39.5004         35.0004
   -571862.03147   -405931.00846  22893962.9454                   22893967.5664
        43.0004         39.0004
   -775342.80947   -536526.52746  20831047.2114                   20831047.1254
        46.2504         37.7504
   -982791.54348   -681522.04347  20843754.1804                   20843753.8364
        49.0004         45.0004
   -582582.99247   -403149.52047  22324727.9384                   22324730.1484
        46.2504         43.0004
   -971268.50846   -663689.89543  24537226.3984                   24537235.6914
        36.5004         19.0004
   -902596.77745   -631076.70344  25111871.5784                   25111884.9804
        35.5004         27.5004
   -768078.84346   -503927.28644  24423103.8674                   24423109.0164
        38.0004         26.7504
 25  8  7 21 38  0.0000000  0 10G01G02G03G10G28G31G32G04G26G25
  -1263723.82847   -901945.71545  21552827.8204                   21552828.6094
        46.7504         34.5004
   -999298.16448   -719500.89546  21265701.7274                   21265699.9224
        48.7504         38.0004
  -1359723.60946   -943738.80545  23127481.3524                   23127484.3714
        40.0004         31.5004
   -766469.30547   -557573.16446  22856930.7034                   22856934.7814
        43.2504         38.5004
  -1031325.77747   -735993.77346  20782335.3204                   20782335.0004
        46.0004         37.5004
  -1308377.73848   -935225.51247  20781797.0394                   20781796.9654
        48.7504         45.2504
   -776149.58647   -553980.68747  22287893.9454                   22287895.8094
        46.7504         43.0004
  -1311821.74245   -929055.91443  24472421.8444                   24472430.4454
        35.5004         18.2504
  -1248028.86746   -900244.37144  25046137.8134                   25046151.4574
        36.5004         27.5004
  -1047691.38346   -721807.14844  24369895.7424                   24369901.2854
        37.2504         26.7504
 25  8  7 21 38 30.0000000  0 10G01G02G03G10G28G31G32G04G26G25
  -1577161.97347  -1146183.20345  21493182.4844                   21493183.3244
        46.2504         34.5004
  -1247260.80148   -912718.55946  21218516.0864                   21218514.2774
        49.7504         38.0004
  -1705049.35546  -1212823.68045  23061767.3284                   23061773.4884
        38.0004         32.2504
   -960766.12547   -708973.39546  22819957.6954                   22819961.3054
        43.0004         38.5004
  -1286654.58247   -934951.28146  20733747.3754                   20733747.8134
        46.0004         37.2504
  -1633385.26248  -1188478.07047  20719949.8054                   20719949.9414
        49.5004         45.0004
   -969566.51247   -704695.21547  22251087.7894                   22251090.3794
        46.7504         43.5004
  -1652181.96545  -1194271.50043  24407653.3284                   24407662.0514
        35.5004         20.5004
  -1593541.12945  -1169474.53544  24980389.5164                   24980402.7814
        35.7504         29.2504
  -1326760.54345   -939263.61344  24316790.2974                   24316796.5434
        34.7504         26.0004
 25  8  7 21 39  0.0000000  0 10G01G02G03G10G28G31G32G04G26G25
   -314609.87947   -162376.35245  21733438.1254                   21733438.7664
        46.2504         34.5004
     80795.57048    122130.53946  21471237.0004                   21471234.8134
        49.5004         38.0004
   -474845.37546   -254223.13745  23295868.1414                   23295871.6094
        38.7504         33.0004
    420686.91447    367483.40646  23082839.3444                   23082843.1524
        44.0004         38.0004
     34111.68447     94217.24646  20985080.9614                   20985080.8954
        45.5004         38.0004
   -382368.07448   -213659.42647  20958010.4774                   20958010.7664
        49.5004         45.2504
    412604.58247    372321.17647  22514105.7974                   22514107.6844
        45.2504         42.7504
   -416904.62946   -231717.60243  24642718.6884                   24642727.9304
        38.0004         22.2504
   -363686.72746   -211146.24644  25214422.5784                   25214435.9344
        36.0004         27.7504
    -29842.17645     71322.14844  24563584.4844                   24563591.3284
        35.7504         25.7504
 25  8  7 21 39 30.0000000  0 10G01G02G03G10G28G31G32G04G26G25
   -626920.28947   -405735.08245  21674007.5554                   21674008.5234
        46.2504         34.5004
   -165979.97748    -70162.11746  21424276.8524                   21424274.9654
        49.0004         37.7504
   -819967.77046   -523149.52345  23230193.5634                   23230198.3594
        41.2504         35.5004
    227042.89547    216591.85246  23045990.2584                   23045994.2274
        42.7504         37.5004
   -219878.34047   -103697.05946  20936748.3914                   20936748.2974
        47.0004         38.0004
   -706179.75848   -465980.16047  20896391.4694                   20896391.1294
        49.5004         45.2504
    219515.72747    221862.29747  22477362.4774                   22477365.1884
        47.0004         43.0004
   -756846.02746   -496606.82043  24578030.0314                   24578038.8444
        36.7504         22.0004
   -709320.04346   -480470.75044  25148650.6484                   25148663.6564
        36.5004         27.7504
   -307787.40245   -145258.55544  24510694.1024                   24510700.0234
        34.2504         25.0004
 25  8  7 21 40  0.0000000  0 10G01G02G03G10G28G31G32G04G26G25
   -938654.62547   -648644.91845  21614686.3054                   21614687.2034
        46.5004         34.7504
   -412153.24648   -261985.47346  21377431.8204                   21377429.8204
        49.2504         37.7504
  -1164977.50846   -791988.16445  23164538.4844                   23164543.7424
        37.5004         31.2504
     33734.47347     65961.79746  23009204.5004                   23009208.9494
        43.0004         38.2504
   -473190.46147   -301083.12946  20888544.5004                   20888544.5904
        47.0004         37.5004
  -1029380.80148   -717825.07447  20834888.2504                   20834888.3244
        49.0004         45.7504
     26598.42247     71537.07847  22440651.6804                   22440653.2384
        47.0004         43.0004
  -1096568.46145   -761325.41443  24513382.3984                   24513391.2734
        34.0004         19.7504
  -1055000.96145   -749832.31244  25082870.1414                   25082882.9224
        35.2504         27.7504
   -585159.09846   -361392.28944  24457912.3594                   24457917.2194
        36.5004         26.0004
 25  8  7 21 40 30.0000000  0 10G01G02G03G10G28G31G32G04G26G25
  -1249808.23847   -891102.24645  21555475.4614                   21555476.4734
        45.2504         34.7504
   -657721.79748   -453337.61346  21330701.5634                   21330699.5164
        49.7504         38.2504
  -1509870.83246  -1060736.13745  23098908.2584                   23098914.5824
        38.7504         34.0004
   -159235.77347    -84404.75046  22972484.1954                   22972488.1134
        43.5004         38.2504
   -725822.51647   -497939.26646  20840470.6724                   20840470.4694
        47.0004         37.7504
  -1351966.80948   -969190.73847  20773502.1954                   20773502.2894
        49.7504         45.5004
   -166145.78147    -78653.26247  22403974.0004                   22403975.8984
        46.7504         42.7504
  -1436068.92245  -1025871.01243  24448777.2274                   24448786.0124
        34.7504         18.5004
  -1400724.16846  -1019226.83244  25017080.5234                   25017093.9734
        36.0004         27.2504
   -861952.87945   -577075.70343  24405240.3524                   24405245.1954
        35.5004         23.5004
 25  8  7 21 41  0.0000000  0 10G01G02G03G10G28G31G32G04G26G25
  -1560380.70347  -1133106.73445  21496375.7734                   21496376.4734
        45.2504         34.5004
   -902687.77348   -644220.21546  21284086.2584                   21284084.4924
        49.5004         38.5004
  -1854648.30146  -1329393.79745  23033299.5944                   23033302.5634
        40.5004         33.5004
   -351869.40247   -234508.98846  22935826.4064                   22935831.0594
        42.5004         38.0004
   -977776.60947   -694267.12946  20792525.1414                   20792525.3484
        46.0004         38.0004
  -1673936.85948  -1220076.43447  20712233.3204                   20712233.1524
        49.0004         45.5004
   -358719.49647   -228710.71147  22367327.9224                   22367330.0514
        45.5004         42.7504
  -1775348.71546  -1290244.71143  24384214.4924                   24384223.5434
        36.2504         19.0004
  -1746488.75446  -1288653.58644  24951283.6174                   24951296.8984
        36.7504         28.5004
  -1138168.69545   -792308.78144  24352677.8444                   24352683.4264
        35.7504         24.5004
 25  8  7 21 41 30.0000000  0 10G01G02G03G10G28G31G32G04G26G25
  -1870372.38347  -1374658.66045  21437386.5784                   21437387.0204
        46.5004         34.5004
  -1147053.87948   -834635.39146  21237585.0554                   21237582.9494
        49.0004         37.5004
  -2199310.94546  -1597961.93445  22967711.2504                   22967718.3284
        39.2504         34.5004
   -544168.80547   -384352.79346  22899233.6254                   22899237.6764
        43.0004         37.5004
  -1229055.54747   -890068.89546  20744708.2344                   20744708.3284
        47.2504         37.5004
  -1995291.27348  -1470482.41047  20651081.4774                   20651081.2894
        48.5004         45.5004
   -551126.14547   -378638.02347  22330714.7584                   22330716.6484
        46.5004         42.7504
  -2114409.85546  -1554448.03543  24319693.5474                   24319702.2384
        37.0004         20.0004
  -2092294.45346  -1558112.39144  24885478.2274                   24885491.6954
        36.7504         28.0004
  -1413807.35246  -1007092.12544  24300225.9844                   24300230.0984
        37.5004         25.5004
 25  8  7 21 42  0.0000000  0 10G01G02G03G10G28G31G32G04G26G25
   -604351.05947   -388148.51245  21678301.9534                   21678302.6454
        46.2504         34.2504
    184607.68448    203022.94546  21490991.5164                   21490989.6604
        49.5004         37.5004
   -968426.14546   -638830.93045  23201941.8364                   23201946.0784
        40.0004         34.5004
    839292.37547    693668.79346  23162497.6804                   23162501.6914
        42.0004         36.2504
     95768.39847    142261.46546  20996813.7974                   20996813.3714
        47.5004         37.0004
   -740597.15648   -492798.62547  20889841.9844                   20889841.8714
        48.7504         46.0004
    832059.66047    699169.06347  22593925.9144                   22593927.9694
        45.5004         42.2504
   -877820.84446   -590871.99643  24555008.5164                   24555016.7074
        36.7504         19.5004
   -862707.12946   -599992.21544  25119461.4144                   25119474.4264
        36.0004         29.0004
   -113438.15646      6182.65644  24547676.9454                   24547682.5124
        37.5004         25.5004
 25  8  7 21 42 30.0000000  0 10G01G02G03G10G28G31G32G04G26G25
   -913178.19547   -628793.00045  21619534.6564                   21619534.9494
        46.5004         34.0004
    -58562.98048     13539.28546  21444718.0314                   21444715.8484
        48.7504         38.0004
  -1312858.65646   -907219.70345  23136399.0004                   23136404.0634
        41.7504         35.7504
    647658.50047    544343.58646  23126031.1724                   23126035.0044
        42.0004         37.0004
   -154164.89147    -52491.73846  20949253.1414                   20949252.8674
        47.0004         37.0004
  -1060716.60248   -742242.28147  20828924.8914                   20828924.6214
        48.7504         45.5004
    639981.21547    549497.50447  22557374.3054                   22557376.6684
        45.0004         42.0004
  -1216446.70746   -854736.10243  24490569.2974                   24490578.1374
        38.5004         19.7504
  -1208590.21146   -869511.27344  25053641.7194                   25053654.8134
        36.7504         28.2504
   -387920.66846   -207699.78144  24495444.9144                   24495451.1914
        36.5004         27.2504
 25  8  7 21 43  0.0000000  0 10G01G02G03G10G28G31G32G04G26G25
  -1221423.34847   -868983.99245  21560877.1024                   21560878.0084
        47.0004         34.5004
   -301139.66048   -175481.53146  21398557.1094                   21398555.3984
        49.2504         37.7504
  -1657177.44546  -1175520.04345  23070876.2034                   23070881.0434
        40.7504         34.2504
    456354.15647    395275.14546  23089627.1954                   23089631.8524
        42.5004         37.0004
   -403429.41847   -246723.82846  20901819.3524                   20901819.3404
        47.0004         37.5004
  -1380218.66448   -991204.87147  20768125.5474                   20768125.3244
        49.2504         45.7504
    448062.19947    399950.18847  22520853.4694                   22520855.9454
        47.2504         42.7504
  -1554857.63346  -1118432.73043  24426171.9224                   24426180.0004
        37.0004         19.5004
  -1554511.19945  -1139059.85244  24987814.7034                   24987828.4414
        35.5004         27.0004
   -661826.05546   -421132.49644  24443322.3754                   24443328.1214
        37.5004         27.2504
 25  8  7 21 43 30.0000000  0 10G01G02G03G10G28G31G32G04G26G25
  -1529085.00047  -1108720.30945  21502330.8674                   21502331.8634
        47.2504         34.0004
   -543123.21548   -364040.17246  21352509.1094                   21352507.1994
        49.2504         38.0004
  -2001381.68446  -1443731.01245  23005376.4694                   23005381.3984
        40.2504         34.7504
    265378.82847    246463.07846  23053285.6724                   23053289.8594
        42.7504         38.2504
   -652026.20747   -440435.59846  20854513.4534                   20854512.9804
        47.5004         37.2504
  -1699101.68748  -1239685.09047  20707444.2504                   20707443.7734
        49.7504         46.0004
    256301.09847    250525.89547  22484362.8134                   22484364.2544
        46.7504         42.0004
  -1893053.91045  -1381962.09843  24361814.5164                   24361823.7074
        35.7504         18.5004
  -1900467.86346  -1408636.27044  24921981.0634                   24921994.7034
        37.2504         28.5004
   -935153.24246   -634114.64844  24391310.7734                   24391315.8244
        38.0004         27.5004
 25  8  7 21 44  0.0000000  0 10G01G02G03G10G28G31G32G04G26G25
  -1836167.15247  -1348005.07045  21443895.0634                   21443895.9574
        47.0004         34.5004
   -784520.21548   -552141.76646  21306572.5394                   21306570.6024
        49.5004         37.0004
  -2345476.10546  -1711856.46145  22939897.4924                   22939902.5164
        41.2504         34.5004
     74726.52747     97902.71946  23017005.6094                   23017010.3594
        43.0004         38.0004
   -899961.83247   -633632.16846  20807332.5314                   20807332.5664
        47.5004         37.7504
  -2017369.56248  -1487685.97347  20646879.9774                   20646879.4064
        48.7504         45.5004
     64691.02047    101219.32847  22447900.1484                   22447902.7034
        46.7504         42.5004
  -2231041.06646  -1645328.49643  24297498.3284                   24297506.5394
        37.7504         19.0004
  -2246463.54346  -1678243.08644  24856140.8524                   24856153.0554
        37.2504         28.0004
  -1207906.57046   -846649.64544  24339406.5394                   24339412.0594
        37.0004         26.5004
 25  8  7 21 44 30.0000000  0 10G01G02G03G10G28G31G32G04G26G25
  -2142669.18047  -1586837.77745  21385569.5234                   21385570.1644
        47.0004         34.7504
  -1025332.39548   -739787.64846  21260747.8914                   21260745.7704
        49.2504         37.0004
  -2689460.72346  -1979896.30945  22874439.5704                   22874444.2304
        40.0004         35.5004
   -115604.03547    -50406.93046  22980787.1564                   22980791.9344
        42.0004         37.5004
  -1147238.22347   -826315.05946  20760277.5474                   20760277.2774
        47.7504         37.7504
  -2335021.25848  -1735206.71147  20586432.8364                   20586432.5514
        48.0004         45.7504
   -126770.21547    -47971.29347  22411466.4144                   22411468.1524
        46.7504         42.2504
  -2568819.91846  -1908532.63343  24233221.2814                   24233229.1024
        37.7504         20.0004
  -2592496.83245  -1947879.19944  24790292.1484                   24790305.2194
        35.0004         27.2504
  -1480085.85946  -1058737.34844  24287612.9304                   24287618.3014
        37.5004         29.2504
 25  8  7 21 45  0.0000000  0 10G01G02G03G10G28G31G32G04G26G25
   -873158.33647   -597608.52045  21627149.4774                   21627150.6024
        47.5004         35.0004
    309868.19548    300628.36746  21514828.0634                   21514826.1684
        49.0004         37.5004
  -1457902.29346  -1020240.25045  23108797.4454                   23108801.4654
        41.0004         34.5004
   1269814.16047   1029139.58646  23244423.2814                   23244428.3014
        42.5004         37.5004
    181572.84448    209122.15246  21013141.4384                   21013141.7934
        48.0004         37.5004
  -1076623.80548   -754637.21547  20825897.5084                   20825897.2544
        49.2504         45.7504
   1257343.41047   1030558.76647  22674855.3134                   22674857.4964
        47.2504         42.2504
  -1330958.49246   -943965.09843  24468777.7584                   24468785.7974
        36.2504         19.2504
  -1363132.88745   -989933.00844  25024232.4694                   25024245.1644
        35.0004         26.5004
   -176259.86746    -42769.01244  24535723.0314                   24535727.6994
        37.7504         26.2504
 25  8  7 21 45 30.0000000  0 10G01G02G03G10G28G31G32G04G26G25
  -1178498.68447   -835536.03545  21569045.2194                   21569045.6454
        47.2504         34.5004
     70219.68848    113889.23046  21469224.6174                   21469222.6254
        49.5004         37.2504
  -1801667.78146  -1288109.41445  23043380.2814                   23043384.5784
        38.2504         34.0004
   1080122.69547    881327.93046  23208326.6414                   23208330.9384
        43.2504         37.2504
    -64391.37948     17461.73846  20966336.2194                   20966336.2384
        48.2504         37.5004
  -1393041.99248  -1001196.78147  20765685.3444                   20765685.0944
        48.5004         45.7504
   1066172.61747    881594.47346  22638476.1414                   22638477.9884
        46.5004         41.5004
  -1668324.59045  -1206847.53143  24404578.7344                   24404587.0664
        34.7504         18.5004
  -1709237.51246  -1259624.69944  24958369.8754                   24958383.1524
        36.5004         28.5004
   -447290.91846   -253961.96144  24484148.0474                   24484152.9774
        38.7504         27.5004
 25  8  7 21 46  0.0000000  0 10G01G02G03G10G28G31G32G04G26G25
  -1483260.49647  -1073012.74645  21511051.0554                   21511051.7424
        46.7504         34.0004
   -168852.93048    -72401.16046  21423730.4384                   21423728.5004
        49.2504         37.5004
  -2145327.00846  -1555895.71945  22977985.1954                   22977988.0434
        41.5004         35.2504
    890745.58647    733761.23046  23172289.8364                   23172293.7154
        43.5004         37.0004
   -309705.71548   -173692.26646  20919654.6484                   20919654.1954
        48.0004         37.5004
  -1708845.28548  -1247277.20347  20705589.7584                   20705589.3284
        48.0004         45.7504
    875140.52347    732738.26647  22602123.8134                   22602126.7034
        47.7504         43.0004
  -2005488.83646  -1469572.66043  24340419.1414                   24340427.1454
        37.5004         20.2504
  -2055378.91045  -1529345.00044  24892501.9774                   24892514.3484
        34.2504         26.0004
   -717750.84146   -464709.88144  24432680.4534                   24432685.1454
        38.0004         27.0004
 25  8  7 21 46 30.0000000  0 10G01G02G03G10G28G31G32G04G26G25
  -1787444.68447  -1310039.35945  21453166.4694                   21453167.0554
        47.2504         35.0004
   -407352.84448   -258245.28146  21378345.4454                   21378343.8714
        48.7504         37.7504
  -2488881.35246  -1823600.27746  22912608.0004                   22912613.5354
        40.7504         36.5004
    701679.97747    586437.25846  23136311.6884                   23136315.8204
        43.5004         36.5004
   -554373.60248   -364342.55146  20873095.7344                   20873095.5634
        48.0004         37.5004
  -2024034.60248  -1492879.21547  20645611.3134                   20645611.1174
        48.7504         45.7504
    684243.46947    583987.27346  22565797.5944                   22565799.4414
        47.2504         41.7504
  -2342453.75046  -1732142.51643  24276296.6174                   24276304.1644
        37.0004         19.0004
  -2401557.19145  -1799094.06244  24826626.0474                   24826638.7544
        35.0004         27.0004
   -987640.97746   -675013.84444  24381322.6024                   24381326.2664
        38.0004         25.5004
 25  8  7 21 47  0.0000000  0 10G01G02G03G10G28G31G32G04G26G25
  -2091051.69547  -1546616.22345  21395391.7974                   21395392.7074
        47.2504         34.5004
   -645283.29748   -443645.67646  21333068.7504                   21333067.2384
        48.7504         37.7504
  -2832331.68046  -2091223.84445  22847251.2034                   22847254.1254
        39.5004         34.2504
    512923.50447    439354.16046  23100392.7664                   23100396.5864
        44.2504         37.0004
   -798398.13348   -554491.52046  20826659.2974                   20826659.2234
        48.2504         38.0004
  -2338610.34847  -1738003.11347  20585749.0634                   20585749.0164
        47.7504         46.0004
    493478.16447    435338.98047  22529496.0004                   22529498.6884
        46.0004         42.2504
  -2679221.43745  -1994558.71942  24212210.9844                   24212219.0354
        35.0004         16.7504
  -2747771.91845  -2068871.50444  24760744.0164                   24760756.0314
        35.0004         27.2504
  -1256962.22746   -884874.52044  24330071.9924                   24330075.1844
        38.2504         26.0004
 25  8  7 21 47 30.0000000  0 10G01G02G03G10G28G31G32G04G26G25
  -2394079.80547  -1782741.99245  21337727.6484                   21337728.4614
        47.7504         34.2504
   -882644.78948   -628602.71946  21287900.4924                   21287898.9574
        49.0004         37.5004
  -3175676.89847  -2358765.44546  22781915.6644                   22781920.7934
        42.2504         36.7504
    324475.99247    292511.82846  23064532.2424                   23064536.6484
        42.5004         36.2504
  -1041780.18047   -744139.84846  20780345.7664                   20780345.2624
        47.7504         37.7504
  -2652570.46548  -1982647.30947  20526004.7664                   20526004.5554
        48.0004         46.0004
    302843.67647    286792.59047  22493219.3524                   22493221.4654
        45.7504         42.2504
  -3015791.62945  -2256820.94543  24148163.7114                   24148172.4534
        34.5004         18.5004
  -3094020.28545  -2338675.12944  24694855.3134                   24694866.6484
        34.0004         26.7504
  -1525713.28546  -1094290.93044  24278930.6884                   24278934.9804
        38.0004         27.2504
 25  8  7 21 48  0.0000000  0 10G01G02G03G10G28G31G32G04G26G25
  -1121095.08647   -790805.82845  21579968.5704                   21579968.9024
        47.0004         34.2504
    455992.27748    414491.06646  21542635.1334                   21542632.9144
        48.7504         36.7504
  -1943482.21147  -1398613.64545  23016393.5784                   23016397.8444
        42.5004         35.5004
   1711765.73447   1373516.68446  23328524.8134                   23328529.7114
        43.7504         36.7504
    290909.58248    294319.72346  21033947.8524                   21033947.9804
        48.5004         37.2504
  -1390480.60248   -999200.60947  20766172.6174                   20766172.0124
        48.2504         46.2504
   1687767.50447   1365953.97747  22756761.9304                   22756764.3554
        46.2504         42.0004
  -1776731.00446  -1291318.93443  24383948.7034                   24383957.0354
        36.0004         19.5004
  -1864866.00845  -1380892.29344  24928754.5234                   24928766.9734
        33.7504         27.2504
   -218461.81646    -75653.34844  24527692.4454                   24527696.2234
        37.0004         27.5004
 25  8  7 21 48 30.0000000  0 10G01G02G03G10G28G31G32G04G26G25
  -1422959.83647  -1026025.08645  21522525.6094                   21522525.8054
        47.5004         35.5004
    219767.12548    230419.47746  21497682.5474                   21497680.6684
        48.7504         37.0004
  -2286613.09047  -1665988.21546  22951098.3834                   22951102.9884
        42.0004         36.0004
   1523936.04747   1227155.76246  23292781.9064                   23292786.5944
        44.0004         36.2504
     48810.23448    105670.90246  20987877.7974                   20987877.5314
        48.5004         38.0004
  -1703203.73048  -1242880.91847  20706663.4694                   20706662.6994
        49.0004         46.2504
   1497392.06347   1217609.45747  22720535.1564                   22720536.8634
        46.2504         42.2504
  -2112905.44546  -1553272.87143  24319977.0864                   24319984.9574
        37.5004         19.7504
  -2211173.48445  -1650741.95343  24862853.2664                   24862866.1134
        34.7504         23.7504
   -486068.30546   -284177.84044  24476767.1094                   24476772.7424
        36.0004         26.7504
 25  8  7 21 49  0.0000000  0 10G01G02G03G10G28G31G32G04G26G25
  -1724247.84847  -1260794.94545  21465192.3594                   21465192.5944
        47.5004         34.5004
    -15898.73448     46783.70346  21452837.1884                   21452835.1094
        48.5004         37.2504
  -2629642.34846  -1933283.68046  22885821.4304                   22885826.1884
        40.5004         36.7504
   1336407.50447   1081029.50446  23257096.5234                   23257101.2304
        44.5004         36.0004
   -192656.68048    -82485.12146  20941928.3674                   20941927.6884
        48.5004         37.5004
  -2015313.39548  -1486083.20347  20647270.7424                   20647270.2034
        48.2504         46.0004
   1307137.16047   1069358.85247  22684330.5864                   22684332.6844
        46.5004         42.0004
  -2448889.13746  -1815078.10942  24256041.3674                   24256049.5164
        37.0004         17.2504
  -2557513.88745  -1920617.27744  24796947.5004                   24796959.9534
        34.0004         25.7504
   -753108.23445   -492260.90244  24425951.2584                   24425956.8674
        35.5004         25.5004
 25  8  7 21 49 30.0000000  0 10G01G02G03G10G28G31G32G04G26G25
  -2024957.85248  -1495114.39545  21407969.4534                   21407969.5554
        48.0004         34.5004
   -251006.24248   -136416.98846  21408097.4454                   21408095.4494
        49.0004         37.2504
  -2972569.13746  -2200499.23045  22820564.7894                   22820568.2544
        41.0004         35.5004
   1149179.49247    935137.42646  23221468.6024                   23221472.9384
        44.2504         36.5004
   -433492.45348   -270149.34046  20896098.5554                   20896098.6174
        48.5004         37.7504
  -2326807.86748  -1728806.11747  20587995.1724                   20587994.5784
        48.5004         46.2504
   1117001.55147    921201.21946  22648148.6174                   22648150.6294
        45.2504         41.0004
  -2784682.34446  -2076734.91442  24192141.8984                   24192150.0314
        36.0004         17.2504
  -2903885.07445  -2190516.58244  24731033.6484                   24731047.0984
        33.0004         25.0004
  -1019580.72746   -699901.73844  24375243.3984                   24375248.7854
        36.7504         25.7504
 25  8  7 21 50  0.0000000  0 10G01G02G03G10G28G31G32G04G26G25
  -2325092.17648  -1728985.27045  21350855.4844                   21350855.9694
        48.2504         35.0004
   -485560.15648   -319186.30946  21363463.4694                   21363461.0864
        49.0004         37.0004
  -3315396.07846  -2467637.01246  22755326.7344                   22755331.6994
        39.2504         36.2504
    962247.82047    789476.27346  23185896.3204                   23185901.5234
        43.7504         36.7504
   -673702.10248   -457325.67246  20850388.3984                   20850388.1804
        48.2504         37.7504
  -2637689.52048  -1971051.51247  20528836.3524                   20528836.0004
        49.0004         46.0004
    926980.16847    773132.60246  22611988.8284                   22611991.6374
        46.5004         41.5004
  -3120288.89546  -2338246.27742  24128278.5314                   24128285.5084
        37.0004         17.2504
  -3250288.20345  -2460440.77344  24665116.5474                   24665128.6134
        34.5004         24.7504
  -1285488.63745   -907102.68444  24324643.0864                   24324647.1564
        35.7504         24.5004
 25  8  7 21 50 30.0000000  0 10G01G02G03G10G28G31G32G04G26G25
  -2624648.41448  -1962405.68445  21293851.6174                   21293851.9924
        48.0004         34.0004
   -719560.76248   -501524.48046  21318934.4774                   21318932.5744
        48.7504         37.0004
  -3658121.23446  -2734695.48046  22690108.1804                   22690112.1094
        41.5004         36.2504
    775613.00447    644046.43046  23150381.4384                   23150386.0274
        43.7504         37.5004
   -913285.86748   -644014.30546  20804797.0474                   20804796.7504
        48.0004         37.5004
  -2947956.12548  -2212817.64147  20469794.5784                   20469793.8484
        48.2504         46.0004
    737072.91047    625152.91046  22575850.8054                   22575852.5164
        46.5004         41.7504
  -3455707.80946  -2599611.47743  24064449.9064                   24064457.5434
        38.2504         19.2504
  -3596719.89545  -2730387.23844  24599192.2974                   24599204.1374
        34.2504         24.2504
  -1550830.03145  -1113862.11744  24274149.8984                   24274154.0314
        35.5004         25.0004
 25  8  7 21 51  0.0000000  0 10G01G02G03G10G28G31G32G04G26G25
  -2923626.93047  -2195375.93445  21236958.3284                   21236958.4734
        47.5004         34.0004
   -953010.88348   -683433.71146  21274510.7344                   21274508.4694
        48.0004         36.7504
  -4000745.14846  -3001675.04346  22624909.3524                   22624913.5274
        41.0004         36.7504
    589272.85247    498846.19546  23114921.7344                   23114927.1174
        42.7504         36.5004
  -1152246.75048   -830217.58246  20759324.3364                   20759323.8364
        48.2504         37.5004
  -3257607.43748  -2454104.32847  20410869.6254                   20410869.2344
        49.0004         46.0004
    547276.85547    477259.83247  22539733.9384                   22539736.2544
        46.5004         42.0004
  -3790941.03146  -2860831.92243  24000656.6804                   24000664.7704
        37.0004         19.0004
  -3943179.41045  -3000355.38743  24533263.3674                   24533274.7544
        34.0004         23.2504
  -1815605.82445  -1320180.87144  24223764.2194                   24223769.5354
        34.5004         25.0004
 25  8  7 21 51 30.0000000  0 10G01G02G03G10G28G31G32G04G26G25
  -1646598.90647  -1200289.12545  21479968.4774                   21479969.2544
        47.5004         35.0004
    389513.87548    362689.43846  21529984.2504                   21529982.4414
        49.0004         36.7504
  -2767837.91446  -2040968.02045  22859522.8284                   22859527.4614
        41.5004         35.2504
   1978650.70347   1581478.15246  23379311.9924                   23379316.7854
        43.0004         36.0004
    184839.42248    211667.76246  21013763.4774                   21013762.6134
        48.5004         37.7504
  -1991214.49248  -1467304.58247  20651856.3284                   20651855.7154
        48.7504         46.0004
   1933014.61347   1557055.48846  22803430.3284                   22803433.0944
        47.0004         41.5004
  -2550559.80946  -1894300.84042  24236693.2034                   24236701.2464
        36.7504         17.2504
  -2714235.10545  -2042736.10544  24767124.1644                   24767134.8164
        34.7504         24.5004
   -504388.71145   -298453.16443  24473281.5314                   24473285.8594
        34.7504         23.5004
 25  8  7 21 52  0.0000000  0 10G01G02G03G10G28G31G32G04G26G25
  -1944424.08647  -1432360.67645  21423293.8594                   21423294.5784
        47.5004         34.5004
    157155.44548    181630.87946  21485768.3674                   21485765.7704
        48.0004         37.0004
  -3110262.41446  -2307792.18746  22794362.2974                   22794367.0744
        40.5004         37.0004
   1792892.43046   1436731.32046  23343963.4694                   23343968.2734
        41.5004         36.2504
    -52885.71548     26427.40246  20968525.6094                   20968525.6174
        48.5004         37.2504
  -2299637.85948  -1707634.43047  20593165.1174                   20593164.6374
        48.5004         46.0004
   1743431.22747   1409328.14147  22767354.7194                   22767357.4384
        47.0004         42.2504
  -2885427.93746  -2155236.85242  24172969.7274                   24172977.7974
        38.7504         17.7504
  -3060748.84445  -2312746.48044  24701183.6174                   24701195.3244
        35.2504         24.2504
   -768036.75046   -503893.13344  24423111.0704                   24423115.2154
        37.0004         25.7504
 25  8  7 21 52 30.0000000  0 10G01G02G03G10G28G31G32G04G26G25
  -2241673.17247  -1663983.30945  21366729.3834                   21366730.1914
        47.2504         34.7504
    -74661.35948       994.36346  21441654.8134                   21441653.1914
        48.0004         37.2504
  -3452588.09047  -2574539.39146  22729219.9304                   22729223.8914
        42.2504         37.0004
   1607421.77747   1292208.60245  23308669.5394                   23308674.2894
        42.2504         35.5004
   -289997.52048   -158335.03146  20923405.0474                   20923404.4804
        48.5004         38.5004
  -2607447.54348  -1947486.07847  20534591.2114                   20534590.7344
        49.0004         46.0004
   1553949.94147   1261680.36346  22731296.8594                   22731299.4104
        45.2504         41.0004
  -3220116.16046  -2416032.72342  24109281.1954                   24109288.1764
        37.5004         17.7504
  -3407288.49245  -2582777.06243  24635239.4534                   24635250.6134
        35.0004         23.5004
  -1031122.20346   -708894.73844  24373048.5634                   24373052.7384
        38.2504         29.2504
 25  8  7 21 53  0.0000000  0 10G01G02G03G10G28G31G32G04G26G25
  -2538345.35947  -1895156.41845  21310274.2734                   21310274.8244
        47.2504         34.2504
   -305938.28948   -179221.45746  21397644.4384                   21397642.6054
        48.2504         37.0004
  -3794814.42647  -2841209.14546  22664096.1954                   22664098.2424
        43.0004         36.2504
   1422237.63747   1147909.16445  23273430.3914                   23273434.9064
        42.7504         35.7504
   -526497.89148   -342621.02746  20878400.1094                   20878399.8984
        48.5004         37.7504
  -2914642.85248  -2186858.99247  20476133.3674                   20476132.7974
        48.2504         46.0004
   1364569.00047   1114110.75047  22695259.6024                   22695262.7774
        45.2504         42.0004
  -3554625.21146  -2676688.89543  24045626.0004                   24045633.6024
        36.5004         19.2504
  -3753852.07045  -2852826.23844  24569290.4534                   24569301.6054
        35.2504         25.2504
  -1293644.83646   -913457.73444  24323091.6024                   24323096.1884
        38.2504         29.2504
 25  8  7 21 53 30.0000000  0 10G01G02G03G10G28G31G32G04G26G25
  -2834440.39147  -2125879.80145  21253929.5864                   21253929.9964
        47.5004         35.0004
   -536677.68048   -359018.42246  21353736.1804                   21353734.2234
        48.0004         36.5004
  -4136941.24247  -3107801.32846  22598991.5004                   22598995.6414
        42.5004         37.5004
   1237338.57047   1003831.85545  23238245.8984                   23238250.0394
        43.2504         35.5004
   -762389.19948   -526432.43746  20833511.7274                   20833511.4804
        48.0004         37.5004
  -3221223.23048  -2425752.75047  20417793.1564                   20417792.5824
        48.0004         46.0004
   1175286.38347    966617.78146  22659240.4224                   22659242.3754
        45.5004         41.0004
  -3888956.24246  -2937206.37543  23982005.0634                   23982012.0084
        37.2504         19.7504
  -4100438.04745  -3122892.93444  24503336.3834                   24503347.6214
        35.0004         24.2504
  -1555604.93746  -1117582.43744  24273241.9224                   24273247.0314
        38.0004         29.7504
 25  8  7 21 54  0.0000000  0 10G01G02G03G10G28G31G32G04G26G25
  -3129958.49647  -2356153.64145  21197694.3524                   21197694.6684
        47.5004         34.7504
   -766882.10548   -538398.53146  21309930.0704                   21309927.8324
        48.5004         36.5004
  -4478968.93447  -3374316.34046  22533905.4614                   22533910.2854
        42.5004         37.2504
   1052722.59447    859975.14845  23203114.2734                   23203118.9024
        43.0004         35.0004
   -997674.40247   -709771.55146  20788738.4304                   20788738.0904
        47.5004         37.2504
  -3527188.68047  -2664167.33647  20359569.7034                   20359569.2304
        47.7504         46.0004
    986099.35247    819199.31646  22623238.7664                   22623242.2934
        45.5004         41.5004
  -4223110.71946  -3197586.36343  23918417.5474                   23918423.9224
        37.0004         18.5004
  -4447045.47745  -3392976.31243  24437379.5164                   24437390.3794
        33.5004         23.0004
  -1817003.23846  -1321269.32844  24223499.7034                   24223504.6414
        38.2504         29.7504
 25  8  7 21 54 30.0000000  0 10G01G02G03G10G28G31G32G04G26G25
  -1849469.70747  -1358370.14545  21441363.3204                   21441363.8404
        47.5004         35.0004
    578873.75047    510242.35946  21566018.3524                   21566016.7034
        47.0004         37.0004
  -3245466.08647  -2413145.16046  22768634.1174                   22768636.0044
        42.2504         36.2504
   2443814.14147   1943942.46945  23467830.2894                   23467835.0234
        43.7504         35.0004
    343071.85247    334965.80146  21043873.8914                   21043873.6414
        47.7504         37.0004
  -2257109.42648  -1674495.13747  20601258.2114                   20601257.2274
        49.2504         46.0004
   2372432.04347   1899458.53546  22887049.1644                   22887051.3244
        45.7504         40.7504
  -2981658.83645  -2230221.12542  24154656.9614                   24154664.4184
        35.0004         16.7504
  -3218241.27045  -2435466.21143  24671211.6954                   24671223.8014
        33.2504         23.7504
   -502411.42246   -296912.04345  24473657.6724                   24473663.6764
        37.2504         31.2504
 25  8  7 21 55  0.0000000  0 10G01G02G03G10G28G31G32G04G26G25
  -2143833.35247  -1587744.40245  21385347.9064                   21385348.1214
        47.7504         34.2504
    349732.64847    331690.80946  21522414.6484                   21522412.6174
        47.5004         36.2504
  -3587295.18747  -2679505.37946  22703585.2664                   22703589.3554
        43.5004         37.5004
   2259759.59447   1800523.22745  23432806.1094                   23432810.6094
        43.0004         34.7504
    108991.57847    152565.59446  20999330.1954                   20999329.5784
        47.7504         37.0004
  -2561845.10548  -1911951.45347  20543268.8754                   20543267.9774
        49.2504         46.0004
   2183429.97747   1752184.14846  22851083.5944                   22851086.1644
        44.7504         41.2504
  -3315463.77346  -2490328.63343  24091136.3984                   24091143.2544
        38.0004         20.2504
  -3564886.81645  -2705579.32443  24605248.1174                   24605258.6994
        34.2504         22.7504
   -762687.05546   -499724.18445  24424128.4774                   24424134.0354
        38.0004         30.0004
 25  8  7 21 55 30.0000000  0 10G01G02G03G10G28G31G32G04G26G25
  -2437618.32047  -1816667.74245  21329442.1954                   21329443.0004
        47.0004         34.5004
    121120.84047    153551.69546  21478910.9534                   21478909.2624
        47.2504         36.5004
  -3929023.67247  -2945787.21146  22638557.1884                   22638560.2894
        43.7504         37.2504
   2075984.58247   1657321.80945  23397834.8054                   23397839.6174
        43.7504         35.5004
   -124488.82048    -29367.16846  20954900.0784                   20954899.6134
        48.7504         37.2504
  -2865964.25448  -2148927.35947  20485396.6484                   20485395.9304
        49.2504         46.0004
   1994518.24247   1604980.14846  22815135.6024                   22815136.1484
        45.0004         40.5004
  -3649094.44146  -2750300.41443  24027648.5164                   24027655.5004
        38.5004         19.7504
  -3911548.05945  -2975704.64844  24539280.3364                   24539291.0554
        34.5004         24.7504
  -1022400.73046   -702098.43444  24374706.5944                   24374711.9574
        37.5004         29.0004
 25  8  7 21 56  0.0000000  0 10G01G02G03G10G28G31G32G04G26G25
  -2730823.75847  -2045139.50045  21273647.2344                   21273647.6294
        46.7504         34.2504
   -106963.52748    -24176.41845  21435508.4224                   21435506.4414
        48.0004         35.7504
  -4270650.78547  -3211990.03546  22573547.3284                   22573550.7894
        43.0004         38.0004
   1892488.21547   1514337.49245  23362916.7194                   23362921.5664
        43.0004         35.5004
   -357371.19947   -210833.94946  20910584.1334                   20910583.6914
        47.7504         37.7504
  -3169465.99648  -2385422.17247  20427642.0554                   20427640.9734
        49.0004         46.0004
   1805695.41047   1457845.46146  22779203.0164                   22779205.2344
        46.2504         41.2504
  -3982551.43446  -3010136.85943  23964193.1804                   23964200.6054
        38.2504         19.0004
  -4258222.87146  -3245840.56644  24473310.1724                   24473320.5744
        36.0004         25.7504
  -1281552.14146   -904034.58644  24325391.5704                   24325397.2584
        37.2504         28.5004
 25  8  7 21 56 30.0000000  0 10G01G02G03G10G28G31G32G04G26G25
  -3023451.66447  -2273161.22345  21217961.8524                   21217962.2274
        47.0004         34.2504
   -334524.74647   -201496.89546  21392204.9064                   21392202.8284
        47.5004         36.0004
  -4612178.40247  -3478115.34846  22508556.0234                   22508560.8364
        42.0004         37.2504
   1709266.77047   1371567.41045  23328050.6564                   23328055.7074
        43.7504         35.5004
   -589660.21547   -391838.37946  20866380.7504                   20866380.5664
        47.2504         37.2504
  -3472352.12948  -2621437.28147  20370004.8594                   20370003.9574
        49.2504         46.2504
   1616957.23847   1310776.72746  22743287.4304                   22743288.8794
        45.2504         40.0004
  -4315838.05146  -3269840.56642  23900771.0164                   23900777.9344
        38.5004         17.7504
  -4604911.66446  -3515987.36343  24407337.0314                   24407347.5904
        36.7504         23.2504
  -1540143.78945  -1105534.54343  24276182.3284                   24276188.6994
        33.5004         22.7504
 25  8  7 21 57  0.0000000  0 10G01G02G03G10G28G31G32G04G26G25
  -3315499.95347  -2500731.29345  21162386.6724                   21162387.2774
        47.2504         34.7504
   -561562.94548   -378409.81246  21349000.9144                   21348999.1644
        48.2504         36.2504
  -4953604.46147  -3744161.55546  22443585.5164                   22443587.9694
        42.0004         36.5004
   1526320.56647   1229011.79745  23293237.4774                   23293242.6604
        43.0004         35.0004
   -821356.43048   -572380.87946  20822290.0944                   20822289.8874
        49.0004         37.2504
  -3774620.80548  -2856971.27047  20312484.6484                   20312484.2814
        49.2504         46.5004
   1428303.69147   1163773.95346  22707387.9534                   22707390.5904
        46.2504         41.5004
  -4648953.35946  -3529410.75443  23837381.2504                   23837387.7424
        39.0004         20.5004
  -4951610.93746  -3786142.36744  24341362.4304                   24341372.8054
        36.7504         24.0004
  -1798174.01645  -1306597.07043  24227081.3834                   24227086.3634
        33.7504         22.7504
 25  8  7 21 57 30.0000000  0 10G01G02G03G10G28G31G32G04G26G25
  -2031538.86747  -1500242.11745  21406716.9534                   21406716.7584
        47.0004         35.0004
    787346.55147    672688.46546  21605690.0474                   21605688.2774
        47.5004         36.0004
  -3719497.43746  -2782519.59046  22678427.4224                   22678430.0944
        41.0004         36.5004
   2919074.07446   2314274.13345  23558269.4304                   23558274.7704
        41.2504         34.0004
    522965.20747    475142.47746  21078106.6254                   21078106.1914
        47.2504         37.5004
  -2500841.78948  -1864416.13347  20554876.7974                   20554876.0664
        49.5004         46.2504
   2815158.87947   2244440.28946  22971297.9454                   22971299.6294
        45.5004         40.5004
  -3406467.58246  -2561239.84443  24073817.7504                   24073824.6254
        37.0004         19.7504
  -3722887.66046  -2828695.37944  24575180.5944                   24575190.6684
        36.2504         24.5004
   -480214.96945   -279615.98443  24477880.4384                   24477884.9614
        32.7504         22.5004
 25  8  7 21 58  0.0000000  0 10G01G02G03G10G28G31G32G04G26G25
  -2322426.82847  -1726908.03545  21351362.3134                   21351362.3524
        47.0004         34.5004
    561347.37547    496585.16846  21562683.6024                   21562681.5004
        47.7504         36.5004
  -4060719.00046  -3048406.41846  22613495.0394                   22613499.7624
        41.0004         37.0004
   2736674.46546   2172144.43445  23523560.6094                   23523565.1884
        41.0004         34.0004
    292447.61348    295518.38346  21034240.1564                   21034239.7384
        48.2504         37.2504
  -2801873.94148  -2098986.59047  20497592.2114                   20497591.2234
        49.5004         46.5004
   2626668.99647   2097565.08246  22935429.6024                   22935431.3524
        47.0004         40.7504
  -3739243.16446  -2820545.32443  24010492.7114                   24010499.5594
        37.7504         18.5004
  -4069602.37146  -3098862.42244  24509202.6024                   24509213.0124
        36.0004         25.7504
   -737123.30545   -479804.27343  24428993.5234                   24428996.0704
        34.5004         21.5004
 25  8  7 21 58 30.0000000  0 10G01G02G03G10G28G31G32G04G26G25
  -2612733.32847  -1953120.87545  21296118.6564                   21296119.2704
        46.7504         34.2504
    335865.44548    320884.92646  21519776.1024                   21519774.0824
        48.2504         36.5004
  -4401836.82446  -3314212.45746  22548582.1024                   22548587.4734
        41.5004         37.5004
   2554546.91446   2030226.72345  23488902.3674                   23488907.6994
        41.2504         33.5004
     62516.58647    116351.35946  20990485.7344                   20990485.6054
        47.5004         37.5004
  -3102286.83648  -2333074.50847  20440425.6564                   20440425.0984
        49.5004         46.5004
   2438259.08247   1950752.10246  22899575.7974                   22899578.7274
        46.0004         41.0004
  -4071849.27746  -3079718.73843  23947199.1954                   23947206.7774
        39.5004         20.5004
  -4416321.25446  -3369032.71944  24443224.3204                   24443234.3284
        36.0004         27.0004
   -993470.19546   -679554.96144  24380212.4774                   24380213.3874
        37.2504         24.2504
 25  8  7 21 59  0.0000000  0 10G01G02G03G10G28G31G32G04G26G25
  -2902459.44547  -2178881.46945  21240986.0314                   21240986.0744
        46.5004         34.7504
    110896.98847    145584.80146  21476966.0784                   21476963.9344
        46.2504         36.0004
  -4742851.89847  -3579938.41046  22483689.2814                   22483693.0824
        42.0004         37.5004
   2372688.63746   1888518.84045  23454296.1254                   23454301.2704
        41.2504         34.5004
   -166831.58647    -62361.50046  20946842.5704                   20946841.9144
        46.5004         37.5004
  -3402081.21948  -2566680.47347  20383376.7814                   20383376.0744
        49.0004         46.7504
   2249925.79347   1803998.90646  22863737.3054                   22863738.9064
        46.7504         40.5004
  -4404288.50846  -3338762.07043  23883937.8054                   23883945.7034
        37.5004         19.5004
  -4763043.87945  -3639205.93044  24377244.5084                   24377254.7074
        35.5004         26.5004
  -1249257.21146   -878869.44944  24331538.2194                   24331540.9774
        37.7504         28.0004
 25  8  7 21 59 30.0000000  0 10G01G02G03G10G28G31G32G04G26G25
  -3191604.54347  -2404189.31645  21185963.5784                   21185963.7344
        46.5004         34.7504
   -113559.60547    -29316.48446  21434253.2734                   21434251.8244
        47.2504         36.5004
  -5083763.34847  -3845583.59846  22418816.2974                   22418820.2194
        42.0004         38.2504
   2191098.62947   1747020.00845  23419740.7974                   23419746.0554
        42.0004         34.2504
   -395599.02047   -240621.83246  20903309.2584                   20903308.9924
        47.2504         37.5004
  -3701256.48848  -2799804.01247  20326445.2344                   20326444.8594
        49.5004         46.5004
   2061667.86747   1657304.35546  22827913.6954                   22827916.9304
        47.0004         41.7504
  -4736561.27746  -3597675.67643  23820709.0864                   23820716.0004
        38.5004         18.5004
  -5109767.95345  -3909380.27744  24311265.2814                   24311275.3054
        35.5004         26.0004
  -1504484.32046  -1077747.68044  24282969.4774                   24282973.7504
        36.7504         27.7504
 25  8  7 22  0  0.0000000  0 10G01G02G03G10G28G31G32G04G26G25
  -3480166.04347  -2629042.41845  21131052.1174                   21131052.3094
        46.5004         34.5004
   -337504.14847   -203818.75446  21391638.0864                   21391636.2154
        47.7504         36.5004
  -5424568.34046  -4111145.83246  22353963.3834                   22353966.6564
        41.5004         37.7504
   2009777.87546   1605730.98045  23385237.2114                   23385242.2154
        41.7504         34.5004
   -623785.71147   -418429.63346  20859887.0944                   20859886.6484
        47.2504         37.5004
  -3999810.00448  -3032443.06247  20269632.4694                   20269631.9884
        49.5004         46.7504
   1873485.74247   1510668.93846  22792102.9384                   22792104.8404
        45.0004         39.7504
  -5068666.07446  -3856458.47343  23757511.1484                   23757517.5274
        38.7504         19.5004
  -5456489.28145  -4179552.50844  24245286.1644                   24245296.1024
        35.2504         24.0004
  -1759149.44945  -1276188.03944  24234507.9454                   24234512.8834
        35.7504         28.0004
 25  8  7 22  0 30.0000000  0 10G01G02G03G10G28G31G32G04G26G25
  -2192715.04347  -1625833.83245  21376045.5784                   21376045.8324
        47.5004         34.7504
   1014487.32847    849681.05946  21648913.7424                   21648911.6294
        47.5004         36.2504
  -4189836.01247  -3149016.64546  22588924.7974                   22588928.4614
        42.0004         37.2504
   3404150.04347   2692254.60545  23650577.2344                   23650582.6454
        42.2504         34.2504
    724032.46147    631818.29746  21116368.1884                   21116367.8834
        47.5004         36.7504
  -2722312.46948  -2036990.39547  20512732.4304                   20512731.3754
        49.2504         46.7504
   3260802.98847   2591695.33646  23056101.7424                   23056104.2814
        46.2504         41.0004
  -3825173.92246  -2887503.28142  23994139.3984                   23994146.8444
        36.5004         17.7504
  -4227775.35245  -3222112.84444  24479102.5634                   24479112.8444
        35.7504         25.5004
   -437825.43046   -246584.90244  24485947.2584                   24485951.8914
        36.7504         27.5004
 25  8  7 22  1  0.0000000  0 10G01G02G03G10G28G31G32G04G26G25
  -2480109.93747  -1849777.89545  21321356.2894                   21321356.8364
        47.0004         35.2504
    791558.45348    675970.20746  21606491.4304                   21606489.4104
        48.0004         36.5004
  -4530427.97346  -3414412.87546  22524111.8674                   22524115.5904
        41.7504         38.0004
   3223362.28947   2551380.89145  23616174.9614                   23616179.8634
        42.0004         34.5004
    496998.50448    454908.72746  21073165.1094                   21073164.8834
        48.2504         36.7504
  -3019623.07848  -2268660.94947  20456155.8444                   20456155.1214
        49.5004         47.0004
   3072765.96947   2445172.93046  23020319.3984                   23020320.7274
        45.7504         39.7504
  -4156947.21146  -3146027.61343  23931005.1724                   23931012.2934
        39.0004         20.7504
  -4574486.71546  -3492277.30944  24413125.0394                   24413135.4144
        37.5004         25.2504
   -691368.85245   -444151.19544  24437699.5634                   24437704.8164
        33.5004         28.0004
 25  8  7 22  1 30.0000000  0 10G01G02G03G10G28G31G32G04G26G25
  -2766920.64847  -2073266.73445  21266777.7194                   21266778.1254
        47.7504         34.5004
    569134.61748    502652.89846  21564165.7344                   21564163.7114
        48.5004         36.2504
  -4870912.01646  -3679725.03946  22459320.0314                   22459323.9414
        41.5004         37.2504
   3042839.44947   2410713.60945  23581822.0004                   23581827.4454
        42.2504         34.0004
    270537.77048    278445.82846  21030071.1954                   21030070.6334
        48.0004         36.7504
  -3316311.45748  -2499846.65647  20399698.0554                   20399696.9024
        49.5004         47.0004
   2884799.31647   2298705.42246  22984549.8984                   22984552.6994
        46.0004         40.7504
  -4488555.42246  -3404423.42243  23867901.9224                   23867908.2894
        38.0004         18.2504
  -4921189.71946  -3762435.25844  24347149.7894                   24347159.9614
        36.7504         26.0004
   -944351.49646   -641280.59045  24389559.2424                   24389564.2624
        38.0004         30.2504
 25  8  7 22  2  0.0000000  0 10G01G02G03G10G28G31G32G04G26G25
  -3053144.55947  -2296298.34445  21212311.3524                   21212311.9024
        46.7504         34.7504
    347216.14847    329729.37946  21521935.9064                   21521934.4104
        47.0004         36.7504
  -5211285.30146  -3944950.89146  22394548.8444                   22394552.5474
        41.2504         36.7504
   2862582.64547   2270253.60945  23547520.4924                   23547526.1524
        42.5004         34.2504
     44650.19547    102429.53946  20987085.5554                   20987085.7544
        46.0004         37.2504
  -3612375.11348  -2730545.56647  20343358.8134                   20343358.0474
        50.0004         47.0004
   2696903.81647   2152293.28946  22948795.1254                   22948797.3164
        46.5004         40.5004
  -4819997.33246  -3662689.53543  23804829.8524                   23804837.0864
        38.5004         20.0004
  -5267880.05946  -4032583.35544  24281175.8674                   24281186.7504
        36.0004         26.7504
  -1196771.32046   -837971.34844  24341525.7034                   24341529.8164
        38.7504         29.0004
 25  8  7 22  2 30.0000000  0 10G01G02G03G10G28G31G32G04G26G25
  -3338784.36347  -2518874.80945  21157956.1644                   21157956.1454
        46.7504         35.0004
    125797.70347    157195.48846  21479801.5394                   21479799.7464
        47.2504         36.7504
  -5551550.03946  -4210092.14546  22329798.9614                   22329802.4304
        40.7504         37.5004
   2682587.49646   2129997.50845  23513268.8284                   23513274.2504
        41.2504         33.2504
   -180669.49247    -73144.22346  20944208.8914                   20944208.7154
        47.2504         37.0004
  -3907816.55948  -2960759.64547  20287138.2424                   20287136.9574
        49.5004         47.2504
   2509074.81347   2005933.06346  22913051.6024                   22913054.1094
        45.5004         39.7504
  -5151276.41446  -3920828.76643  23741790.0554                   23741796.6844
        40.0004         21.5004
  -5614558.64545  -4302722.26244  24215205.5084                   24215215.5864
        35.2504         26.0004
  -1448631.52046  -1034225.98044  24293597.6484                   24293601.6094
        37.2504         24.5004
 25  8  7 22  3  0.0000000  0 10G01G02G03G10G28G31G32G04G26G25
  -3623837.91447  -2740994.44545  21103711.9384                   21103712.2584
        46.7504         35.0004
    -95120.89848    -14948.91446  21437762.3284                   21437760.7934
        48.5004         36.5004
  -5891703.71946  -4475146.87946  22265069.0164                   22265073.9884
        41.2504         37.5004
   2502854.68046   1989945.79745  23479066.8054                   23479072.9024
        40.5004         33.7504
   -405421.95747   -248276.00446  20901440.1024                   20901440.0004
        47.2504         36.5004
  -4202633.77048  -3190487.29747  20231036.5634                   20231035.5434
        49.7504         47.0004
   2321312.67247   1859624.83246  22877322.4224                   22877325.2424
        46.2504         41.0004
  -5482391.87546  -4178840.56643  23678780.0864                   23678787.2194
        38.2504         19.0004
  -5961221.52746  -4572848.94144  24149237.6804                   24149247.1724
        36.5004         27.5004
  -1699930.52745  -1230043.23043  24245776.8984                   24245779.6804
        34.7504         22.5004
 25  8  7 22  3 30.0000000  0 10G01G02G03G10G28G31G32G04G26G25
  -2332873.51247  -1735048.15245  21349374.3754                   21349374.4614
        46.5004         34.5004
   1259887.35547   1040901.63746  21695611.9064                   21695610.0474
        47.5004         37.0004
  -4656312.38746  -3512504.19546  22500156.4144                   22500160.9574
        40.5004         37.5004
   3898810.79746   3077703.65245  23744708.5084                   23744714.0824
        41.5004         33.0004
    945819.88747    804639.72746  21158572.9534                   21158572.5824
        47.2504         36.7504
  -2921394.43748  -2192118.95347  20474848.1334                   20474847.2464
        49.2504         47.0004
   3709043.87547   2940973.82046  23141397.9774                   23141400.4774
        45.0004         39.2504
  -4237911.52346  -3209115.34443  23915597.4694                   23915603.3634
        39.5004         19.7504
  -4732433.09045  -3615351.21944  24383068.1174                   24383077.7074
        35.5004         25.7504
   -375238.41045   -197815.58244  24497857.0784                   24497862.0514
        35.0004         26.0004
 25  8  7 22  4  0.0000000  0 10G01G02G03G10G28G31G32G04G26G25
  -2616751.85247  -1956252.03945  21295354.0314                   21295354.2194
        45.5004         34.5004
   1039963.63348    869532.46145  21653761.7504                   21653760.2234
        48.0004         35.7504
  -4996239.91846  -3777382.70746  22435469.6724                   22435474.5204
        40.5004         37.7504
   3719600.62146   2938059.19945  23710606.2034                   23710611.9804
        41.5004         33.5004
    722196.71547    630387.92646  21116019.0554                   21116018.3054
        47.5004         37.5004
  -3214960.23048  -2420871.48047  20418984.1884                   20418983.4844
        49.5004         47.0004
   3521412.53947   2794767.55146  23105692.7194                   23105696.9024
        43.7504         39.7504
  -4568700.05946  -3466872.32043  23852650.3834                   23852657.0084
        39.0004         20.7504
  -5079056.34846  -3885447.00844  24317107.0164                   24317117.1414
        36.2504         25.7504
   -625414.17645   -392757.74644  24450249.7894                   24450255.6214
        33.5004         24.5004
 25  8  7 22  4 30.0000000  0 10G01G02G03G10G28G31G32G04G26G25
  -2900041.69547  -2176997.37145  21241445.7424                   21241446.0664
        46.7504         34.7504
    820534.57448    698548.74246  21612005.7034                   21612003.7974
        48.2504         36.5004
  -5336052.80946  -4042171.87146  22370805.6564                   22370810.0554
        41.2504         38.2504
   3540650.23846   2798617.17245  23676553.0944                   23676558.4924
        41.5004         34.5004
    499135.02047    456573.62946  21073571.3594                   21073570.8554
        47.2504         37.2504
  -3507899.63748  -2649135.91447  20363239.7034                   20363238.9534
        50.0004         47.0004
   3333844.73846   2648610.79346  23069999.9304                   23070002.0474
        41.7504         38.7504
  -4899325.91046  -3724502.57843  23789734.1094                   23789739.8164
        39.7504         18.5004
  -5425656.12546  -4155524.50444  24251151.2114                   24251160.7734
        37.0004         27.5004
   -875028.36355   -587262.34853  24402748.4304                   24402754.5274
        32.5004         22.5004
 25  8  7 22  5  0.0000000  0 10G01G02G03G10G28G31G32G04G26G25
  -3182743.35947  -2397284.37145  21187649.2894                   21187650.0474
        46.5004         34.2504
    601597.48047    527948.37946  21570343.2894                   21570341.8834
        47.7504         36.0004
  -5675750.72346  -4306871.45746  22306163.7584                   22306168.0634
        40.2504         38.2504
   3361957.94946   2659376.25045  23642549.5784                   23642554.9884
        41.5004         34.5004
    276631.91047    283194.59446  21031230.3754                   21031229.8444
        47.5004         37.0004
  -3800212.74248  -2876912.31647  20307614.2274                   20307613.3484
        49.7504         47.2504
   3146338.50047   2502501.99246  23034319.4614                   23034321.4104
        44.2504         39.7504
  -5229790.27746  -3982007.03143  23726848.6174                   23726853.9924
        40.0004         20.7504
  -5772230.77046  -4425582.42644  24185200.2344                   24185210.4804
        37.5004         28.5004
  -1124081.76246   -781329.90244  24355356.5864                   24355360.8054
        37.0004         28.5004
 25  8  7 22  5 30.0000000  0 10G01G02G03G10G28G31G32G04G26G25
  -3464857.13747  -2617113.27745  21133965.0554                   21133965.2234
        46.7504         34.5004
    383149.34448    357729.00846  21528774.1174                   21528772.5554
        48.2504         36.5004
  -6015333.49247  -4571481.31246  22241543.6174                   22241547.4494
        42.0004         39.0004
   3183521.88346   2520334.98845  23608594.1644                   23608599.8164
        40.7504         34.0004
     54684.34447    110248.44546  20988995.1954                   20988994.8794
        47.5004         36.7504
  -4091900.20348  -3104201.21147  20252108.2274                   20252107.1994
        49.5004         47.2504
   2958891.74247   2356439.53946  22998649.3444                   22998652.0394
        43.2504         39.0004
  -5560094.54346  -4239386.68443  23663993.2504                   23663999.8874
        40.2504         21.5004
  -6118778.72746  -4695619.55544  24119254.6174                   24119264.1484
        38.0004         27.7504
  -1372575.47746   -974961.30544  24308070.5394                   24308074.8284
        38.0004         29.0004
 25  8  7 22  6  0.0000000  0 10G01G02G03G10G28G31G32G04G26G25
  -3746381.07447  -2836482.56245  21080392.8524                   21080393.2194
        46.0004         34.7504
    165189.78948    187890.35946  21487297.5164                   21487296.3054
        48.0004         36.7504
  -6354798.47746  -4835999.40246  22176944.7504                   22176948.7234
        40.5004         38.0004
   3005342.65246   2381493.84045  23574687.7034                   23574694.1054
        41.2504         34.2504
   -166708.27747    -62265.27746  20946865.7114                   20946865.5984
        47.7504         36.5004
  -4382959.91448  -3331000.94547  20196721.7274                   20196720.1134
        49.7504         47.5004
   2771504.83247   2210423.71546  22962991.4384                   22962993.0984
        44.0004         39.5004
  -5890237.64146  -4496640.82843  23601168.4774                   23601174.7734
        40.7504         21.2504
  -6465295.98846  -4965632.74644  24053314.4844                   24053323.7974
        38.0004         28.0004
  -1620507.96946  -1168155.47344  24260890.8914                   24260895.2114
        37.7504         27.5004
 25  8  7 22  6 30.0000000  0 10G01G02G03G10G28G31G32G04G26G25
  -2451886.17647  -1827785.22745  21326727.1174                   21326727.3754
        46.2504         34.7504
   1523143.35548   1246035.95746  21745708.1254                   21745705.8954
        48.0004         36.7504
  -5118714.17646  -3872816.70746  22412164.4064                   22412167.8164
        41.0004         38.5004
   4402844.18446   3470455.88745  23840623.7424                   23840629.6024
        41.0004         33.7504
   1187878.34448    993256.78146  21204635.0784                   21204634.3794
        48.0004         36.2504
  -3097962.65648  -2329704.33247  20441247.8524                   20441247.2114
        49.2504         47.5004
   4159601.85247   3292057.74646  23227136.5004                   23227140.9144
        42.5004         40.0004
  -4644790.02346  -3526161.89143  23838168.2034                   23838175.4774
        40.5004         21.5004
  -5236349.47346  -4008011.84444  24287174.3444                   24287184.5634
        36.5004         27.7504
   -292451.98446   -133306.62544  24513611.1414                   24513615.0234
        38.2504         28.2504
 25  8  7 22  7  0.0000000  0 10G01G02G03G10G28G31G32G04G26G25
  -2732227.73847  -2046233.18045  21273379.6884                   21273379.9264
        46.7504         34.0004
   1306156.54347   1076955.28145  21704416.6094                   21704414.6644
        46.0004         35.7504
  -5457939.07046  -4137147.71946  22347612.0554                   22347615.4804
        41.7504         38.5004
   4225176.66046   3332013.48445  23806815.1334                   23806820.5394
        41.0004         33.0004
    967590.31347    821603.77746  21162715.3674                   21162715.0204
        45.7504         37.0004
  -3387764.23448  -2555523.70347  20386100.4774                   20386099.8094
        49.5004         47.5004
   3972332.23847   3146133.33246  23191501.3364                   23191501.5784
        43.7504         38.5004
  -4974611.06646  -3783165.06643  23775406.6564                   23775412.1334
        41.2504         21.5004
  -5582796.70346  -4277970.48044  24221248.1174                   24221256.9384
        37.5004         27.7504
   -539261.23446   -325625.45744  24466645.0394                   24466648.7734
        37.0004         28.5004
 25  8  7 22  7 30.0000000  0 10G01G02G03G10G28G31G32G04G26G25
  -3011977.95747  -2264220.35245  21220144.7424                   21220145.1684
        46.0004         34.5004
   1089652.79347    908251.01646  21663217.2274                   21663215.7274
        47.7504         36.0004
  -5797042.71146  -4401384.23446  22283082.2344                   22283085.7304
        41.2504         38.7504
   4047763.05546   3193768.94145  23773054.6884                   23773060.1844
        40.7504         33.5004
    747850.73847    650378.14846  21120900.5704                   21120900.0514
        47.7504         36.7504
  -3676936.77348  -2780852.91047  20331072.6484                   20331072.1454
        49.2504         47.5004
   3785119.05147   3000252.89146  23155875.5864                   23155876.7774
        43.2504         38.5004
  -5304272.31246  -4040043.72343  23712673.8914                   23712679.7154
        39.7504         20.0004
  -5929205.72346  -4547899.33644  24155328.1484                   24155337.1414
        37.2504         26.5004
   -785509.58646   -517507.27344  24419785.2504                   24419789.9654
        36.0004         26.7504
 25  8  7 22  8  0.0000000  0 10G01G02G03G10G28G31G32G04G26G25
  -3291137.04347  -2481746.89545  21167022.6564                   21167022.8284
        46.0004         34.7504
    873629.28147    739920.96946  21622109.6334                   21622107.9104
        47.0004         36.0004
  -6136024.62546  -4665525.88746  22218575.9144                   22218579.5664
        41.0004         38.0004
   3870601.66846   3055720.94945  23739342.2114                   23739347.6844
        40.5004         33.2504
    528656.84447    479577.72746  21079189.4774                   21079188.7774
        47.2504         36.5004
  -3965480.39848  -3005692.05547  20276164.5004                   20276163.7384
        49.0004         47.5004
   3597960.47347   2854414.98446  23120260.0164                   23120262.3984
        43.7504         38.7504
  -5633774.89546  -4296798.73043  23649971.1884                   23649977.6054
        41.2504         22.0004
  -6275574.54746  -4817796.85944  24089415.9924                   24089425.4774
        37.0004         28.0004
  -1031197.82845   -708952.70343  24373030.9144                   24373036.0634
        33.5004         23.7504
 25  8  7 22  8 30.0000000  0 10G01G02G03G10G28G31G32G04G26G25
  -3569702.12947  -2698810.59845  21114013.2344                   21114013.6884
        46.0004         34.5004
    658086.42247    571965.44946  21581092.8364                   21581091.6684
        47.0004         36.0004
  -6474881.16846  -4929569.84446  22154094.0084                   22154097.6214
        41.2504         38.2504
   3693693.88746   2917870.55545  23705677.1804                   23705683.3914
        41.5004         33.0004
    310008.86347    309202.68046  21037581.9924                   21037581.3054
        47.0004         37.0004
  -4253392.46948  -3230039.08247  20221376.6804                   20221376.1024
        48.5004         47.5004
   3410857.84847   2708620.70746  23084655.4614                   23084657.6954
        42.0004         37.5004
  -5963116.83246  -4553428.55943  23587299.6414                   23587305.1994
        40.5004         21.0004
  -6621898.25846  -5087659.22344  24023513.1094                   24023522.2304
        37.0004         28.5004
  -1276323.81245   -899959.89543  24326384.0704                   24326389.2234
        32.2504         20.0004
 25  8  7 22  9  0.0000000  0 10G01G02G03G10G28G31G32G04G26G25
  -3847673.88747  -2915411.96145  21061117.2974                   21061117.4144
        46.7504         34.5004
    443021.25448    404382.16446  21540167.7734                   21540166.2114
        48.5004         36.0004
  -6813612.14546  -5193515.96146  22089634.8984                   22089638.8754
        41.5004         38.7504
   3517037.70346   2780216.22345  23672061.6094                   23672066.8054
        40.5004         32.7504
     91903.48047    139250.44546  20996077.8834                   20996077.6254
        47.7504         37.0004
  -4540673.50448  -3453894.39547  20166709.1024                   20166708.2664
        48.5004         47.5004
   3223809.05947   2562868.39546  23049061.1254                   23049065.5984
        42.2504         39.5004
  -6292299.63746  -4809934.45743  23524657.9774                   23524663.2934
        41.5004         21.0004
  -6968175.37546  -5357485.29344  23957618.4774                   23957627.2154
        38.5004         29.5004
  -1520888.56255  -1090529.82054  24279846.5944                   24279850.9024
        34.0004         24.5004
 25  8  7 22  9 30.0000000  0 10G01G02G03G10G28G31G32G04G26G25
  -2549623.16847  -1903943.86345  21308128.0234                   21308128.3794
        46.0004         34.7504
   1803858.48847   1464774.77046  21799126.3444                   21799124.7544
        47.0004         36.2504
  -5576785.61747  -4229754.94146  22324995.9064                   22324998.4104
        42.5004         38.7504
   4916057.52046   3870361.35945  23938285.9614                   23938291.7544
        40.5004         31.5004
   1449765.22347   1197324.53546  21254470.3984                   21254469.9964
        46.5004         36.2504
  -3251894.04348  -2449650.61747  20411955.7274                   20411954.3444
        50.0004         47.7504
   4612238.74247   3644761.59046  23313270.9064                   23313272.8284
        43.0004         37.5004
  -5045893.28146  -3838708.47343  23761840.8834                   23761847.6724
        40.0004         22.5004
  -5738972.27346  -4399664.43044  24191527.4774                   24191536.4104
        37.5004         27.5004
   -189464.97346    -53056.90244  24533209.7664                   24533213.5004
        37.0004         29.7504
 25  8  7 22 10  0.0000000  0 10G01G02G03G10G28G31G32G04G26G25
  -2826406.31647  -2119619.04745  21255457.6804                   21255458.1954
        46.5004         34.5004
   1589743.22747   1297931.66446  21758381.6254                   21758379.6374
        47.7504         36.0004
  -5915261.12147  -4493501.99246  22260586.1094                   22260589.7704
        42.7504         39.0004
   4739902.38346   3733097.42245  23904764.7734                   23904770.9104
        39.5004         32.0004
   1232739.23047   1028213.37946  21213171.6724                   21213171.3094
        47.7504         36.7504
  -3537911.50048  -2672521.31647  20357528.5164                   20357527.2504
        49.5004         47.5004
   4425295.13347   3499091.20746  23277696.4614                   23277699.0944
        43.7504         38.7504
  -5374758.32046  -4094966.74643  23699259.8984                   23699265.5634
        40.5004         20.7504
  -6085147.68046  -4669411.23444  24125652.4304                   24125661.2034
        37.5004         27.7504
   -432907.65646   -242752.52045  24486882.7194                   24486887.8874
        37.5004         30.2504
 25  8  7 22 10 30.0000000  0 10G01G02G03G10G28G31G32G04G26G25
  -3102594.72747  -2334830.79345  21202900.7424                   21202901.4844
        46.0004         34.5004
   1376100.03147   1131456.40646  21717726.6334                   21717724.9144
        47.5004         36.0004
  -6253607.14847  -4757148.16446  22196200.6334                   22196204.2154
        43.0004         39.0004
   4563996.13746   3596027.43445  23871290.5474                   23871297.0204
        40.2504         32.5004
   1016249.40647    859520.01246  21171974.7974                   21171974.2384
        47.5004         36.5004
  -3823296.72748  -2894899.37947  20303221.2034                   20303220.2814
        49.2504         47.7504
   4238402.40647   3353460.43846  23242132.2344                   23242135.8404
        42.5004         38.2504
  -5703465.27746  -4351101.84843  23636708.3134                   23636714.3134
        40.2504         22.2504
  -6431268.37946  -4939115.41444  24059787.0084                   24059796.7544
        37.5004         28.7504
   -675789.68746   -432011.24644  24440664.2344                   24440668.6254
        36.5004         28.0004
 25  8  7 22 11  0.0000000  0 10G01G02G03G10G28G31G32G04G26G25
  -3378186.21947  -2549577.40645  21150457.6024                   21150457.8874
        46.2504         34.5004
   1162928.41048    965348.59846  21677161.2584                   21677159.7464
        48.2504         36.0004
  -6591820.58247  -5020691.00446  22131841.0704                   22131844.0354
        43.0004         39.2504
   4388339.68046   3459152.06645  23837864.8054                   23837871.4414
        39.5004         33.0004
    800295.34847    691244.12946  21130880.5704                   21130880.0044
        47.5004         36.7504
  -4108047.74248  -3116783.24247  20249035.0164                   20249033.9774
        48.7504         47.5004
   4051561.38347   3207870.02046  23206577.6884                   23206580.1294
        42.2504         38.5004
  -6032012.78146  -4607112.61743  23574187.9454                   23574194.0634
        40.5004         22.5004
  -6777329.96546  -5208773.52744  23993934.2034                   23993943.1684
        38.0004         28.5004
   -918109.57846   -620831.88344  24394552.6564                   24394556.2934
        37.7504         28.0004
 25  8  7 22 11 30.0000000  0 10G01G02G03G10G28G31G32G04G26G25
  -3653182.64147  -2763860.33645  21098127.9614                   21098127.9414
        45.7504         34.5004
    950224.27747    799605.06345  21636685.0314                   21636683.7234
        45.7504         35.5004
  -6929902.37547  -5284131.27346  22067506.2034                   22067509.2664
        43.0004         39.0004
   4212929.64146   3322468.71945  23804485.2814                   23804491.7894
        41.0004         34.0004
    584872.60247    523382.25046  21089886.4224                   21089886.1094
        45.5004         36.5004
  -4392166.60248  -3338174.51647  20194968.7114                   20194967.9344
        48.7504         47.5004
   3864768.78147   3062317.30546  23171032.6804                   23171035.4614
        43.0004         39.0004
  -6360403.41446  -4863001.28943  23511697.0474                   23511702.2034
        40.5004         21.0004
  -7123332.10946  -5478385.32444  23928091.8914                   23928100.8554
        37.5004         28.7504
  -1159869.69946   -809216.38344  24348546.9304                   24348551.6914
        36.5004         28.0004
 25  8  7 22 12  0.0000000  0 10G01G02G03G10G28G31G32G04G26G25
  -3927583.94547  -2977679.53145  21045910.7114                   21045911.1524
        45.7504         34.2504
    737985.17647    634223.89546  21596297.5084                   21596295.7894
        46.5004         36.2504
  -7267851.37547  -5547468.06646  22003196.2814                   22003199.2464
        42.7504         39.2504
   4037764.93446   3185976.53145  23771153.4534                   23771159.4924
        41.2504         35.0004
    369978.73047    355932.48446  21048993.8284                   21048993.3954
        46.0004         36.5004
  -4675653.14848  -3559073.07848  20141023.2194                   20141022.1684
        48.7504         48.0004
   3678023.48847   2916801.43446  23135495.5784                   23135498.3794
        44.2504         38.5004
  -6688637.85246  -5118768.15643  23449236.2584                   23449241.4884
        41.5004         22.5004
  -7469272.23046  -5747948.80044  23862261.9614                   23862270.4614
        38.0004         29.0004
  -1401070.58245   -997165.21544  24302647.6484                   24302651.7154
        34.7504         24.5004
 25  8  7 22 12 30.0000000  0 10G01G02G03G10G28G31G32G04G26G25
  -4201389.21547  -3191034.28545  20993807.4924                   20993807.8794
        45.5004         34.5004
    526209.80547    469204.07445  21555998.0234                   21555996.3554
        46.0004         35.5004
  -7605665.74247  -5810699.93446  21938912.6954                   21938915.0744
        44.0004         38.7504
   3862845.04747   3049675.13746  23737867.3284                   23737873.4804
        42.7504         36.0004
    155612.00447    188893.48445  21008201.1254                   21008200.6804
        45.7504         35.7504
  -4958506.31248  -3779478.09847  20087197.6484                   20087196.8054
        49.0004         47.7504
   3491325.07847   2771322.12146  23099967.9844                   23099970.9654
        42.0004         38.5004
  -7016715.99646  -5374413.23443  23386805.1174                   23386810.4104
        40.2504         21.2504
  -7815147.23846  -6017461.54345  23796443.0634                   23796452.0274
        38.0004         30.0004
  -1641712.06245  -1184678.05543  24256854.2424                   24256858.1454
        35.5004         22.7504
 25  8  7 22 13  0.0000000  0 10G01G02G03G10G28G31G32G04G26G25
  -2899167.55547  -2176316.10545  21241611.9774                   21241611.9454
        46.5004         34.0004
   1890324.62547   1532150.62945  21815580.5004                   21815578.7344
        47.7504         35.0004
  -6367911.30547  -4846215.88346  22174448.8284                   22174452.0514
        43.2504         38.5004
   5263596.41847   4141169.50845  24004421.6644                   24004427.4304
        42.0004         34.7504
   1517198.84447   1249870.25446  21267302.4144                   21267302.1804
        47.7504         36.0004
  -3665295.23048  -2771781.10948  20333287.7664                   20333286.7424
        49.0004         48.2504
   4880100.30547   3853484.58246  23364244.3364                   23364247.5204
        45.0004         39.2504
  -5769205.67246  -4402327.09043  23624198.7274                   23624203.5664
        41.7504         22.5004
  -6585521.27346  -5059311.18044  24030433.7584                   24030442.1024
        38.5004         29.0004
   -306364.85945   -144147.70343  24510962.8834                   24510966.0044
        35.0004         21.0004
 25  8  7 22 13 30.0000000  0 10G01G02G03G10G28G31G32G04G26G25
  -3171779.24647  -2388740.80945  21189735.9844                   21189735.9344
        46.2504         34.5004
   1679471.16447   1367849.18445  21775456.3674                   21775454.8134
        46.0004         35.5004
  -6705451.63347  -5109234.23846  22110216.7034                   22110220.1884
        43.0004         39.2504
   5089163.97746   4005247.93445  23971228.0314                   23971234.7034
        41.7504         34.5004
   1303880.28547   1083648.00046  21226709.3914                   21226709.0784
        46.5004         36.0004
  -3946880.93048  -2991198.48848  20279703.6564                   20279702.7584
        49.7504         48.0004
   4693493.42647   3708076.60546  23328733.6334                   23328735.5984
        43.0004         37.5004
  -6096971.67646  -4657728.93443  23561825.7734                   23561831.9694
        40.0004         22.0004
  -6931257.16046  -5328715.51244  23964641.6724                   23964650.1914
        38.0004         29.2504
   -545887.71545   -330788.91444  24465383.8054                   24465387.1604
        35.5004         24.5004
 25  8  7 22 14  0.0000000  0 10G01G02G03G10G28G31G32G04G26G25
  -3443792.77347  -2600699.39145  21137973.0474                   21137973.4344
        46.7504         34.0004
   1469076.32047   1203905.09845  21735419.5634                   21735418.4774
        47.7504         35.7504
  -7042851.79347  -5372143.36346  22046012.0084                   22046015.1764
        43.5004         39.2504
   4914974.78947   3869515.91845  23938080.8754                   23938087.6604
        42.0004         34.2504
   1091083.39847    917832.25046  21186215.3914                   21186215.0824
        47.5004         36.0004
  -4227831.51648  -3210120.97748  20226240.6724                   20226239.3014
        49.2504         48.0004
   4506931.89147   3562703.94146  23293231.8754                   23293235.3324
        44.5004         39.0004
  -6424581.13347  -4913008.85243  23499484.7194                   23499489.3554
        42.0004         22.2504
  -7276918.39846  -5598061.68045  23898864.2194                   23898873.1054
        37.7504         30.2504
   -784850.82045   -516993.90244  24419910.3524                   24419914.9144
        35.5004         26.5004
 25  8  7 22 14 30.0000000  0 10G01G02G03G10G28G31G32G04G26G25
  -3715206.04747  -2812190.25045  21086325.1334                   21086325.2584
        47.0004         34.0004
   1259140.13348   1040318.40245  21695470.2034                   21695468.5864
        48.2504         35.5004
  -7380108.69947  -5634940.88346  21981833.6644                   21981837.2194
        43.5004         39.5004
   4741029.63746   3733974.04345  23904980.4144                   23904986.8834
        41.7504         33.0004
    878807.72347    752422.64146  21145820.7194                   21145820.0314
        47.7504         36.2504
  -4508145.29348  -3428547.25847  20172898.7344                   20172897.6604
        49.2504         47.7504
   4320416.64147   3417367.33246  23257738.9384                   23257743.2774
        42.2504         37.7504
  -6752032.72346  -5168165.69943  23437172.3984                   23437176.9734
        40.0004         21.7504
  -7622500.48446  -5867346.17245  23833102.3134                   23833110.4224
        38.7504         30.0004
  -1023252.73046   -702761.62944  24374544.6724                   24374549.0084
        36.0004         28.5004
 25  8  7 22 15  0.0000000  0 10G01G02G03G10G28G31G32G04G26G25
  -3986020.31647  -3023214.34845  21034791.0784                   21034790.6844
        46.2504         34.2504
   1049658.67248    877086.03945  21655607.4304                   21655605.8444
        48.0004         35.5004
  -7717222.29347  -5897626.71946  21917683.5634                   21917686.0004
        43.0004         39.7504
   4567326.11346   3598620.45345  23871926.6484                   23871932.3554
        40.2504         32.0004
    667049.46947    587416.21546  21105524.3134                   21105523.9844
        47.5004         36.7504
  -4787823.55148  -3646478.32047  20119677.5234                   20119676.3404
        48.7504         47.7504
   4133945.32847   3272064.96546  23222256.2034                   23222257.2194
        45.0004         38.5004
  -7079328.25046  -5423201.00843  23374889.9304                   23374894.3754
        40.2504         23.0004
  -7968002.12946  -6136567.96944  23767355.2194                   23767363.9344
        38.7504         29.7504
  -1261095.24245   -888093.48444  24329284.4144                   24329288.8524
        35.7504         26.7504
 25  8  7 22 15 30.0000000  0 10G01G02G03G10G28G31G32G04G26G25
  -4256236.46947  -3233772.39145  20983370.7344                   20983370.5984
        46.0004         34.0004
    840629.06647    714205.76645  21615830.3834                   21615828.9924
        46.0004         35.5004
  -8054192.34447  -6160200.70346  21853559.7734                   21853563.0824
        43.5004         40.0004
   4393862.10946   3463453.49245  23838917.2504                   23838923.3324
        40.7504         31.2504
    455805.23447    422810.32446  21065326.2194                   21065325.5904
        46.5004         37.5004
  -5066867.14548  -3863914.84847  20066577.2974                   20066576.2734
        48.2504         47.7504
   3947515.86347   3126795.22346  23186778.9774                   23186782.2934
        43.5004         38.0004
  -7406469.32046  -5678115.89543  23312636.6334                   23312641.3404
        39.0004         22.2504
  -8313421.71146  -6405725.84845  23701623.7114                   23701632.2854
        39.2504         30.0004
  -1498379.90645  -1072990.69944  24284129.8754                   24284135.5354
        35.5004         28.0004
 25  8  7 22 16  0.0000000  0 10G01G02G03G10G28G31G32G04G26G25
  -2950423.61747  -2216255.87545  21231858.4144                   21231858.7934
        46.2504         34.5004
   2207477.75047   1779282.60545  21875932.9144                   21875931.9654
        47.0004         35.7504
  -6815584.43047  -5195051.58246  22089259.7814                   22089262.2074
        43.7504         39.5004
   5796064.09446   4556078.20745  24105747.4454                   24105753.8094
        39.7504         30.5004
   1820501.41048   1486209.93846  21325019.0084                   21325018.6134
        48.2504         36.7504
  -3769844.86348  -2853248.09048  20313392.5164                   20313391.1094
        49.0004         48.2504
   5336555.44147   4209163.69146  23451104.3754                   23451107.0944
        44.2504         38.5004
  -6158023.60946  -4705300.88743  23550207.8054                   23550212.2114
        39.7504         22.5004
  -7083323.19946  -5447207.27745  23935702.8204                   23935712.0474
        40.0004         30.5004
   -159677.48445    -29846.03544  24538877.3204                   24538881.7704
        34.5004         27.0004
 25  8  7 22 16 30.0000000  0 10G01G02G03G10G28G31G32G04G26G25
  -3219437.49647  -2425877.08645  21180666.4454                   21180666.5554
        46.5004         34.2504
   1999350.54747   1617105.50445  21836328.0634                   21836326.4024
        45.7504         35.7504
  -7152257.44147  -5457394.10546  22025192.7034                   22025195.5314
        44.7504         39.5004
   5623081.52746   4421286.38345  24072830.2344                   24072836.7424
        40.7504         32.0004
   1610283.72747   1322403.95345  21285015.9774                   21285015.3164
        45.5004         35.7504
  -4047613.26248  -3069690.95747  20260535.0944                   20260533.6954
        48.7504         47.7504
   5150212.83247   4063961.60246  23415644.6644                   23415647.2504
        43.0004         37.5004
  -6484851.23846  -4959971.56644  23488014.4774                   23488019.3794
        40.0004         25.0004
  -7428564.79746  -5716226.44945  23870006.1644                   23870014.4964
        39.2504         30.2504
   -395842.23846   -213870.51644  24493936.4924                   24493940.5434
        36.5004         24.0004
 25  8  7 22 17  0.0000000  0 10G01G02G03G10G28G31G32G04G26G25
  -3487850.70747  -2635030.23445  21129589.3054                   21129588.9694
        46.5004         34.5004
   1791670.77347   1455277.05545  21796807.3284                   21796806.5664
        46.7504         35.2504
  -7488780.39547  -5719619.71546  21961154.5704                   21961156.9964
        45.0004         39.2504
   5450337.50046   4286680.43845  24039958.4144                   24039964.6804
        41.0004         31.7504
   1400575.13347   1158994.66446  21245109.9224                   21245109.2854
        47.5004         36.5004
  -4324744.78148  -3285637.56247  20207798.5634                   20207796.8484
        49.0004         47.7504
   4963911.64147   3918791.82046  23380193.0554                   23380196.1054
        44.5004         38.5004
  -6811523.40646  -5214521.14843  23425850.8204                   23425854.8714
        39.0004         22.2504
  -7773713.87946  -5985173.53145  23804325.8984                   23804334.4804
        39.7504         30.0004
   -631448.52046   -397459.76244  24449102.6484                   24449106.1604
        37.2504         26.0004
 25  8  7 22 17 30.0000000  0 10G01G02G03G10G28G31G32G04G26G25
  -3755664.48447  -2843716.29345  21078626.1334                   21078626.1844
        45.7504         34.5004
   1584435.09048   1293794.64845  21757371.9534                   21757370.5594
        48.0004         35.0004
  -7825153.22347  -5981728.33646  21897144.1254                   21897146.8754
        44.5004         40.0004
   5277829.59047   4152258.48845  24007130.9694                   24007137.7664
        42.0004         32.2504
   1191371.90647    995979.15646  21205299.6094                   21205298.7074
        47.5004         36.0004
  -4601240.71148  -3501088.90248  20155182.9064                   20155182.0944
        49.2504         48.2504
   4777649.61747   3773652.53546  23344748.3204                   23344751.2664
        44.7504         37.5004
  -7138041.94146  -5468950.98843  23363716.3594                   23363720.7814
        40.7504         22.5004
  -8118769.09446  -6254047.45745  23738663.7974                   23738672.3554
        40.2504         31.5004
   -866498.08645   -580615.13343  24404373.5474                   24404376.3054
        34.5004         22.5004
 25  8  7 22 18  0.0000000  0 10G01G02G03G10G28G31G32G04G26G25
  -4022877.37947  -3051934.13745  21027777.2584                   21027777.6804
        46.2504         34.0004
   1377642.62547   1132657.60245  21718020.6724                   21718019.3984
        45.2504         35.0004
  -8161373.02347  -6243717.69946  21833163.9064                   21833166.0904
        43.7504         39.5004
   5105558.16447   4018020.81345  23974349.1644                   23974355.8014
        42.5004         34.2504
    982673.07447    833356.69146  21165585.2504                   21165585.0394
        45.2504         36.5004
  -4877099.73048  -3716043.95348  20102688.9454                   20102687.6024
        49.7504         48.0004
   4591427.35947   3628544.23046  23309311.1724                   23309313.4384
        44.5004         36.7504
  -7464405.80146  -5723260.32443  23301611.1174                   23301615.7114
        40.7504         22.7504
  -8463726.27346  -6522844.99645  23673020.4924                   23673029.1914
        38.7504         30.7504
  -1100989.95345   -763336.12144  24359750.4384                   24359755.4734
        34.0004         26.7504
 25  8  7 22 18 30.0000000  0 10G01G02G03G10G28G31G32G04G26G25
  -4289491.64547  -3259685.51645  20977042.1884                   20977042.3014
        46.0004         33.7504
   1171288.65647    971862.23845  21678752.4844                   21678751.1804
        45.2504         35.0004
  -8497440.69947  -6505588.52046  21769212.2194                   21769214.7704
        44.2504         39.7504
   4933519.82847   3883964.76645  23941612.1644                   23941618.1884
        42.2504         33.5004
    774473.93847    671123.58646  21125966.6484                   21125966.0394
        45.2504         36.5004
  -5152324.15648  -3930504.51647  20050314.9614                   20050314.0274
        49.2504         47.7504
   4405241.73047   3483464.48046  23273881.3834                   23273885.5084
        43.5004         38.0004
  -7790617.68446  -5977451.26243  23239535.4064                   23239539.2894
        39.7504         22.7504
  -8808584.94146  -6791565.77345  23607396.6094                   23607404.1994
        39.5004         31.5004
  -1334927.32845   -945625.00844  24315234.3364                   24315238.9774
        35.2504         28.0004
 25  8  7 22 19  0.0000000  0 10G01G02G03G10G28G31G32G04G26G25
  -2980074.59847  -2239360.54745  21226215.3674                   21226216.2814
        45.2504         33.5004
   2540801.24247   2039014.85245  21939362.7664                   21939361.3014
        47.2504         34.2504
  -7257919.75847  -5539727.95346  22005084.8364                   22005087.9924
        44.0004         40.0004
   6337142.95747   4977696.87145  24208712.3914                   24208718.9104
        42.0004         33.2504
   2142202.69547   1736886.24646  21386236.8834                   21386236.3554
        46.7504         36.0004
  -3851481.27348  -2916860.68047  20297857.6484                   20297856.1214
        49.0004         47.7504
   5794521.86747   4566020.36346  23538253.3834                   23538254.0274
        43.5004         36.5004
  -6541243.38346  -5003912.65644  23477282.7814                   23477287.8554
        40.7504         24.5004
  -7577907.10546  -5832595.77045  23841586.1094                   23841594.2854
        39.7504         31.7504
      7120.89546    100126.84044  24570617.8284                   24570622.1214
        37.0004         28.0004
 25  8  7 22 19 30.0000000  0 10G01G02G03G10G28G31G32G04G26G25
  -3245486.00447  -2446174.62945  21175709.3984                   21175709.6564
        45.2504         34.0004
   2335323.11347   1878901.96145  21900261.6644                   21900259.8444
        47.0004         35.0004
  -7593673.05947  -5801353.81246  21941193.3594                   21941195.7854
        45.0004         40.2504
   6165573.23846   4844005.98045  24176064.1484                   24176070.6954
        41.7504         33.0004
   1935001.14547   1575430.49645  21346807.5474                   21346807.2304
        47.2504         35.5004
  -4125431.43048  -3130328.30548  20245726.4224                   20245725.1994
        48.7504         48.0004
   5608412.48447   4421000.05146  23502837.2734                   23502839.6844
        43.2504         37.5004
  -6867147.05146  -5257863.42643  23415264.9694                   23415269.4304
        40.2504         22.5004
  -7922554.83646  -6101152.18045  23776001.7814                   23776009.8134
        39.0004         30.5004
   -225703.36346    -81294.62944  24526313.6564                   24526317.1094
        36.7504         28.5004
 25  8  7 22 20  0.0000000  0 10G01G02G03G10G28G31G32G04G26G25
  -3510295.30947  -2652519.54345  21125318.1334                   21125318.4804
        45.7504         34.5004
   2130280.32848   1719128.29745  21861242.8444                   21861241.9884
        48.0004         35.0004
  -7929266.25847  -6062854.92646  21877331.9694                   21877335.0474
        44.5004         40.2504
   5994236.75046   4710496.82445  24143459.1724                   24143466.3404
        41.2504         33.5004
   1728295.41847   1414361.09046  21307472.4694                   21307472.3324
        47.5004         36.0004
  -4398743.92248  -3343299.04348  20193716.9614                   20193715.7344
        48.7504         48.0004
   5422340.63746   4276008.99246  23467427.3984                   23467432.4774
        41.7504         37.5004
  -7192896.60246  -5511694.05944  23353276.3134                   23353281.5784
        41.5004         24.2504
  -8267092.25446  -6369622.61745  23710438.7194                   23710446.3054
        39.2504         30.7504
   -457971.37945   -262282.68743  24482112.7274                   24482117.8404
        33.0004         23.2504
 25  8  7 22 20 30.0000000  0 10G01G02G03G10G28G31G32G04G26G25
  -3774503.32047  -2858395.92245  21075040.9924                   21075041.0984
        46.7504         35.2504
   1925669.82847   1559691.48445  21822306.9454                   21822305.3404
        47.7504         35.5004
  -8264698.68447  -6324230.75446  21813501.5314                   21813504.2074
        44.5004         40.5004
   5823131.81646   4577168.09845  24110899.9534                   24110906.1564
        41.0004         32.0004
   1522082.34047   1253675.57045  21268231.6564                   21268231.0514
        47.7504         35.5004
  -4671419.61748  -3555773.58647  20141828.3524                   20141826.9184
        49.7504         47.7504
   5236304.92247   4131046.00446  23432028.3364                   23432029.2234
        44.2504         37.0004
  -7518493.21946  -5765405.55144  23291318.0084                   23291322.1914
        40.7504         25.5004
  -8611517.33246  -6638005.54345  23644896.1484                   23644903.9344
        39.7504         30.2504
   -689684.49245   -442838.31243  24438019.4534                   24438023.2734
        32.2504         21.7504
 25  8  7 22 21  0.0000000  0 10G01G02G03G10G28G31G32G04G26G25
  -4038108.98447  -3063802.93445  21024878.7194                   21024878.6684
        46.2504         34.0004
   1721490.46147   1400590.62145  21783453.0314                   21783451.3634
        46.7504         35.0004
  -8599967.51647  -6585479.10546  21749702.2664                   21749704.5514
        44.7504         40.5004
   5652258.38746   4444019.77344  24078383.6724                   24078390.4024
        39.0004         29.5004
   1316360.57447   1093372.88345  21229084.3674                   21229083.7734
        47.5004         35.0004
  -4943457.75448  -3767751.32448  20090061.0634                   20090059.6804
        49.0004         48.0004
   5050305.47347   3986111.36346  23396633.1564                   23396635.7774
        44.0004         37.2504
  -7843936.11946  -6018997.24243  23229386.9384                   23229392.5314
        39.0004         23.0004
  -8955826.11746  -6906297.85545  23579375.7894                   23579383.9534
        40.0004         31.2504
   -920842.30945   -622961.30543  24394032.6024                   24394035.6374
        34.2504         22.7504
 25  8  7 22 21 30.0000000  0 10G01G02G03G10G28G31G32G04G26G25
  -4301112.71547  -3268740.90245  20974830.5084                   20974830.7774
        46.0004         34.2504
   1517739.53947   1241823.60245  21744680.7584                   21744679.2734
        47.2504         34.2504
  -8935071.68747  -6846599.15646  21685934.0784                   21685935.9574
        45.2504         39.7504
   5481615.01246   4311050.70345  24045911.5784                   24045918.5434
        39.0004         30.5004
   1111127.25847    933450.81345  21190029.6564                   21190029.1214
        46.5004         35.5004
  -5214858.81248  -3979232.63348  20038414.8594                   20038413.9654
        49.7504         48.0004
   4864341.30147   3841204.13746  23361245.1724                   23361249.7194
        44.5004         38.5004
  -8169226.14846  -6272469.81643  23167487.3674                   23167491.2814
        40.0004         22.7504
  -9300016.16446  -7174497.64845  23513877.9144                   23513886.1454
        39.0004         31.5004
  -1151445.91446   -802652.41044  24350150.3914                   24350153.8204
        36.2504         28.2504
 25  8  7 22 22  0.0000000  0 10G01G02G03G10G28G31G32G04G26G25
  -2988087.70747  -2245604.53945  21224690.9694                   21224691.1684
        45.5004         34.5004
   2889839.64547   2310992.46145  22005782.5314                   22005781.3134
        47.0004         34.7504
  -7694580.23447  -5879982.35946  21921991.1644                   21921993.7734
        45.2504         40.7504
   6886624.49646   5405863.07445  24313275.6024                   24313283.1414
        38.5004         30.2504
   2481805.00847   2001511.38345  21450860.9924                   21450860.5004
        47.5004         35.5004
  -3910195.50448  -2962611.84047  20286684.4924                   20286682.9964
        50.0004         47.7504
   6253835.92647   4923927.18046  23625657.2584                   23625658.6254
        43.5004         36.0004
  -6918934.64546  -5298216.51643  23405409.5474                   23405413.8094
        39.5004         22.7504
  -8068654.96146  -6214995.16845  23748199.2424                   23748206.7704
        39.0004         32.0004
    193929.81646    245692.36344  24606165.9064                   24606170.7734
        36.0004         28.5004
 25  8  7 22 22 30.0000000  0 10G01G02G03G10G28G31G32G04G26G25
  -3249892.43047  -2449608.22745  21174871.3914                   21174871.6604
        45.7504         34.7504
   2686934.21147   2152884.27345  21967171.0864                   21967169.2734
        46.0004         35.2504
  -8029354.79747  -6140845.57046  21858285.7504                   21858288.7274
        46.2504         40.5004
   6716433.47746   5273246.48844  24280889.6254                   24280896.9884
        37.0004         29.5004
   2277536.79747   1842341.34445  21411990.1564                   21411989.6954
        46.7504         35.5004
  -4180327.37548  -3173104.16847  20235280.1094                   20235278.6024
        50.0004         47.7504
   6067935.40647   4779069.57446  23590281.7584                   23590284.6724
        43.0004         36.7504
  -7243924.53146  -5551455.21144  23343566.1954                   23343570.5784
        39.7504         24.7504
  -8412603.49646  -6483006.78945  23682747.2894                   23682755.0944
        39.0004         32.7504
    -35571.98445     66859.75844  24562493.4144                   24562497.8324
        34.7504         28.0004
 25  8  7 22 23  0.0000000  0 10G01G02G03G10G28G31G32G04G26G25
  -3511094.29747  -2653142.15645  21125166.1094                   21125166.6764
        46.7504         34.0004
   2484451.62947   1995105.57845  21928639.9064                   21928638.7464
        46.0004         34.7504
  -8363958.59047  -6401575.71146  21794612.7274                   21794615.2504
        46.2504         40.7504
   6546470.56646   5140807.64845  24248547.1254                   24248554.0204
        38.0004         30.0004
   2073750.96547   1683547.18046  21373210.9694                   21373210.0084
        45.5004         36.0004
  -4449821.57048  -3383099.61347  20183996.8204                   20183995.6684
        49.5004         47.7504
   5882069.09047   4634238.64546  23554912.0164                   23554916.6094
        43.5004         38.0004
  -7568761.43446  -5804574.69144  23281751.5234                   23281755.6994
        39.7504         24.5004
  -8756423.40646  -6750918.17645  23617320.1644                   23617327.9774
        38.5004         31.7504
   -264520.50045   -111541.66844  24518925.4384                   24518929.6334
        34.7504         24.2504
 25  8  7 22 23 30.0000000  0 10G01G02G03G10G28G31G32G04G26G25
  -3771692.47347  -2856205.68045  21075575.8364                   21075575.9414
        45.5004         34.7504
   2282390.48447   1837655.28145  21890189.1954                   21890187.8134
        47.0004         35.5004
  -8698389.10547  -6662170.84846  21730972.3284                   21730975.1724
        46.0004         40.7504
   6376735.58646   5008546.40244  24216247.8594                   24216254.9774
        38.0004         29.0004
   1870445.99647   1525127.71545  21334523.4774                   21334522.7114
        47.5004         34.7504
  -4718677.47348  -3592597.68447  20132835.1094                   20132834.0084
        50.0004         47.7504
   5696237.41047   4489434.70746  23519549.9694                   23519551.7704
        44.2504         37.0004
  -7893444.75446  -6057574.50844  23219965.5554                   23219969.9614
        40.2504         24.0004
  -9100110.90246  -7018726.39145  23551919.0314                   23551926.4414
        38.7504         33.0004
   -492915.43445   -289511.79744  24475463.1024                   24475467.4884
        34.5004         24.5004
 25  8  7 22 24  0.0000000  0 10G01G02G03G10G28G31G32G04G26G25
  -4031688.72747  -3058800.17245  21026100.1414                   21026100.6094
        46.7504         34.5004
   2080746.86347   1680530.32045  21851817.9304                   21851816.6844
        45.5004         34.7504
  -9032646.27047  -6922630.89146  21667365.6644                   21667367.9304
        46.5004         40.7504
   6207225.93046   4876460.73445  24183991.3444                   24183998.5044
        38.5004         30.7504
   1667617.85247   1367079.80545  21295926.1884                   21295925.4884
        45.5004         35.2504
  -4986897.00048  -3801599.87947  20081794.5864                   20081793.2234
        50.0004         47.7504
   5510437.92247   4344655.86346  23484194.1884                   23484196.8204
        45.0004         38.5004
  -8217976.50046  -6310456.20344  23158209.5084                   23158213.3054
        39.7504         24.2504
  -9443664.61746  -7286430.36345  23486542.3054                   23486550.0274
        38.5004         32.5004
   -720759.19545   -467052.36743  24432105.9844                   24432110.2384
        34.2504         22.7504
 25  8  7 22 24 30.0000000  0 10G01G02G03G10G28G31G32G04G26G25
  -4291084.34847  -3260926.64145  20976738.8524                   20976739.3364
        46.2504         34.7504
   1879517.55147   1523728.19545  21813525.0234                   21813523.5944
        46.0004         34.7504
  -9366729.53547  -7182955.43446  21603791.6094                   21603793.6294
        46.5004         41.2504
   6037939.29346   4744548.84844  24151778.0554                   24151784.5984
        39.5004         29.5004
   1465262.93447   1209400.64545  21257419.3834                   21257419.1254
        46.2504         35.7504
  -5254481.54348  -4010107.27747  20030875.0554                   20030873.7344
        49.5004         47.7504
   5324668.86347   4199900.70746  23448843.3134                   23448845.8914
        43.7504         37.0004
  -8542358.10246  -6563220.89844  23096481.3984                   23096486.2664
        40.0004         24.0004
  -9787082.84046  -7554028.75445  23421191.4534                   23421199.4344
        38.5004         32.2504
   -948053.64145   -644164.94144  24388853.9844                   24388858.1644
        35.5004         25.7504
 25  8  7 22 25  0.0000000  0 10G01G02G03G10G28G31G32G04G26G25
  -2974448.65247  -2234976.75845  21227286.6334                   21227286.5474
        47.0004         34.2504
   3254129.10547   2594854.02745  22075104.7504                   22075103.4494
        46.0004         34.7504
  -8125203.93447  -6215532.81646  21840045.3674                   21840048.5664
        46.0004         41.0004
   7444302.42646   5840416.01644  24419399.6254                   24419407.1454
        38.7504         29.7504
   2838807.64147   2279695.21945  21518796.3914                   21518795.7304
        47.0004         35.7504
  -3946000.25048  -2990511.44148  20279870.6724                   20279869.4924
        48.7504         48.2504
   6714358.00047   5282775.33246  23713291.6954                   23713293.4734
        43.2504         36.0004
  -7291156.94946  -5588258.82043  23334577.1724                   23334581.1484
        40.5004         23.5004
  -8554928.96546  -6593908.63345  23655662.4304                   23655669.8954
        38.2504         32.2504
    400630.20745    406757.55544  24645500.2664                   24645503.8874
        35.0004         25.0004
 25  8  7 22 25 30.0000000  0 10G01G02G03G10G28G31G32G04G26G25
  -3232641.47347  -2436165.96945  21178154.1094                   21178154.5354
        45.5004         34.0004
   3053723.57847   2438693.81645  22036968.6174                   22036968.1024
        46.0004         34.2504
  -8458932.29747  -6475580.80546  21776539.3054                   21776541.8754
        45.5004         41.0004
   7275460.71146   5708850.82045  24387269.9454                   24387277.5474
        39.0004         30.0004
   2637393.79347   2122749.35545  21480468.5634                   21480467.9264
        47.0004         34.7504
  -4212313.84848  -3198028.50047  20229192.9844                   20229191.4804
        49.2504         47.7504
   6528649.98447   5138067.73446  23677952.2974                   23677957.5744
        42.0004         37.0004
  -7615237.31246  -5840788.76644  23272906.7424                   23272911.5164
        41.0004         25.5004
  -8898065.25446  -6861287.33245  23590366.4384                   23590373.5594
        38.7504         32.2504
    174434.10945    230500.87944  24602455.7504                   24602459.8324
        35.2504         24.5004
 25  8  7 22 26  0.0000000  0 10G01G02G03G10G28G31G32G04G26G25
  -3490233.29747  -2636886.88345  21129135.9064                   21129136.1214
        46.0004         35.2504
   2853726.22347   2282851.65645  21998911.1414                   21998909.7274
        45.7504         34.7504
  -8792480.72347  -6735488.60546  21713067.3914                   21713069.6454
        46.0004         41.0004
   7106839.78146   5577457.66844  24355182.3594                   24355190.2894
        37.5004         28.7504
   2436446.71547   1966167.20745  21442229.7194                   21442229.1134
        46.2504         34.2504
  -4477992.41448  -3405050.73047  20178635.9064                   20178634.6414
        49.2504         47.7504
   6342971.51247   4993383.15246  23642619.7894                   23642623.3164
        42.5004         37.0004
  -7939167.61746  -6093201.88344  23211264.0634                   23211267.9774
        40.5004         24.5004
  -9241056.18446  -7128552.76645  23525096.5864                   23525103.9344
        38.2504         32.0004
    -51214.19545     54671.03143  24559516.6094                   24559520.4774
        33.7504         22.5004
 25  8  7 22 26 30.0000000  0 10G01G02G03G10G28G31G32G04G26G25
  -3747223.21547  -2837138.77045  21080232.2274                   21080232.5554
        45.7504         34.2504
   2654135.77747   2127326.57445  21960930.0164                   21960928.9964
        46.2504         33.7504
  -9125846.35547  -6995253.96146  21649629.8134                   21649632.6134
        45.5004         40.7504
   6938439.73446   5446236.62944  24323137.4304                   24323144.8444
        38.0004         27.0004
   2235965.07447   1809947.73045  21404079.3914                   21404078.7074
        46.5004         35.5004
  -4743035.07048  -3611577.44948  20128199.9844                   20128198.7734
        48.7504         48.0004
   6157322.96147   4848721.96146  23607291.4844                   23607295.3284
        42.2504         36.0004
  -8262947.08647  -6345497.37944  23149651.4304                   23149655.5824
        42.2504         24.5004
  -9583897.73846  -7395701.81645  23459855.8754                   23459863.2544
        38.5004         32.2504
   -276314.26645   -120731.59443  24516681.5314                   24516685.5044
        34.7504         22.7504
 25  8  7 22 27  0.0000000  0 10G01G02G03G10G28G31G32G04G26G25
  -4003612.39547  -3036922.55945  21031443.3364                   21031443.3754
        47.0004         34.7504
   2454949.21947   1972116.20745  21923025.9614                   21923024.9414
        45.7504         34.7504
  -9459028.38347  -7254876.25446  21586227.3984                   21586229.9924
        46.7504         41.2504
   6770258.50046   5315186.09444  24291133.4304                   24291141.3914
        37.2504         27.5004
   2035945.49247   1654088.30945  21366016.7504                   21366016.3444
        46.7504         34.7504
  -5007443.37548  -3817609.87147  20077884.5704                   20077883.3524
        49.0004         47.7504
   5971703.05147   4704082.98846  23571969.5784                   23571973.6884
        42.2504         37.7504
  -8586577.00446  -6597676.38743  23088066.7584                   23088070.0824
        41.5004         22.7504
  -9926587.76646  -7662732.78945  23394644.4534                   23394651.5474
        39.2504         32.5004
   -500867.91845   -295708.53144  24473951.1954                   24473955.0824
        34.7504         26.5004
 25  8  7 22 27 30.0000000  0 10G01G02G03G10G28G31G32G04G26G25
  -4259400.27747  -3236237.79745  20982768.2194                   20982768.5514
        45.7504         34.5004
   2256164.96947   1817219.31345  21885198.9144                   21885197.4414
        46.0004         34.5004
  -9792024.15247  -7514353.41046  21522860.1414                   21522862.9104
        46.2504         41.7504
   6602295.92646   5184305.93444  24259172.0634                   24259179.5394
        37.2504         27.7504
   1836386.30147   1498587.63745  21328042.2734                   21328041.3754
        46.2504         34.7504
  -5271216.83248  -4023147.60547  20027690.2814                   20027689.3324
        49.5004         47.7504
   5786111.87547   4559466.44545  23536652.4384                   23536654.1994
        43.2504         34.0004
  -8910056.70746  -6849738.34844  23026509.7504                   23026514.5664
        41.5004         24.0004
 -10269122.50046  -7929642.75845  23329461.6414                   23329468.5634
        38.5004         32.5004
   -724875.33645   -470259.78544  24431323.4454                   24431327.7664
        35.0004         26.0004
 25  8  7 22 28  0.0000000  0 10G01G02G03G10G28G31G32G04G26G25
  -2939159.82447  -2207479.01245  21234001.9454                   21234002.2894
        46.0004         34.7504
   3633206.16047   2890238.36345  22147241.2974                   22147239.6914
        45.7504         35.5004
  -8549402.00047  -6546076.34447  21759323.3134                   21759325.5744
        46.5004         42.0004
   8009975.26646   6281198.68844  24527044.5864                   24527051.9844
        37.5004         26.2504
   3212710.49647   2571048.04345  21589947.7114                   21589947.0164
        46.2504         35.5004
  -3958928.40248  -3000585.17247  20277410.2034                   20277409.0084
        48.2504         47.7504
   7175974.00847   5642475.85546  23801135.1094                   23801138.0274
        44.5004         36.5004
  -7657957.08647  -5874076.16044  23264777.4534                   23264780.4494
        42.5004         25.7504
  -9036068.73046  -6968821.41045  23564104.4384                   23564111.4224
        39.0004         33.0004
    627089.09445    583218.98444  24688593.3284                   24688598.0164
        33.5004         24.5004
 25  8  7 22 28 30.0000000  0 10G01G02G03G10G28G31G32G04G26G25
  -3193745.45747  -2405857.43045  21185555.6724                   21185555.9454
        45.5004         34.2504
   3435220.28147   2735963.58645  22109565.7664                   22109564.4344
        45.7504         34.0004
  -8882019.39847  -6805258.66846  21696028.1954                   21696030.6374
        46.0004         41.7504
   7842447.18446   6150657.11344  24495165.5234                   24495172.6884
        38.2504         26.2504
   3014065.24647   2416259.53545  21552146.6334                   21552146.3594
        46.5004         34.5004
  -4221433.08648  -3205134.25447  20227457.5864                   20227456.1374
        48.5004         47.7504
   6990439.30147   5497903.30946  23765828.9694                   23765831.5824
        44.0004         36.2504
  -7981137.00046  -6125904.48843  23203276.8594                   23203281.2734
        41.5004         22.7504
  -9378283.29746  -7235481.90245  23498982.3364                   23498989.3874
        39.0004         33.0004
    404172.44545    409517.63743  24646173.2814                   24646178.6374
        31.0004         22.7504
 25  8  7 22 29  0.0000000  0 10G01G02G03G10G28G31G32G04G26G25
  -3447729.27047  -2603766.91045  21137224.3984                   21137224.7344
        46.5004         34.2504
   3237630.80947   2581997.69545  22071965.8984                   22071964.4414
        46.0004         34.0004
  -9214443.79347  -7064290.59847  21632769.8984                   21632772.8794
        47.0004         42.0004
   7675135.85146   6020284.42144  24463327.0314                   24463334.7464
        38.5004         26.5004
   2815874.34047   2261825.05945  21514432.2344                   21514431.4144
        46.0004         34.5004
  -4483303.11748  -3409188.80547  20177625.2584                   20177623.9924
        49.2504         47.7504
   6804933.21547   5353353.07845  23730527.5944                   23730530.0084
        43.2504         35.7504
  -8304166.31246  -6377615.53944  23141806.8284                   23141810.5704
        40.7504         24.2504
  -9720332.16846  -7502013.26645  23433892.1484                   23433899.7544
        39.5004         32.0004
    181800.83645    236241.00444  24603858.0554                   24603862.0044
        34.7504         25.5004
 25  8  7 22 29 30.0000000  0 10G01G02G03G10G28G31G32G04G26G25
  -3701114.93447  -2801210.28945  21089007.0704                   21089006.8714
        47.5004         35.2504
   3040432.49247   2428336.59845  22034440.2274                   22034439.3444
        46.0004         34.0004
  -9546676.65247  -7323173.27746  21569548.0164                   21569550.8594
        46.7504         41.5004
   7508037.02746   5890077.32044  24431530.5704                   24431536.9694
        38.7504         27.0004
   2618132.04747   2107740.14545  21476803.1414                   21476802.6724
        46.5004         34.5004
  -4744542.04748  -3612751.58647  20127913.0554                   20127911.8914
        48.7504         47.7504
   6619451.87947   5208822.13746  23695232.1954                   23695235.5944
        44.5004         37.2504
  -8627048.62947  -6629211.98444  23080364.4694                   23080368.1254
        42.5004         25.0004
 -10062215.53146  -7768415.67245  23368833.9844                   23368841.2504
        39.7504         32.5004
    -40029.95346     63385.82044  24561645.6094                   24561649.1564
        37.0004         26.7504
 25  8  7 22 30  0.0000000  0 10G01G02G03G10G28G31G32G04G26G25
  -3953901.95348  -2998187.19545  21040902.6334                   21040902.7894
        48.0004         34.7504
   2843623.75047   2274979.07045  21996988.8834                   21996987.3984
        46.0004         34.0004
  -9878715.29347  -7581904.63746  21506363.1564                   21506365.4304
        46.0004         41.7504
   7341150.35246   5760035.52044  24399771.9844                   24399779.6884
        38.0004         27.5004
   2420836.66047   1954003.47345  21439259.3834                   21439258.6024
        46.5004         35.0004
  -5005149.44148  -3815822.26247  20078321.2424                   20078319.6174
        49.2504         47.7504
   6433995.69547   5064310.67245  23659942.1484                   23659942.9804
        42.0004         34.5004
  -8949783.37146  -6880693.46944  23018949.9224                   23018953.6604
        41.0004         26.0004
 -10403929.55546  -8034686.12945  23303808.1254                   23303815.0824
        39.5004         33.2504
   -261320.05946   -109047.99643  24519535.7194                   24519538.7544
        36.0004         22.7504
 25  8  7 22 30 30.0000000  0 10G01G02G03G10G28G31G32G04G26G25
  -4206089.98848  -3194697.37145  20992912.9844                   20992913.3754
        48.0004         34.5004
   2647202.83647   2121923.73845  21959611.3444                   21959610.3134
        46.0004         34.2504
 -10210557.16847  -7840482.65647  21443215.9224                   21443218.0274
        47.0004         42.2504
   7174475.45146   5630158.72144  24368055.3914                   24368062.8554
        38.0004         26.7504
   2223986.48847   1800613.72345  21401800.0864                   21401799.3014
        47.0004         35.0004
  -5265125.35548  -4018400.87948  20028849.1804                   20028847.9804
        48.0004         48.0004
   6248564.79347   4919819.08245  23624654.6884                   23624657.8484
        43.5004         34.7504
  -9272370.06646  -7132059.57844  22957562.8834                   22957567.3404
        41.2504         24.7504
 -10745470.47746  -8300821.70345  23238814.9534                   23238821.5124
        40.0004         33.0004
   -482069.48845   -281060.50443  24477528.0474                   24477531.3054
        32.7504         21.2504
 25  8  7 22 31  0.0000000  0 10G01G02G03G10G28G31G32G04G26G25
  -4457678.46548  -3390740.34845  20945037.3444                   20945037.6684
        48.0004         34.5004
   2451168.45347   1969169.60245  21922307.4384                   21922305.8244
        46.7504         34.0004
 -10542199.37947  -8098905.11347  21380106.6804                   21380108.6174
        46.7504         42.2504
   7008012.23446   5500446.89144  24336378.0314                   24336386.1294
        37.2504         26.7504
   2027579.94547   1647569.66445  21364425.0474                   21364424.4344
        46.2504         35.2504
  -5524469.27348  -4220487.03547  19979497.7974                   19979496.2074
        48.5004         47.7504
   6063159.83247   4775347.55946  23589375.2734                   23589377.3634
        43.5004         36.0004
  -9594808.11746  -7383309.87944  22896205.8284                   22896209.2704
        41.5004         26.2504
 -11086834.22346  -8566819.21145  23173855.3594                   23173861.7424
        39.5004         32.5004
   -702278.37945   -452651.92243  24435623.0944                   24435627.4924
        32.0004         21.0004
 25  8  7 22 31 30.0000000  0 10G01G02G03G10G28G31G32G04G26G25
  -3133239.74247  -2358710.18045  21197069.6564                   21197070.2194
        47.0004         34.5004
   3830944.39147   3044319.60545  22184869.8754                   22184868.5904
        46.2504         34.0004
  -9298209.37547  -7129562.18447  21616829.8834                   21616832.1414
        47.2504         42.0004
   8417184.84046   6598503.19944  24604534.9844                   24604543.1024
        37.0004         27.7504
   3407040.79747   2722474.21945  21626927.3594                   21626926.8634
        46.7504         34.5004
  -4207753.27047  -3194474.53947  20230060.6644                   20230059.2894
        47.2504         47.7504
   7453206.07047   5858500.46945  23853889.9694                   23853894.1844
        42.5004         35.2504
  -8341667.32047  -6406836.37544  23134670.6254                   23134673.3134
        42.2504         25.7504
  -9852586.69146  -7605067.66845  23408723.9774                   23408731.2934
        39.5004         33.0004
    653479.33246    603782.57444  24693616.1334                   24693620.0514
        36.0004         27.7504
 25  8  7 22 32  0.0000000  0 10G01G02G03G10G28G31G32G04G26G25
  -3383630.85947  -2553820.15245  21149421.7974                   21149422.4304
        47.0004         34.5004
   3635675.43447   2892161.90645  22147711.2734                   22147710.4614
        45.7504         34.0004
  -9629447.21947  -7387669.53547  21553797.2424                   21553799.5474
        46.5004         42.0004
   8251141.26646   6469118.32444  24572938.4384                   24572946.8834
        37.0004         27.7504
   3211513.59447   2570115.34445  21589720.1024                   21589719.3204
        46.0004         35.5004
  -4465835.43447  -3395577.50847  20180949.1644                   20180947.5864
        47.7504         47.7504
   7267850.94547   5714067.84445  23818618.9064                   23818621.4884
        42.5004         34.5004
  -8663809.32046  -6657855.98844  23073368.4304                   23073372.1054
        41.5004         26.2504
 -10193587.43446  -7870782.31245  23343834.0704                   23343840.9024
        39.7504         33.0004
    434347.94146    433030.80944  24651915.7734                   24651920.8204
        36.7504         28.5004
 25  8  7 22 32 30.0000000  0 10G01G02G03G10G28G31G32G04G26G25
  -3633424.61348  -2748464.64845  21101887.7814                   21101887.9494
        48.0004         35.0004
   3440784.99647   2740299.14145  22110624.6094                   22110624.2344
        46.2504         33.5004
  -9960480.55148  -7645617.53147  21490803.7664                   21490805.9924
        48.2504         43.0004
   8085305.27345   6339895.21544  24541380.8674                   24541389.0394
        35.5004         27.0004
   3016421.70347   2418095.69945  21552595.2584                   21552594.8054
        46.2504         34.7504
  -4723288.03547  -3596189.90648  20131957.4534                   20131955.8674
        47.2504         48.0004
   7082519.47347   5569653.64545  23783351.0474                   23783353.9104
        43.2504         35.2504
  -8985804.31247  -6908761.05144  23012095.1724                   23012097.9734
        42.2504         25.5004
 -10534402.64846  -8136352.37145  23278979.1724                   23278985.6024
        39.7504         32.5004
    215753.19546    262697.22344  24610319.4144                   24610323.5434
        36.7504         27.7504
 25  8  7 22 33  0.0000000  0 10G01G02G03G10G28G31G32G04G26G25
  -3882619.96147  -2942642.85545  21054467.5234                   21054467.2814
        47.5004         34.2504
   3246272.07447   2588730.54745  22073610.7424                   22073609.7504
        46.2504         34.2504
 -10291306.07047  -7903403.58247  21427849.4694                   21427851.9224
        47.2504         42.7504
   7919677.16045   6210834.09044  24509863.2734                   24509871.0204
        35.0004         26.0004
   2821764.08247   2266414.42245  21515552.9454                   21515552.4534
        46.2504         34.2504
  -4980110.59047  -3796311.35247  20083085.8134                   20083084.3204
        47.5004         47.7504
   6897212.72346   5425258.71945  23748088.5164                   23748091.3164
        40.7504         34.0004
  -9307651.05947  -7159550.58644  22950849.3524                   22950852.9144
        42.2504         25.0004
 -10875027.73046  -8401774.28145  23214160.3444                   23214166.4774
        39.7504         33.0004
     -2304.39846     92782.21544  24568823.7274                   24568827.8954
        36.0004         25.0004
 25  8  7 22 33 30.0000000  0 10G01G02G03G10G28G31G32G04G26G25
  -4131218.14547  -3136355.73445  21007160.5634                   21007161.0084
        47.5004         34.7504
   3052133.58647   2437453.72345  22036667.7504                   22036666.1414
        45.5004         34.0004
 -10621922.57847  -8161026.75847  21364935.1724                   21364937.4774
        47.5004         42.7504
   7754255.17645   6081933.57044  24478385.1724                   24478392.6294
        35.5004         26.0004
   2627537.50047   2115069.02745  21478592.8754                   21478592.6604
        45.0004         34.0004
  -5236304.30548  -3995942.79348  20034333.6484                   20034332.4064
        48.7504         48.0004
   6711929.55146   5280882.16445  23712830.1804                   23712834.0004
        41.2504         35.5004
  -9629350.62547  -7410225.43744  22889632.3674                   22889635.2114
        43.2504         26.7504
 -11215460.41046  -8667046.25045  23149377.6954                   23149384.0234
        40.0004         33.2504
   -219826.74645    -76715.72743  24527431.5634                   24527435.5664
        34.0004         22.0004
 25  8  7 22 34  0.0000000  0 10G01G02G03G10G28G31G32G04G26G25
  -4379218.10947  -3329602.47345  20959967.7894                   20959968.0784
        47.7504         35.2504
   2858368.86347   2286468.15245  21999795.2424                   21999794.2894
        46.0004         34.0004
 -10952326.48847  -8418484.28147  21302061.4924                   21302063.7974
        47.5004         43.0004
   7589039.88346   5953194.11744  24446945.1334                   24446953.8054
        37.5004         27.7504
   2433741.07847   1964058.82045  21441714.3674                   21441714.5864
        45.7504         34.7504
  -5491868.28548  -4195083.53548  19985701.4774                   19985699.7934
        48.7504         48.0004
   6526671.15246   5136524.92245  23677576.9304                   23677580.8444
        40.0004         34.0004
  -9950901.59047  -7660784.48444  22828442.8054                   22828446.1334
        42.7504         25.5004
 -11555695.91846  -8932164.59045  23084633.4534                   23084639.2584
        39.5004         33.5004
   -436813.27345   -245796.14143  24486140.2194                   24486143.4924
        35.0004         22.5004
 25  8  7 22 34 30.0000000  0 10G01G02G03G10G28G31G32G04G26G25
  -3051195.38347  -2294779.57845  21212682.3984                   21212682.7234
        47.0004         34.5004
   4240398.37147   3363374.18045  22262786.4774                   22262785.8364
        46.0004         33.2504
  -9707088.12548  -7448168.59847  21539022.7664                   21539024.6024
        48.0004         42.5004
   8999452.33246   7052216.54744  24715338.4224                   24715346.2154
        37.0004         27.7504
   3815795.49647   3040984.33645  21704710.9224                   21704710.3794
        46.0004         34.7504
  -4171378.10247  -3166130.12548  20236982.3754                   20236981.0634
        47.7504         48.0004
   7916860.14846   6219789.04345  23942122.0084                   23942124.0354
        41.2504         34.7504
  -8696876.75447  -6683622.14844  23067075.5164                   23067078.6644
        42.5004         26.5004
 -10320303.10246  -7969520.59445  23319720.7194                   23319727.0594
        39.0004         34.2504
    922158.89146    813143.27044  24744742.9694                   24744747.6804
        36.0004         25.5004
 25  8  7 22 35  0.0000000  0 10G01G02G03G10G28G31G32G04G26G25
  -3298007.89547  -2487101.02345  21165715.1804                   21165715.8874
        47.5004         34.7504
   4047366.17247   3212959.40245  22226054.2424                   22226053.0234
        45.5004         33.0004
 -10037068.46147  -7705296.07047  21476229.4694                   21476231.5904
        47.7504         43.0004
   8834639.59846   6923790.78544  24683975.4694                   24683984.7194
        37.2504         28.0004
   3622844.41047   2890632.82845  21667993.8834                   21667993.3014
        46.2504         34.5004
  -4425692.16047  -3364296.90247  20188588.1254                   20188586.6174
        47.7504         47.7504
   7731642.78946   6075463.78945  23906875.1644                   23906879.2584
        40.5004         34.5004
  -9018138.70347  -6933956.03144  23005941.2274                   23005944.1604
        42.0004         25.0004
 -10660142.43046  -8234330.21545  23255050.3914                   23255057.3134
        40.0004         34.2504
    706233.28146    644889.49643  24703654.3134                   24703658.7424
        36.0004         23.7504
 25  8  7 22 35 30.0000000  0 10G01G02G03G10G28G31G32G04G26G25
  -3544226.34847  -2678959.56245  21118861.5474                   21118861.5434
        47.2504         34.7504
   3854698.00047   3062828.27745  22189390.5004                   22189389.8874
        46.0004         33.7504
 -10366832.79747  -7962255.21947  21413477.3284                   21413479.2274
        47.7504         43.5004
   8670027.49646   6795521.35544  24652651.1334                   24652659.6994
        37.0004         26.7504
   3430313.44547   2740608.69545  21631356.2114                   21631355.8134
        45.5004         34.2504
  -4679381.02747  -3561976.51248  20140312.5394                   20140311.4024
        47.5004         48.0004
   7546446.62146   5931155.04745  23871633.3754                   23871636.0124
        41.0004         33.5004
  -9339255.32847  -7184176.64844  22944835.0004                   22944838.0704
        42.7504         25.5004
 -10999777.74246  -8498980.86745  23190419.8674                   23190426.2664
        39.7504         34.0004
    490837.55945    477048.70343  24662665.3444                   24662670.3554
        35.7504         22.7504
 25  8  7 22 36  0.0000000  0 10G01G02G03G10G28G31G32G04G26G25
  -3789850.00047  -2870354.62945  21072121.1644                   21072121.3284
        47.7504         35.0004
   3662392.60247   2912979.82445  22152795.8204                   22152795.2114
        46.0004         33.5004
 -10696377.87147  -8219043.52347  21350766.7034                   21350768.9024
        47.7504         42.7504
   8505616.52346   6667408.65644  24621365.2814                   24621373.2584
        38.0004         27.7504
   3238201.42647   2590911.00445  21594798.3054                   21594798.0164
        45.5004         33.7504
  -4932444.28548  -3759168.64547  20092156.1644                   20092154.8874
        48.5004         47.7504
   7361272.59446   5786863.53145  23836396.8984                   23836398.6174
        41.5004         33.5004
  -9660225.53147  -7434283.16844  22883756.0234                   22883758.9184
        42.2504         26.7504
 -11339204.66046  -8763469.13345  23125828.8134                   23125835.2424
        40.2504         34.7504
    275972.13745    309621.09043  24621777.8984                   24621782.6214
        35.2504         23.7504
 25  8  7 22 36 30.0000000  0 10G01G02G03G10G28G31G32G04G26G25
  -4034880.78948  -3061287.71945  21025493.0084                   21025493.4184
        48.0004         33.7504
   3470446.10247   2763411.03545  22116270.0864                   22116269.2584
        45.7504         33.5004
 -11025702.94147  -8475660.39547  21288097.9614                   21288100.3914
        47.5004         43.0004
   8341404.12146   6539450.69144  24590116.7814                   24590125.0314
        37.5004         27.0004
   3046504.53147   2441536.78945  21558319.6174                   21558319.3874
        45.5004         34.0004
  -5184884.08248  -3955874.95747  20044118.4694                   20044116.8134
        48.2504         47.7504
   7176119.06647   5642587.99646  23801163.6644                   23801167.9844
        43.0004         36.5004
  -9981050.81647  -7684276.76644  22822704.7034                   22822707.8874
        42.5004         27.5004
 -11678421.24646  -9027793.51245  23061278.5474                   23061284.3164
        40.2504         34.2504
     61634.34445    142604.60244  24580991.8834                   24580995.4844
        35.0004         25.7504
 25  8  7 22 37  0.0000000  0 10G01G02G03G10G28G31G32G04G26G25
  -4279318.67647  -3251758.80945  20978978.3594                   20978978.2894
        47.5004         34.7504
   3278857.07447   2614120.80145  22079811.6804                   22079810.8754
        46.5004         33.0004
 -11354805.41847  -8732103.82447  21225471.6724                   21225474.5234
        47.0004         43.2504
   8177389.81646   6411647.08244  24558906.2814                   24558914.3014
        37.2504         24.7504
   2855220.84847   2292484.56645  21521919.6484                   21521919.0664
        46.0004         33.7504
  -5436700.52748  -4152095.54748  19996199.4224                   19996197.7344
        49.0004         48.0004
   6990986.39546   5498328.74245  23765933.6414                   23765936.9924
        41.5004         34.0004
 -10301730.81247  -7934157.16444  22761681.5004                   22761684.4104
        43.0004         26.5004
 -12017423.85246  -9291951.15245  22996768.3054                   22996774.2194
        39.7504         34.0004
   -152176.20746    -24001.03544  24540304.9534                   24540308.9264
        36.5004         25.0004
 25  8  7 22 37 30.0000000  0 10G01G02G03G10G28G31G32G04G26G25
  -2947735.80147  -2214161.78145  21232369.8134                   21232370.2114
        47.5004         34.7504
   4663049.69147   3692712.35545  22343215.3674                   22343214.2234
        46.5004         32.7504
 -10108251.82047  -7760763.28947  21462683.7114                   21462685.5394
        47.7504         43.5004
   9588998.45746   7511601.61744  24827526.3444                   24827535.1134
        38.0004         25.7504
   4239774.71147   3371357.69945  21785390.9924                   21785390.9384
        45.7504         34.0004
  -4112465.65248  -3120224.19147  20248193.0394                   20248191.4534
        50.0004         47.7504
   8381300.87947   6581690.58645  24030502.5944                   24030503.4104
        42.5004         33.2504
  -9046834.59847  -6956315.83244  23000480.4304                   23000483.3444
        43.0004         27.5004
 -10780777.45746  -8328330.35245  23232093.4924                   23232099.6334
        39.7504         33.5004
   1209966.65245   1037408.96543  24799511.7814                   24799516.4454
        34.7504         22.5004
 25  8  7 22 38  0.0000000  0 10G01G02G03G10G28G31G32G04G26G25
  -3190989.82047  -2403710.37545  21186080.0784                   21186080.4104
        47.5004         34.0004
   4472167.93047   3543973.22745  22306891.6564                   22306890.3874
        45.7504         33.5004
 -10436902.82847  -8016854.93047  21400142.9064                   21400144.7704
        47.5004         43.2504
   9425377.24246   7384104.33244  24796390.4774                   24796398.9144
        37.5004         24.2504
   4049310.09047   3222943.69145  21749147.7974                   21749146.6844
        46.2504         34.5004
  -4363037.82448  -3315475.21147  20200510.8134                   20200509.2464
        49.0004         47.7504
   8196209.04746   6437463.07845  23995279.7424                   23995283.8484
        40.5004         33.7504
  -9367224.51247  -7205970.18044  22939511.8834                   22939514.8714
        42.7504         26.2504
 -11119342.37546  -8592146.94945  23167666.7194                   23167672.8594
        40.0004         34.2504
    997206.90245    871622.16043  24759024.8524                   24759028.9414
        35.0004         22.5004
 25  8  7 22 38 30.0000000  0 10G01G02G03G10G28G31G32G04G26G25
  -3433653.14147  -2592798.68445  21139903.1174                   21139903.0164
        47.0004         34.2504
   4281636.09447   3395506.76245  22270634.5864                   22270633.5004
        45.7504         33.0004
 -10765325.20747  -8272768.41847  21337646.6094                   21337648.5474
        47.5004         43.2504
   9261950.69946   7256758.71943  24765291.6174                   24765300.3094
        37.0004         23.0004
   3859251.07047   3074845.75445  21712980.5234                   21712980.3054
        45.5004         34.2504
  -4612989.11748  -3510242.43047  20152946.2344                   20152944.8054
        49.0004         47.7504
   8011137.03946   6293251.12945  23960062.2194                   23960065.0554
        41.2504         34.2504
  -9687469.88747  -7455511.91044  22878570.5784                   22878574.0514
        42.5004         27.5004
 -11457683.91046  -8855789.47745  23103282.7814                   23103288.3984
        39.7504         33.7504
    784970.53945    706243.07043  24718637.6484                   24718641.7384
        33.5004         21.5004
 25  8  7 22 39  0.0000000  0 10G01G02G03G10G28G31G32G04G26G25
  -3675726.84847  -2781427.56645  21093838.4144                   21093838.1724
        47.2504         34.0004
   4091451.18047   3247310.63345  22234443.6094                   22234442.7974
        45.5004         33.0004
 -11093517.32447  -8528502.47747  21275193.7734                   21275195.7154
        47.7504         43.5004
   9098717.32046   7129563.61343  24734229.9534                   24734238.0744
        37.0004         22.7504
   3669594.68047   2927061.53945  21676890.0084                   21676889.3524
        46.2504         33.7504
  -4862320.96548  -3704526.96547  20105499.8594                   20105498.6914
        49.0004         47.7504
   7826084.22347   6149054.03545  23924847.8594                   23924851.3524
        42.0004         35.2504
 -10007571.35247  -7704941.49644  22817657.6884                   22817660.9144
        43.5004         26.2504
 -11795799.26646  -9119255.76245  23038941.2664                   23038946.9924
        40.0004         34.0004
    573255.94146    541270.66844  24678349.9144                   24678354.3324
        37.5004         24.5004
 25  8  7 22 39 30.0000000  0 10G01G02G03G10G28G31G32G04G26G25
  -3917211.25047  -2969597.24245  21047884.9144                   21047884.6524
        47.2504         34.0004
   3901611.21547   3099383.28945  22198318.5474                   22198317.5394
        44.7504         33.0004
 -11421476.66047  -8784055.15247  21212784.4924                   21212786.3634
        46.7504         43.5004
   8935676.32846   7002518.41444  24703203.7344                   24703212.9144
        37.0004         24.7504
   3480338.87547   2779589.46145  21640875.7814                   21640875.5164
        45.7504         34.0004
  -5111033.83247  -3898329.17247  20058171.6564                   20058170.1094
        47.7504         47.7504
   7641050.73446   6004872.05145  23889636.9144                   23889639.5514
        41.5004         34.0004
 -10327528.66847  -7954258.75844  22756771.6884                   22756774.6914
        43.0004         27.5004
 -12133684.89146  -9382543.05545  22974643.6024                   22974648.7344
        41.2504         33.5004
    362062.25446    376704.19144  24638160.5704                   24638165.2304
        37.0004         26.0004
 25  8  7 22 40  0.0000000  0 10G01G02G03G10G28G31G32G04G26G25
  -4158107.59447  -3157308.69145  21002044.0554                   21002044.2774
        47.0004         34.7504
   3712113.33647   2951722.50845  22162258.0004                   22162257.4264
        45.0004         33.0004
 -11749201.63347  -9039425.21547  21150420.4534                   21150422.6844
        47.2504         43.5004
   8772826.12145   6875621.87143  24672214.8284                   24672223.6024
        35.7504         22.7504
   3291480.61347   2632427.17245  21604937.2034                   21604937.2154
        46.0004         34.0004
  -5359129.07448  -4091650.11747  20010961.0234                   20010959.3914
        48.2504         47.5004
   7456035.79346   5860704.46145  23854429.2734                   23854431.5164
        39.2504         32.5004
 -10647342.58247  -8203464.28144  22695913.2584                   22695916.1844
        42.2504         27.5004
 -12471338.10246  -9645649.25445  22910389.3364                   22910395.3204
        41.0004         33.2504
    151387.75045    212542.22744  24598071.0164                   24598075.6024
        34.7504         25.5004
 25  8  7 22 40 30.0000000  0 10G01G02G03G10G28G31G32G04G26G25
  -2822988.25447  -2116955.97745  21256108.8674                   21256108.8834
        46.7504         35.2504
   5098381.64147   4031931.48045  22426056.1804                   22426055.5554
        45.0004         33.2504
 -10501258.84447  -8067002.21147  21387896.3134                   21387898.3554
        46.7504         43.2504
  10185591.44545   7976477.68044  24941055.3054                   24941064.4654
        35.7504         24.0004
   4678444.10547   3713177.92645  21868868.0004                   21868867.3914
        46.2504         33.7504
  -4031179.10547  -3056883.88747  20263661.3524                   20263659.6524
        47.7504         47.5004
   8846465.71946   6944156.34445  24119019.6254                   24119022.9494
        40.5004         34.5004
  -9391582.14547  -7224949.54344  22934876.3674                   22934878.9804
        42.5004         26.7504
 -11233324.06646  -8680962.78145  23145975.7974                   23145981.8244
        41.5004         33.5004
   1516658.62945   1276389.60544  24857873.6724                   24857878.3754
        34.2504         26.5004
 25  8  7 22 41  0.0000000  0 10G01G02G03G10G28G31G32G04G26G25
  -3062708.52047  -2303751.00845  21210491.3674                   21210491.4024
        46.7504         35.2504
   4909562.46147   3884799.53945  22390125.6334                   22390124.4694
        45.0004         32.2504
 -10828506.44547  -8322000.29347  21325622.4924                   21325624.8954
        47.2504         44.2504
  10023121.85545   7849877.72343  24910139.1094                   24910147.6524
        35.2504         22.5004
   4490375.81347   3566631.18445  21833079.6414                   21833079.1764
        44.7504         34.7504
  -4278039.78948  -3249242.84047  20216685.2584                   20216683.5944
        48.0004         47.7504
   8661489.65246   6800019.03145  24083821.0314                   24083822.3204
        41.5004         34.5004
  -9711107.34847  -7473930.11344  22874072.4224                   22874075.4884
        42.5004         26.2504
 -11570500.48046  -8943697.45345  23081813.2814                   23081818.9774
        41.5004         34.0004
   1307020.98845   1113035.51244  24817979.6484                   24817985.4694
        33.2504         25.5004
 25  8  7 22 41 30.0000000  0 10G01G02G03G10G28G31G32G04G26G25
  -3301844.05547  -2490090.40645  21164985.3364                   21164985.3834
        46.5004         34.7504
   4721077.19947   3737927.80545  22354257.8594                   22354257.2074
        45.5004         32.5004
 -11155514.30147  -8576811.56247  21263395.4454                   21263397.6644
        46.2504         44.0004
   9860838.80145   7723423.07843  24879257.2814                   24879266.9614
        33.0004         22.0004
   4302696.57047   3420387.59445  21797365.1954                   21797364.9494
        45.5004         34.2504
  -4524286.64548  -3441123.48047  20169826.1174                   20169824.4884
        48.2504         47.5004
   8476530.54346   6655894.96145  24048623.9774                   24048626.7894
        39.7504         33.2504
 -10030490.62947  -7722800.08244  22813295.6954                   22813299.0434
        43.2504         27.0004
 -11907435.87146  -9206244.32045  23017696.5864                   23017702.0234
        41.5004         34.5004
   1097897.65245    950082.21944  24778186.4384                   24778190.6094
        35.5004         25.7504
 25  8  7 22 42  0.0000000  0 10G01G02G03G10G28G31G32G04G26G25
  -3540394.28147  -2675973.71145  21119590.7894                   21119591.0274
        46.2504         35.0004
   4532924.55147   3591315.25445  22318453.8054                   22318453.0204
        44.2504         33.0004
 -11482278.82447  -8831433.22347  21201214.2734                   21201215.8674
        47.2504         44.0004
   9698742.56645   7597114.00443  24848412.0634                   24848420.9924
        33.0004         22.7504
   4115405.38347   3274446.38745  21761725.0704                   21761724.3594
        46.5004         34.2504
  -4769919.27347  -3632525.50847  20123083.5394                   20123082.0234
        47.7504         47.5004
   8291589.60546   6511785.12945  24013429.9924                   24013433.4384
        39.7504         32.0004
 -10349730.68047  -7971558.45744  22752546.6254                   22752549.0434
        42.5004         26.7504
 -12244125.57446  -9468599.75045  22953626.0864                   22953631.9924
        41.5004         34.7504
    889288.81345    787529.80944  24738488.2424                   24738492.9534
        34.7504         26.2504
 25  8  7 22 42 30.0000000  0 10G01G02G03G10G28G31G32G04G26G25
  -3778362.02347  -2861403.14845  21074307.4844                   21074307.5594
        46.2504         33.7504
   4345099.90247   3444958.28145  22282711.8524                   22282711.3244
        45.7504         31.5004
 -11808799.91047  -9085865.18047  21139079.3594                   21139081.4734
        47.7504         44.0004
   9536829.86345   7470947.87544  24817601.0554                   24817610.2544
        32.5004         25.0004
   3928497.64847   3128803.97745  21726157.4774                   21726157.2344
        45.7504         33.7504
  -5014940.70348  -3823451.27747  20076457.3364                   20076455.7344
        48.0004         47.5004
   8106664.72346   6367687.71945  23978239.6884                   23978244.8284
        39.7504         33.2504
 -10668829.72347  -8220206.97344  22691823.6884                   22691826.3594
        42.7504         26.5004
 -12580568.40246  -9730762.80945  22889603.2114                   22889608.8204
        41.7504         35.0004
    681190.87146    625375.51644  24698889.6884                   24698893.1914
        36.5004         24.2504
 25  8  7 22 43  0.0000000  0  9G01G02G03G10G28G31G32G04G26
  -4015743.71547  -3046375.92245  21029134.7194                   21029135.3204
        47.0004         34.0004
   4157605.30547   3298858.48445  22247032.5084                   22247032.1484
        45.0004         32.5004
 -12135070.95747  -9340102.30547  21076992.2894                   21076993.7734
        47.7504         44.2504
   9375104.11345   7344927.48044  24786826.6094                   24786836.0944
        34.0004         25.0004
   3741975.36747   2983461.91045  21690663.6804                   21690662.8754
        45.0004         34.2504
  -5259347.55148  -4013898.14847  20029948.6804                   20029946.6484
        48.5004         47.5004
   7921760.02346   6223606.12945  23943054.9694                   23943057.9264
        40.7504         34.5004
 -10987783.49647  -8468742.26644  22631128.9694                   22631132.0434
        42.0004         26.7504
 -12916756.70346  -9992727.53945  22825629.2424                   22825634.5434
        41.7504         35.0004
 25  8  7 22 43 30.0000000  0  9G01G02G03G10G28G31G32G04G26
  -2677115.34847  -2003288.90245  21283867.1334                   21283867.9384
        47.2504         34.7504
   5545861.46947   4380616.43045  22511209.4224                   22511208.6524
        45.5004         32.5004
 -10885661.92648  -8366536.77747  21314746.7274                   21314748.6844
        48.0004         44.2504
  10788986.62945   8446653.77044  25055879.4384                   25055889.0124
        34.2504         28.0004
   5131259.26247   4066020.76645  21955035.9304                   21955035.1174
        46.0004         34.0004
  -3927715.81248  -2976263.01247  20283349.3834                   20283347.9024
        48.2504         47.2504
   9312298.72346   7307142.68045  24207663.8204                   24207667.8134
        38.0004         31.0004
  -9731164.45347  -7489558.49644  22870255.3134                   22870258.3554
        42.5004         26.7504
 -11677259.05547  -9026885.04345  23061497.1334                   23061502.6644
        42.5004         35.5004
 25  8  7 22 44  0.0000000  0  9G01G02G03G10G28G31G32G04G26
  -2913331.83647  -2187353.72345  21238916.9384                   21238916.7544
        47.2504         34.2504
   5359015.22747   4235021.85245  22475653.8594                   22475653.5044
        44.2504         32.2504
 -11211430.58648  -8620382.44547  21252754.5784                   21252756.9304
        48.0004         44.0004
  10627627.25445   8320918.84444  25025173.0554                   25025183.4494
        33.5004         26.0004
   4945496.14847   3921270.25445  21919686.1254                   21919686.0594
        45.0004         33.5004
  -4170900.82048  -3165757.80147  20237072.7504                   20237071.2624
        48.5004         47.2504
   9127429.93846   7163089.03545  24172487.5394                   24172489.2194
        41.5004         34.7504
 -10049832.23047  -7737870.95744  22809614.5234                   22809617.5704
        43.0004         27.5004
 -12012932.86346  -9288448.87946  22997620.4144                   22997625.3794
        41.5004         36.0004
 25  8  7 22 44 30.0000000  0 10G01G02G03G10G28G31G32G04G26G16
  -3148962.20347  -2370961.82045  21194077.9064                   21194078.5354
        47.0004         34.2504
   5172494.97347   4089681.27745  22440160.4144                   22440159.8444
        45.5004         32.2504
 -11536939.87548  -8874026.00047  21190812.4614                   21190814.3094
        48.2504         44.2504
  10466454.32445   8195329.19544  24994503.4534                   24994513.7894
        33.5004         27.0004
   4760113.79747   3776816.44545  21884409.3594                   21884408.4804
        45.5004         34.0004
  -4413471.51648  -3354773.90647  20190913.4454                   20190911.6174
        48.0004         47.2504
   8942583.86746   7019053.02745  24137311.8914                   24137313.3754
        41.5004         32.2504
 -10368352.37147  -7986068.36744  22749002.9534                   22749005.2624
        43.0004         27.2504
 -12348339.69946  -9549804.69145  22933793.9144                   22933799.4574
        41.0004         34.7504
  34086950.25456  26642065.44953  25202121.7894                   25202132.7074
        37.0004         19.2504
 25  8  7 22 45  0.0000000  0 10G01G02G03G10G28G31G32G04G26G16
  -3384010.77048  -2554116.57445  21149349.7894                   21149349.8984
        48.0004         34.7504
   4986293.94147   3944589.46145  22404727.6644                   22404726.7234
        45.7504         33.0004
 -11862191.01648  -9127468.39547  21128919.2734                   21128921.3284
        48.5004         44.0004
  10305463.18045   8069881.18444  24963868.9384                   24963878.3874
        34.2504         27.2504
   4575106.25447   3632654.70745  21849203.5704                   21849203.1724
        46.2504         34.0004
  -4655432.50848  -3543314.92247  20144869.4454                   20144867.7464
        48.5004         47.2504
   8757756.85546   6875031.96545  24102140.2114                   24102142.2624
        40.7504         32.2504
 -10686728.37547  -8234153.46944  22688417.7034                   22688420.6564
        42.5004         26.2504
 -12683479.77946  -9810952.64245  22870019.0394                   22870024.4774
        41.7504         34.7504
  33732813.97746  26366115.41843  25134732.3754                   25134743.3014
        37.5004         19.0004
 25  8  7 22 45 30.0000000  0 10G01G02G03G10G28G31G32G04G26G16
  -3618481.74247  -2736821.25445  21104731.3754                   21104731.6884
        47.5004         34.2504
   4800406.77747   3799742.21145  22369354.4924                   22369354.2034
        44.0004         32.7504
 -12187184.96148  -9380710.38347  21067074.7814                   21067076.7234
        48.2504         44.2504
  10144649.50846   7944571.48844  24933266.8284                   24933276.9304
        37.5004         28.5004
   4390467.87147   3488780.61745  21814067.8594                   21814067.5354
        44.5004         33.7504
  -4896788.12148  -3731384.21947  20098941.3364                   20098939.5514
        48.7504         47.2504
   8572945.60546   6731023.13745  24066970.1174                   24066975.7814
        40.7504         34.0004
 -11004963.58646  -8482128.87544  22627859.5164                   22627861.9884
        41.7504         28.0004
 -13018352.92647 -10071892.60245  22806295.1644                   22806299.8634
        42.5004         35.0004
  33378512.13746  26090036.38343  25067310.1484                   25067321.6294
        38.5004         18.5004
 25  8  7 22 46  0.0000000  0 10G01G02G03G10G28G31G32G04G26G16
  -3852378.68047  -2919078.62945  21060222.5554                   21060222.6134
        47.0004         34.2504
   4614828.28947   3655135.47345  22334039.8284                   22334040.0084
        46.0004         32.5004
 -12511922.15647  -9633752.30547  21005279.3134                   21005281.2114
        47.7504         44.2504
   9984009.60246   7819397.20344  24902698.3524                   24902708.3874
        37.2504         29.7504
   4206193.57047   3345190.23445  21779001.5164                   21779001.0824
        47.0004         33.5004
  -5137542.21948  -3918984.80147  20053127.1804                   20053125.3714
        49.0004         47.5004
   8388147.53547   6587024.59045  24031806.3134                   24031808.4024
        42.0004         33.7504
 -11323060.75446  -8729996.71944  22567327.8754                   22567330.9924
        41.5004         27.7504
 -13352958.67247 -10332624.20745  22742621.2814                   22742626.6054
        42.2504         35.0004
  33024044.13346  25813827.89142  24999856.3444                   24999867.0514
        38.0004         17.7504
 25  8  7 22 46 30.0000000  0 10G01G02G03G10G28G31G32G04G26G16
  -2510275.09047  -1873283.64845  21315616.0234                   21315616.5394
        46.5004         34.0004
   6004981.91847   4738371.93845  22598577.8754                   22598577.2034
        45.2504         32.5004
 -11260969.77047  -8658984.16847  21243327.2344                   21243329.5274
        47.7504         44.5004
  11398967.35546   8921961.33645  25171956.3834                   25171966.6094
        38.5004         31.5004
   5597706.66447   4429486.12545  22043797.7734                   22043797.3674
        47.0004         33.5004
  -3802268.10548  -2878511.46147  20307221.4384                   20307219.8164
        49.7504         47.2504
   9778788.27746   7670640.67645  24296435.1334                   24296438.9804
        39.7504         32.2504
 -10065589.68447  -7750149.02044  22806615.9304                   22806618.9454
        43.2504         27.5004
 -12111862.84447  -9365536.41045  22978794.2814                   22978799.1214
        42.5004         34.7504
  34244844.30146  26765101.10243  25232166.9304                   25232177.7384
        38.0004         19.0004
 25  8  7 22 47  0.0000000  0 10G01G02G03G10G28G31G32G04G26G16
  -2743024.52347  -2054646.86745  21271325.2734                   21271325.9774
        46.2504         33.7504
   5820015.94547   4594242.48045  22563380.3284                   22563379.6054
        46.2504         32.2504
 -11585184.23047  -8911618.76647  21181630.8914                   21181633.0864
        47.0004         44.0004
  11238674.01646   8797057.08645  25141453.6724                   25141463.9734
        39.0004         31.0004
   5414155.44547   4286459.17645  22008869.1724                   22008868.9104
        45.7504         33.2504
  -4041820.01248  -3065175.27747  20261635.9144                   20261634.2854
        49.5004         47.0004
   9594018.51246   7526664.18045  24261274.2034                   24261278.5314
        39.0004         33.2504
 -10383408.65647  -7997800.07844  22746136.8364                   22746139.7154
        43.2504         26.5004
 -12445921.48447  -9625841.70745  22915224.6954                   22915229.7194
        42.2504         35.0004
  33890054.64146  26488641.95343  25164652.3284                   25164663.0474
        37.0004         18.5004
 25  8  7 22 47 30.0000000  0 10G01G02G03G10G28G31G32G04G26G16
  -2975202.76647  -2235565.00845  21227143.5234                   21227143.9344
        47.0004         34.2504
   5635351.46547   4450347.96545  22528239.4694                   22528239.0164
        46.5004         33.0004
 -11909135.01647  -9164047.89847  21119985.6174                   21119987.7774
        47.2504         45.0004
  11078551.18846   8672285.70345  25110983.5164                   25110993.7154
        39.7504         30.5004
   5230961.01647   4143710.24645  21974008.3134                   21974007.6134
        47.0004         33.7504
  -4280773.49248  -3251372.78947  20216164.8054                   20216163.1254
        49.0004         47.0004
   9409261.93046   7382697.89145  24226118.1644                   24226120.6684
        41.5004         33.0004
 -10701089.68746  -8245343.64544  22685684.0634                   22685686.6374
        41.5004         26.2504
 -12779702.78147  -9885930.89545  22851708.4614                   22851712.9534
        43.0004         34.7504
  33535107.40646  26212059.98843  25097108.6414                   25097118.7704
        37.5004         18.5004
 25  8  7 22 48  0.0000000  0 10G01G02G03G10G28G31G32G04G26G16
  -3206807.60947  -2416036.34445  21183070.2974                   21183070.7974
        45.5004         34.0004
   5450989.21947   4306688.94145  22493156.5554                   22493156.2704
        46.2504         32.5004
 -12232816.53947  -9416267.21947  21058391.1414                   21058392.8324
        47.2504         44.7504
  10918601.02046   8547648.85245  25080546.2894                   25080556.8364
        40.0004         32.5004
   5048124.19547   4001239.97345  21939215.7194                   21939215.5274
        47.0004         33.5004
  -4519126.35548  -3437102.28947  20170807.4774                   20170805.8874
        49.2504         47.5004
   9224521.47346   7238744.25045  24190961.9304                   24190965.2274
        40.2504         32.2504
 -11018629.62947  -8492777.26244  22625258.6644                   22625261.2774
        42.0004         26.5004
 -13113200.10947 -10145798.80945  22788245.4454                   22788250.6294
        43.0004         34.5004
  33180008.18846  25935359.59043  25029534.6724                   25029545.3714
        37.5004         18.2504
 25  8  7 22 48 30.0000000  0 10G01G02G03G10G28G31G32G04G26G16
  -3437841.31647  -2596062.63745  21139106.2114                   21139106.4614
        46.0004         34.5004
   5266925.71147   4163262.71545  22458130.5004                   22458130.0044
        46.5004         32.7504
 -12556227.77047  -9668275.92647  20996848.0474                   20996849.8794
        47.5004         45.2504
  10758821.09046   8423144.64545  25050141.3594                   25050152.0314
        40.5004         31.2504
   4865641.30547   3859045.49245  21904490.3134                   21904489.8984
        46.2504         33.2504
  -4756881.21548  -3622365.80547  20125564.8364                   20125563.1334
        49.0004         47.0004
   9039796.12147   7094802.39145  24155810.4614                   24155812.8634
        42.7504         33.5004
 -11336029.74647  -8740101.92644  22564859.1564                   22564861.9184
        42.7504         27.7504
 -13446411.46947 -10405443.89845  22724837.1644                   22724842.5394
        42.5004         35.0004
  32824758.60946  25658542.06642  24961933.1884                   24961942.9024
        37.0004         17.7504
 25  8  7 22 49  0.0000000  0 10G01G02G03G10G28G31G32G04G26G16
  -3668306.10247  -2775645.61345  21095250.4144                   21095250.8054
        47.0004         34.2504
   5083157.22747   4020066.36745  22423160.6724                   22423160.1054
        46.0004         32.2504
 -12879367.53547  -9920073.10247  20935356.3134                   20935358.1484
        47.5004         44.7504
  10599209.33646   8298771.49245  25019768.4774                   25019779.6094
        40.5004         31.5004
   4683508.73847   3717123.98845  21869831.9304                   21869831.1684
        46.5004         33.2504
  -4994040.56648  -3807165.29747  20080434.6414                   20080432.7734
        49.2504         47.0004
   8855084.69146   6950871.30945  24120661.3524                   24120665.1644
        41.7504         33.7504
 -11653291.32447  -8987318.62944  22504486.4844                   22504488.8484
        42.5004         27.5004
 -13779334.75847 -10664864.52345  22661484.2894                   22661488.9964
        42.2504         35.5004
  32469360.34846  25381608.64543  24894303.5084                   24894312.8014
        37.5004         19.0004
 25  8  7 22 49 30.0000000  0  9G01G02G03G28G31G32G04G26G16
  -3898199.60947  -2954783.44145  21051503.0554                   21051503.3134
        46.0004         34.5004
   4899684.67647   3877100.61745  22388246.8984                   22388246.4104
        46.0004         31.7504
 -13202230.08247 -10171654.25447  20873917.8444                   20873919.4654
        47.0004         44.7504
   4501727.53947   3575476.27045  21835240.0164                   21835239.5124
        46.5004         33.5004
  -5230602.17648  -3991499.00847  20035418.5394                   20035416.7194
        48.5004         47.2504
   8670390.59846   6806953.73844  24085514.4614                   24085516.6254
        40.7504         29.0004
 -11970410.90647  -9234424.69144  22444139.8594                   22444142.6134
        42.5004         27.0004
 -14111963.25846 -10924055.44945  22598186.6884                   22598191.8984
        41.7504         35.5004
  32113819.34046  25104564.04343  24826645.6724                   24826654.9224
        38.0004         19.5004
 25  8  7 22 50  0.0000000  0  9G01G02G03G28G31G32G04G26G16
  -2552099.60247  -1905874.37145  21307657.1644                   21307657.7194
        46.5004         33.7504
   6291927.22747   4961964.81645  22653182.6334                   22653182.1954
        44.0004         32.2504
 -11949386.69547  -9195412.60947  21112325.9304                   21112328.0204
        47.0004         45.0004
   5895716.94947   4661701.76245  22100507.2734                   22100507.1294
        44.5004         32.7504
  -3891143.38748  -2947764.87147  20290308.7734                   20290307.2934
        48.7504         47.0004
  10061135.65246   7890651.16045  24350164.5554                   24350167.8674
        40.0004         31.5004
 -10711962.34447  -8253815.31244  22683614.2894                   22683617.2974
        42.0004         27.7504
 -12868866.88747  -9955408.81645  22834740.0634                   22834745.1024
        42.5004         35.5004
  33333565.83646  26055016.18843  25058755.1644                   25058764.9694
        37.5004         18.5004
 25  8  7 22 50 30.0000000  0  9G01G02G03G28G31G32G04G26G16
  -2780858.47747  -2084128.07445  21264126.0634                   21264126.5204
        46.2504         34.0004
   6109034.60247   4819450.95745  22618379.0704                   22618378.8204
        44.0004         32.5004
 -12271692.41847  -9446559.89147  21050993.2274                   21050995.0824
        47.2504         45.0004
   5714626.54747   4520592.33645  22066046.9454                   22066046.9104
        44.7504         33.2504
  -4126517.46948  -3131173.24647  20245518.5784                   20245516.9694
        48.7504         47.0004
   9876471.79746   7746757.16845  24315024.3134                   24315028.0354
        39.7504         32.0004
 -11028802.73846  -8500703.80944  22623322.0944                   22623324.3954
        41.7504         27.5004
 -13200900.47747 -10214136.17646  22771556.1644                   22771560.8094
        42.2504         36.0004
  32977743.33646  25777752.22743  24991043.8134                   24991053.8914
        37.2504         18.5004
 25  8  7 22 51  0.0000000  0  9G01G02G03G28G31G32G04G26G16
  -3009042.73847  -2261934.02045  21220704.0944                   21220704.0704
        47.7504         33.2504
   5926437.18047   4677167.12945  22583631.5784                   22583631.6604
        45.7504         32.0004
 -12593707.23847  -9697480.48447  20989715.8594                   20989717.4144
        47.0004         45.0004
   5533886.84047   4379756.18045  22031653.3754                   22031653.1484
        46.2504         33.2504
  -4361290.80148  -3314113.48847  20200843.2974                   20200841.3714
        48.0004         47.0004
   9691832.03546   7602881.89845  24279890.4064                   24279890.9104
        41.7504         31.0004
 -11345494.59046  -8747476.55544  22563057.5234                   22563059.6094
        41.5004         27.2504
 -13532622.73046 -10472620.94145  22708431.6094                   22708436.2814
        41.7504         35.2504
  32621793.13746  25500388.77743  24923308.8984                   24923318.2544
        37.2504         18.5004
 25  8  7 22 51 30.0000000  0  9G01G02G03G28G31G32G04G26G16
  -3236657.63747  -2439296.31245  21177390.1174                   21177390.9344
        46.2504         34.5004
   5744128.01247   4535107.91845  22548939.4924                   22548939.5004
        45.0004         30.7504
 -12915432.98048  -9948175.83247  20928493.4144                   20928495.3874
        48.0004         45.5004
   5353491.33647   4239188.24245  21997325.1174                   21997324.6134
        46.2504         33.2504
  -4595468.92248  -3496589.93747  20156280.0864                   20156278.4844
        49.0004         47.0004
   9507212.25846   7459022.25445  24244757.0704                   24244761.5314
        37.5004         31.5004
 -11662042.13346  -8994136.87944  22502820.7274                   22502823.2384
        41.5004         27.5004
 -13864034.47747 -10730863.74645  22645365.7274                   22645370.6134
        42.0004         35.0004
  32265713.96546  25222924.79343  24855549.3674                   24855558.4384
        37.5004         19.5004
 25  8  7 22 52  0.0000000  0  9G01G02G03G28G31G32G04G26G16
  -3463704.09847  -2616215.68045  21134184.9144                   21134185.1804
        46.5004         34.0004
   5562105.43047   4393272.01245  22514302.0784                   22514301.9884
        43.7504         32.0004
 -13236866.89847 -10198643.77747  20867326.3984                   20867328.1524
        47.7504         45.2504
   5173437.88347   4098886.83245  21963062.1644                   21963061.5664
        44.5004         33.0004
  -4829052.58648  -3678603.17647  20111830.7344                   20111828.9534
        48.0004         47.0004
   9322612.91046   7315178.62145  24209627.9304                   24209631.0124
        39.7504         30.5004
 -11978445.03546  -9240684.48044  22442610.7034                   22442613.4224
        41.7504         27.2504
 -14195132.09847 -10988861.78545  22582359.9924                   22582364.7664
        42.0004         35.5004
  31909508.68846  24945362.52343  24787764.8134                   24787775.0864
        37.0004         18.5004
 25  8  7 22 52 30.0000000  0  9G01G02G03G28G31G32G04G26G16
  -3690185.03947  -2792694.36745  21091086.8594                   21091087.5124
        47.0004         34.0004
   5380365.01647   4251655.98445  22479717.9614                   22479718.0044
        45.5004         31.7504
 -13558008.40248 -10448883.86347  20806215.2504                   20806216.9844
        48.2504         45.2504
   4993722.34847   3958848.73445  21928863.5944                   21928862.9694
        46.7504         32.7504
  -5062044.99648  -3860155.69547  20067493.6414                   20067491.7934
        48.0004         47.0004
   9138032.32447   7171349.44145  24174505.3134                   24174509.4534
        43.2504         34.5004
 -12294705.08647  -9487120.77744  22382428.6724                   22382430.6804
        43.0004         27.5004
 -14525914.04347 -11246613.83245  22519414.3674                   22519419.1764
        42.7504         35.5004
  31553178.62146  24667703.05143  24719957.0944                   24719967.0594
        37.5004         18.5004
 25  8  7 22 53  0.0000000  0  9G01G02G03G28G31G32G04G26G16
  -2340677.74647  -1741130.27745  21347889.8754                   21347890.3364
        47.0004         34.0004
   6774326.59047   5337859.68445  22744980.5704                   22744979.9774
        45.0004         31.2504
 -12303428.08248  -9471288.76647  21044954.0164                   21044955.5594
        48.0004         45.5004
   6389764.65647   5046673.88745  22194521.6414                   22194521.5554
        45.5004         33.0004
  -3719023.41848  -2813645.36747  20323062.4534                   20323060.4024
        49.0004         47.0004
  10528893.03947   8255137.00845  24439177.5004                   24439177.7384
        42.5004         31.7504
 -11035395.31247  -8505840.32444  22622067.1564                   22622069.4654
        42.0004         28.7504
 -13280949.62946 -10276511.57845  22756323.0004                   22756327.6844
        41.7504         35.7504
  32772155.27746  25617555.31343  24951921.1804                   24951930.3244
        37.0004         19.2504
 25  8  7 22 53 30.0000000  0  9G01G02G03G28G31G32G04G26G16
  -2566038.96947  -1916736.46545  21305005.1804                   21305005.6764
        47.5004         33.5004
   6593135.44147   5196671.65245  22710500.9064                   22710500.7664
        45.2504         31.5004
 -12623985.33248  -9721073.59447  20983953.8674                   20983956.1684
        48.0004         45.5004
   6210710.01647   4907150.77745  22160448.5474                   22160448.1094
        45.7504         33.0004
  -3950844.98848  -2994285.54747  20278948.0634                   20278946.3594
        48.2504         46.7504
  10344342.48846   8111331.25445  24404057.6414                   24404062.5824
        40.5004         34.2504
 -11351377.33247  -8752059.97744  22561937.2584                   22561940.2584
        42.5004         27.5004
 -13611098.07846 -10533769.99645  22693497.1094                   22693502.4924
        41.5004         35.7504
  32415576.62946  25339702.13743  24884066.6564                   24884075.7854
        36.5004         19.0004
 25  8  7 22 54  0.0000000  0  9G01G02G03G28G31G32G04G26G16
  -2790840.65247  -2091906.63745  21262226.3204                   21262227.0664
        46.7504         33.7504
   6412216.77747   5055695.94945  22676072.8204                   22676073.1564
        45.0004         31.0004
 -12944245.32848  -9970626.79747  20923010.2974                   20923011.9844
        48.5004         45.5004
   6031983.72747   4767883.52745  22126437.4844                   22126437.2344
        46.5004         32.5004
  -4182081.62948  -3174469.94147  20234945.4694                   20234943.5864
        49.0004         46.7504
  10159808.56646   7967538.55945  24368941.7974                   24368944.5004
        40.5004         32.7504
 -11667218.79347  -8998170.10544  22501834.6414                   22501837.2424
        42.0004         27.7504
 -13940923.30947 -10790776.56246  22630733.9694                   22630738.8834
        42.0004         36.0004
  32058879.67646  25061756.80143  24816188.6174                   24816197.6134
        36.5004         18.5004
 25  8  7 22 54 30.0000000  0  9G01G02G03G28G31G32G04G26G16
  -3015086.93047  -2266644.03545  21219553.9774                   21219554.5554
        47.2504         34.0004
   6231565.01647   4914928.22345  22641696.1094                   22641696.4654
        45.7504         31.2504
 -13264208.58648 -10219948.77047  20862123.0944                   20862124.8794
        48.5004         45.7504
   5853580.53547   4628868.03145  22092489.1094                   22092488.7154
        46.0004         33.0004
  -4412737.83648  -3354202.04747  20191052.9694                   20191051.0474
        48.7504         46.7504
   9975288.65247   7823756.68045  24333829.9534                   24333832.1214
        43.2504         33.7504
 -11982922.65646  -9244172.99644  22441758.5704                   22441760.6094
        41.2504         27.7504
 -14270424.89147 -11047530.92645  22568031.9614                   22568036.4774
        42.0004         35.7504
  31702064.27746  24783719.18042  24748288.4534                   24748297.8554
        36.7504         17.7504
 25  8  7 22 55  0.0000000  0  9G01G02G03G28G31G32G04G26G16
  -3238777.91447  -2440948.73045  21176987.3594                   21176987.4574
        47.5004         34.0004
   6051178.89547   4774367.48445  22607370.1884                   22607370.0084
        45.2504         31.5004
 -13583871.45348 -10469036.67247  20801293.8524                   20801295.1764
        48.0004         45.5004
   5675499.28547   4490103.40245  22058601.4224                   22058601.2934
        45.7504         32.5004
  -4642813.66448  -3533481.91447  20147270.7344                   20147269.1414
        49.0004         47.0004
   9790784.00046   7679986.72745  24298718.5004                   24298724.3914
        39.7504         33.2504
 -12298487.60246  -9490067.65244  22381708.0864                   22381710.6414
        41.5004         27.7504
 -14599598.36346 -11304029.61345  22505392.0234                   22505397.0634
        41.7504         35.5004
  31345134.62146  24505592.51242  24680367.2504                   24680376.0274
        36.0004         17.7504
 25  8  7 22 55 30.0000000  0  9G01G02G03G28G31G32G04G26G16
  -3461916.91047  -2614823.30545  21134525.0314                   21134525.5864
        47.0004         34.5004
   5871054.05947   4634010.35945  22573093.6724                   22573094.1374
        45.5004         31.0004
 -13903233.57448 -10717890.23847  20740521.1094                   20740522.3954
        48.2504         45.5004
   5497735.49647   4351586.15645  22024774.1094                   22024773.4454
        46.0004         32.2504
  -4872312.35948  -3712312.06247  20103598.5944                   20103596.8404
        49.0004         46.7504
   9606292.72346   7536227.23044  24263611.4304                   24263613.7464
        40.5004         29.7504
 -12613915.73046  -9735855.70744  22321684.2894                   22321686.5744
        41.5004         27.0004
 -14928442.42647 -11560271.62146  22442815.0784                   22442819.5434
        42.2504         36.5004
  30988091.43845  24227377.44943  24612423.0944                   24612432.3954
        35.5004         18.2504
 25  8  7 22 56  0.0000000  0  9G01G02G03G28G31G32G04G26G16
  -2109075.60547  -1560661.28545  21391962.7734                   21391963.0314
        47.2504         34.2504
   7266616.58247   5721461.54345  22838660.6564                   22838660.5704
        45.0004         30.7504
 -12646859.67648  -9738897.54347  20979601.0004                   20979602.5864
        48.2504         45.7504
   6895714.94147   5440920.76645  22290799.9224                   22290799.9494
        45.0004         31.7504
  -3525805.74248  -2663086.12947  20359830.0234                   20359828.6684
        48.5004         46.7504
  10997243.48046   8620084.84445  24528301.3054                   24528304.1374
        40.7504         32.0004
 -11353774.26246  -8753927.19144  22561480.6254                   22561483.6684
        41.2504         27.5004
 -13681520.69947 -10588644.16846  22680096.1724                   22680100.9494
        42.0004         36.7504
  32206372.06345  25176687.35542  24844254.3834                   24844263.3444
        35.0004         17.2504
 25  8  7 22 56 30.0000000  0  9G01G02G03G28G31G32G04G26G16
  -2331111.82447  -1733676.55545  21349710.2814                   21349710.8364
        47.2504         34.0004
   7087009.67247   5581507.99245  22804482.4924                   22804482.3834
        45.7504         31.0004
 -12965610.29748  -9987274.61347  20918944.6414                   20918946.2344
        48.0004         45.7504
   6718581.71147   5302894.85245  22257093.2894                   22257092.8834
        45.7504         32.7504
  -3754152.05547  -2841018.31647  20316377.2114                   20316375.7274
        47.0004         46.5004
  10812782.18846   8476348.64145  24493199.1724                   24493202.3324
        40.7504         30.0004
 -11668925.89146  -8999499.79744  22501509.4534                   22501512.0744
        40.5004         28.0004
 -14009693.39546 -10844363.02046  22617646.5784                   22617651.5274
        41.7504         37.0004
  31849113.85945  24898304.74242  24776269.5314                   24776279.2544
        35.0004         17.2504
 25  8  7 22 57  0.0000000  0  9G01G02G03G28G31G32G04G26G16
  -2552601.34847  -1906265.82845  21307562.2584                   21307562.8204
        47.7504         33.7504
   6907655.16847   5441751.12145  22770352.5704                   22770352.6134
        45.0004         30.0004
 -13284054.10948 -10235412.60547  20858346.5314                   20858348.5554
        48.0004         45.7504
   6541757.62947   5165109.82045  22223445.2114                   22223444.8954
        45.7504         32.7504
  -3981926.98448  -3018505.26647  20273033.2424                   20273031.3364
        48.0004         46.5004
  10628333.55546   8332622.42645  24458099.5944                   24458104.3284
        41.2504         33.5004
 -11983941.84447  -9244966.67644  22441564.2504                   22441566.2384
        42.0004         27.7504
 -14337528.12947 -11099818.51246  22555262.5164                   22555266.4264
        42.5004         36.7504
  31491749.69945  24619839.52742  24708265.1564                   24708274.7464
        35.0004         16.2504
 25  8  7 22 57 30.0000000  0  9G01G02G03G28G31G32G04G26G16
  -2773545.20747  -2078429.91045  21265518.3984                   21265518.4614
        47.7504         34.5004
   6728551.07047   5302189.35945  22736270.3754                   22736270.5044
        44.0004         31.2504
 -13602188.46948 -10483309.46947  20797807.8524                   20797809.5044
        48.0004         46.0004
   6365240.54747   5027564.02745  22189854.8364                   22189854.5164
        44.5004         32.2504
  -4209132.05947  -3195548.17647  20229797.6804                   20229795.8014
        47.5004         47.0004
  10443897.99246   8188906.22344  24423003.8674                   24423005.9104
        40.5004         29.5004
 -12298821.77046  -9490327.57444  22381644.1954                   22381646.4414
        41.2504         27.7504
 -14665021.25847 -11355007.81646  22492941.8834                   22492946.4884
        42.5004         36.0004
  31134283.14545  24341294.60242  24640241.8134                   24640250.4224
        34.2504         16.7504
 25  8  7 22 58  0.0000000  0  9G01G02G03G28G31G32G04G26G16
  -2993943.14847  -2250168.59845  21223577.5944                   21223577.9144
        47.0004         34.0004
   6549696.52347   5162822.05945  22702235.6724                   22702235.9104
        43.5004         30.5004
 -13920009.21947 -10730961.96147  20737328.4064                   20737330.0704
        47.7504         46.0004
   6189029.74247   4890256.87945  22156323.3054                   22156322.3444
        44.0004         32.2504
  -4435766.70348  -3372146.59047  20186670.3754                   20186668.7584
        48.2504         46.7504
  10259477.27346   8045201.76245  24387909.2894                   24387913.0044
        40.7504         33.0004
 -12613564.03146  -9735581.18444  22321751.1174                   22321752.8524
        40.7504         28.0004
 -14992167.94547 -11609927.16046  22430687.7664                   22430692.1764
        42.5004         37.0004
  30776719.04745  24062673.62542  24572199.1564                   24572208.3014
        35.0004         16.2504
 25  8  7 22 58 30.0000000  0  9G01G02G03G28G31G32G04G26G16
  -3213798.25847  -2421484.30545  21181740.6094                   21181741.4224
        47.5004         33.5004
   6371087.34447   5023645.95745  22668247.6484                   22668247.2934
        45.5004         30.7504
 -14237515.58647 -10978369.48047  20676908.9694                   20676910.5824
        47.5004         46.0004
   6013121.24647   4753185.28945  22122849.0474                   22122848.8674
        46.5004         31.5004
  -4661834.05548  -3548302.96547  20143651.2274                   20143649.4774
        48.2504         47.0004
  10075069.93846   7901507.68845  24352817.8364                   24352820.1484
        41.0004         31.2504
 -12928170.16047  -9980728.72344  22261883.3914                   22261885.4384
        42.0004         26.7504
 -15318966.54347 -11864575.27046  22368500.3594                   22368504.4924
        43.7504         37.0004
  30419058.43045  23783977.49642  24504138.9614                   24504147.1484
        34.5004         15.5004
 25  8  7 22 59  0.0000000  0  9G01G02G03G28G31G32G04G26G16
  -1857686.41048  -1364773.81245  21439800.2114                   21439800.9734
        48.7504         34.0004
   7768145.27347   6112262.39545  22934099.1094                   22934099.0904
        44.0004         30.2504
 -12979276.29747  -9997923.25447  20916343.7814                   20916345.6054
        47.0004         46.0004
   7412936.75047   5843950.58645  22389224.8834                   22389224.8054
        45.2504         32.2504
  -3311910.02747  -2496414.10247  20400533.1884                   20400531.5004
        47.5004         46.5004
  11466100.70346   8985427.70345  24617522.0164                   24617526.5004
        41.5004         32.2504
 -11667211.45346  -8998163.40644  22501835.2894                   22501837.9654
        41.5004         28.0004
 -14069984.61747 -10891342.44946  22606172.9064                   22606177.8874
        42.7504         37.2504
  31636734.37545  24732816.30142  24735853.1334                   24735862.9414
        34.0004         15.5004
 25  8  7 22 59 30.0000000  0  9G01G02G03G28G31G32G04G26G16
  -2076461.15648  -1535247.67645  21398168.9144                   21398169.6724
        48.5004         34.0004
   7590018.46147   5973462.16044  22900202.6804                   22900202.3874
        45.0004         29.7504
 -13296147.58647 -10244835.90247  20856045.2584                   20856046.6524
        47.7504         46.5004
   7237624.73847   5707343.79745  22355864.2974                   22355863.8754
        46.0004         31.7504
  -3536848.67247  -2671690.96147  20357729.0944                   20357727.3954
        47.5004         46.7504
  11281719.83646   8841754.28145  24582434.0704                   24582438.6764
        39.0004         31.0004
 -11981546.26247  -9243099.52744  22442019.6954                   22442021.4844
        43.0004         27.7504
 -14396078.21947 -11145441.21146  22544119.9454                   22544124.1884
        43.2504         37.0004
  31278888.56345  24453975.84442  24667757.4774                   24667766.9304
        33.5004         15.5004
 25  8  7 23  0  0.0000000  0  9G01G02G03G28G31G32G04G26G16
  -2294697.09447  -1705301.68745  21356640.1954                   21356640.6334
        47.7504         33.5004
   7412129.73047   5834847.43845  22866351.2974                   22866351.7894
        45.5004         30.0004
 -13612696.77347 -10491497.57847  20795807.7974                   20795809.2704
        47.0004         46.2504
   7062608.25847   5570967.28545  22322559.9064                   22322559.3984
        46.2504         31.0004
  -3761224.62147  -2846529.35247  20315031.3364                   20315029.8204
        47.7504         47.0004
  11097353.45346   8698092.02345  24547352.4844                   24547355.7854
        41.2504         32.2504
 -12295744.52746  -9487929.25444  22382229.0704                   22382231.0084
        41.0004         29.0004
 -14721813.63747 -11399260.87546  22482134.2814                   22482138.8134
        42.5004         36.7504
  30920955.84845  24175067.64142  24599645.0314                   24599654.9104
        33.0004         16.2504
 25  8  7 23  0 30.0000000  0  9G01G02G03G28G31G32G04G26G16
  -2512397.12547  -1874938.11345  21315213.1804                   21315213.7734
        47.2504         34.2504
   7234475.16047   5696415.18844  22832545.0084                   22832545.1994
        43.5004         29.2504
 -13928922.93447 -10737907.53147  20735632.2194                   20735633.4264
        46.7504         46.5004
   6887883.55147   5434818.12545  22289310.6564                   22289310.1024
        44.2504         32.0004
  -3985040.74647  -3020931.52047  20272440.3674                   20272439.0634
        47.0004         46.7504
  10913000.06346   8554440.00844  24512269.6414                   24512272.9454
        38.5004         28.5004
 -12609807.57046  -9732653.59844  22322465.0704                   22322467.3874
        41.2504         28.7504
 -15047189.03147 -11652800.00446  22420217.3134                   22420221.6804
        43.0004         37.2504
  30562937.73045  23896092.91842  24531516.5554                   24531526.3164
        33.5004         14.7504
 25  8  7 23  1  0.0000000  0  9G01G02G03G28G31G32G04G26G16
  -2729561.05947  -2044156.79745  21273888.0864                   21273888.6484
        47.2504         34.2504
   7057054.19947   5558164.96544  22798783.1644                   22798783.6764
        43.5004         29.2504
 -14244821.78547 -10984062.44547  20675518.4224                   20675519.8164
        47.5004         46.2504
   6713450.00047   5298895.84445  22256117.4454                   22256116.6764
        44.5004         31.7504
  -4208297.05148  -3194897.46547  20229956.8134                   20229954.8444
        48.5004         46.7504
  10728661.80946   8410799.74645  24477192.9534                   24477195.7934
        40.0004         32.2504
 -12923733.63746  -9977271.22344  22262726.7734                   22262729.3364
        41.7504         28.2504
 -15372199.41847 -11906054.71546  22358369.6254                   22358374.0474
        42.0004         37.2504
  30204839.11345  23617055.46942  24463372.3284                   24463381.6764
        33.5004         15.5004
 25  8  7 23  1 30.0000000  0  9G01G02G03G28G31G32G04G26G16
  -2946190.76247  -2212959.20345  21232664.9614                   21232665.7114
        47.7504         34.0004
   6879863.93047   5420094.50044  22765064.5164                   22765065.2584
        45.2504         29.2504
 -14560391.29748 -11229960.73447  20615467.5084                   20615468.7154
        48.5004         46.5004
   6539304.82047   5163198.28145  22222978.0634                   22222977.7894
        45.5004         31.2504
  -4430995.37547  -3368428.61747  20187578.6024                   20187576.7624
        47.0004         46.5004
  10544338.45346   8267171.05544  24442117.0084                   24442118.4304
        40.5004         29.2504
 -13237523.07047 -10221782.38744  22203014.6334                   22203017.1214
        42.5004         28.5004
 -15696841.99247 -12159022.81646  22296592.2274                   22296596.4964
        43.0004         37.2504
  29846662.78145  23337957.41842  24395211.6414                   24395222.5904
        32.7504         16.2504
 25  8  7 23  2  0.0000000  0  9G01G02G03G28G31G32G04G26G16
  -1586859.94948  -1153740.41845  21491336.7504                   21491337.6564
        48.0004         34.0004
   8278328.32047   6509806.88344  23031184.1024                   23031184.2504
        43.0004         29.5004
 -13300197.84447 -10247991.76647  20855274.3674                   20855276.5394
        47.0004         46.5004
   7940872.16847   6255328.64145  22489687.9224                   22489687.6604
        44.2504         31.5004
  -3077709.14147  -2313919.85247  20445100.4224                   20445098.4224
        47.0004         46.7504
  11935456.94546   9351159.45745  24706837.8524                   24706842.1564
        40.2504         32.7504
 -11975744.64846  -9238578.34844  22443123.3834                   22443125.3444
        41.5004         28.7504
 -14445682.03547 -11184092.85946  22534679.6174                   22534684.2504
        43.0004         36.7504
  31063844.38745  24286411.03542  24626834.4454                   24626843.8914
        34.2504         15.5004
 25  8  7 23  2 30.0000000  0  9G01G02G03G28G31G32G04G26G16
  -1802425.24647  -1321713.41445  21450316.5784                   21450316.9454
        47.5004         33.2504
   8101592.40247   6372090.43844  22997552.1804                   22997552.7584
        44.7504         29.5004
 -13615100.66448 -10493370.55547  20795350.1724                   20795351.5274
        48.7504         47.0004
   7767297.44947   6120075.59445  22456657.5704                   22456657.2424
        45.0004         31.2504
  -3299295.77048  -2486584.75047  20402933.8204                   20402931.6884
        48.2504         46.5004
  11751164.76247   9207555.06645  24671768.2424                   24671771.6994
        42.7504         32.0004
 -12289259.84847  -9482875.80944  22383463.1954                   22383465.0274
        43.0004         28.7504
 -14769578.57847 -11436479.65246  22473044.3674                   22473048.2974
        43.0004         37.7504
  30705522.16445  24007199.28142  24558647.9454                   24558657.5864
        33.5004         14.7504
 25  8  7 23  3  0.0000000  0  9G01G02G03G28G31G32G04G26G16
  -2017464.35247  -1489276.38745  21409395.8284                   21409396.4064
        47.7504         33.5004
   7925076.21147   6234545.21145  22963962.3594                   22963962.4964
        44.7504         30.0004
 -13929670.00048 -10738489.48047  20735490.1564                   20735491.2504
        48.0004         47.0004
   7594000.84447   5985039.23845  22423680.4144                   22423680.3634
        46.0004         31.0004
  -3520332.82048  -2658821.41047  20360871.2814                   20360869.9344
        48.7504         46.5004
  11566885.00446   9063960.33644  24636701.4774                   24636704.3874
        39.7504         29.5004
 -12602641.47747  -9727069.19944  22323828.8054                   22323830.2584
        42.7504         28.5004
 -15093100.90247 -11688574.85246  22411480.0314                   22411484.1214
        44.0004         38.0004
  30347128.12945  23727931.65642  24490447.1024                   24490457.0944
        34.2504         16.2504
 25  8  7 23  3 30.0000000  0  9G01G02G03G28G31G32G04G26G16
  -2231977.85548  -1656429.80145  21368575.0474                   21368575.5044
        48.0004         33.5004
   7748778.39147   6097170.14144  22930414.1724                   22930415.1214
        44.7504         29.7504
 -14243902.46548 -10983345.90647  20675693.4384                   20675694.8164
        48.5004         46.7504
   7420980.97747   5850218.53545  22390756.1644                   22390755.8054
        44.7504         31.2504
  -3740820.87148  -2830630.27747  20318914.3054                   20318912.5634
        48.2504         46.5004
  11382618.59047   8920376.10245  24601636.7814                   24601641.0314
        42.5004         33.0004
 -12915888.43047  -9971157.64844  22264219.6804                   22264221.4454
        42.5004         28.2504
 -15416244.82047 -11940375.19946  22349987.8674                   22349991.8094
        43.5004         37.5004
  29988666.98445  23448611.64842  24422233.8204                   24422243.0124
        34.2504         14.7504
 25  8  7 23  4  0.0000000  0  9G01G02G03G28G31G32G04G26G16
  -2445966.32447  -1823174.09845  21327854.5704                   21327855.1954
        47.7504         33.7504
   7572697.41047   5959964.05145  22896906.7584                   22896908.2464
        44.7504         30.0004
 -14557794.47748 -11227937.05147  20615961.5394                   20615963.0784
        48.0004         47.0004
   7248236.65647   5715612.53945  22357883.9384                   22357883.2464
        44.7504         31.5004
  -3960760.50048  -3002011.79747  20277061.1174                   20277059.3594
        48.7504         46.5004
  11198367.27346   8776803.52044  24566573.6094                   24566577.2234
        39.2504         27.0004
 -13228999.56247 -10215140.27744  22204636.6414                   22204638.3164
        42.5004         28.5004
 -15739006.00847 -12191877.30946  22288568.3364                   22288572.4804
        43.7504         38.0004
  29630142.07446  23169241.95342  24354010.1724                   24354017.4144
        36.7504         15.5004
 25  8  7 23  4 30.0000000  0  9G01G02G03G28G31G32G04G26G16
  -2659433.38747  -1989512.10245  21287233.1414                   21287233.9144
        47.5004         33.5004
   7396828.82847   5822923.44944  22863440.6174                   22863441.0044
        44.5004         28.0004
 -14871345.59848 -11472262.56247  20556294.7814                   20556296.1954
        48.2504         47.0004
   7075763.49247   5581217.83645  22325062.8754                   22325062.5744
        45.2504         31.5004
  -4180155.41848  -3172968.87547  20235311.5164                   20235309.5594
        48.5004         46.5004
  11014129.05146   8633241.19945  24531515.5864                   24531520.3714
        41.0004         31.7504
 -13541976.81647 -10459018.57044  22145078.7114                   22145080.8444
        43.5004         28.0004
 -16061383.32847 -12443080.30546  22227221.8524                   22227225.5124
        43.7504         37.7504
  29271554.75845  22889823.60242  24285772.2194                   24285780.7234
        35.5004         14.7504
 25  8  7 23  5  0.0000000  0  9G01G02G03G28G31G32G04G26G16
  -1296953.93447   -927839.83245  21546504.7034                   21546505.0594
        47.7504         33.7504
   8796595.37147   6913650.45744  23129807.5004                   23129808.2194
        44.7504         29.0004
 -13609123.24648 -10488712.63347  20796487.9304                   20796489.5704
        48.2504         47.0004
   8478984.63747   6674636.86345  22592087.2814                   22592087.5314
        45.0004         30.7504
  -2823580.40248  -2115897.42247  20493459.3054                   20493457.3634
        49.0004         46.5004
  12405330.19146   9717293.98045  24796251.2894                   24796256.1994
        38.5004         31.2504
 -12279389.94947  -9475184.56244  22385341.0084                   22385342.8674
        44.0004         29.7504
 -14807943.12147 -11466373.54746  22465743.6334                   22465747.3914
        43.7504         37.7504
  30488339.88345  23837968.25042  24517317.7974                   24517326.8404
        35.5004         15.5004
 25  8  7 23  5 30.0000000  0  9G01G02G03G28G31G32G04G26G16
  -1509383.40247  -1093369.32845  21506080.5084                   21506081.1134
        47.0004         33.2504
   8621143.50047   6776934.56645  23096420.7274                   23096420.8954
        45.0004         30.2504
 -13921985.34048 -10732501.24247  20736951.8984                   20736953.2544
        48.7504         47.2504
   8307046.68447   6540659.20745  22559368.7814                   22559368.2114
        44.7504         31.5004
  -3041891.37948  -2286009.87147  20451915.9304                   20451914.6684
        48.7504         46.5004
  12221118.90646   9573752.67244  24761197.7344                   24761199.1174
        39.0004         28.0004
 -12592099.26647  -9718854.07445  22325834.7194                   22325836.6254
        44.5004         30.0004
 -15129543.44547 -11716971.10246  22404544.9534                   22404548.8444
        43.5004         37.5004
  30129637.51646  23558460.22742  24449060.5474                   24449067.7074
        36.7504         15.5004
 25  8  7 23  6  0.0000000  0  9G01G02G03G28G31G32G04G26G16
  -1721296.14848  -1258496.18045  21465754.9304                   21465755.8674
        48.0004         33.7504
   8445896.78947   6640378.52344  23063071.6484                   23063072.4654
        43.7504         29.2504
 -14234498.79348 -10976018.18747  20677482.6564                   20677483.9694
        48.7504         47.2504
   8135373.34847   6406887.73045  22526699.8674                   22526699.5084
        44.5004         31.0004
  -3259662.80948  -2455701.88347  20410475.5554                   20410473.6994
        49.2504         46.5004
  12036921.97346   9430222.50045  24726146.9844                   24726150.0354
        40.5004         31.7504
 -12904674.10247  -9962418.78145  22266353.7814                   22266355.0274
        44.5004         31.7504
 -15450749.85547 -11967261.71546  22343420.7734                   22343424.6884
        43.7504         37.5004
  29770882.93446  23278911.59042  24380790.7114                   24380798.8324
        36.5004         16.2504
 25  8  7 23  6 30.0000000  0  9G01G02G03G28G31G32G04G26G16
  -1932696.48447  -1423223.74645  21425526.8364                   21425527.3094
        47.7504         33.0004
   8270849.94547   6503978.23444  23029761.8054                   23029762.5744
        43.7504         28.7504
 -14546663.64848 -11219263.49647  20618079.8984                   20618081.0124
        49.5004         47.0004
   7963959.70347   6273318.61345  22494081.4924                   22494081.3444
        45.5004         31.2504
  -3476898.66848  -2624976.58247  20369137.1024                   20369135.4184
        48.7504         46.5004
  11852737.08646   9286701.72745  24691097.4224                   24691100.8444
        38.5004         31.2504
 -13217116.85947 -10205880.58244  22206897.0394                   22206899.0904
        44.5004         29.0004
 -15771561.89847 -12217245.03546  22282372.8914                   22282376.4844
        43.7504         37.5004
  29412076.59046  22999322.57042  24312511.4774                   24312519.6024
        37.0004         15.5004
 25  8  7 23  7  0.0000000  0  9G01G02G03G28G31G32G04G26G16
  -2143584.43047  -1587552.05545  21385396.2584                   21385396.7584
        47.2504         33.5004
   8096002.24647   6367733.10244  22996489.4924                   22996490.4534
        43.2504         28.7504
 -14858475.77348 -11462233.94547  20558743.4844                   20558745.2624
        49.5004         47.0004
   7792805.25047   6139951.46545  22461511.7734                   22461511.9884
        44.5004         30.0004
  -3693598.96548  -2793833.95347  20327899.9384                   20327898.5124
        49.2504         46.2504
  11668566.24246   9143191.85245  24656050.9694                   24656054.1024
        40.7504         30.7504
 -13529425.76247 -10449238.07844  22147466.6254                   22147468.7934
        43.7504         29.5004
 -16091974.68447 -12466917.25046  22221400.1174                   22221403.7544
        43.5004         38.2504
  29053223.58246  22719697.23842  24244223.7194                   24244231.2114
        36.0004         16.7504
 25  8  7 23  7 30.0000000  0  9G01G02G03G28G31G32G04G26G16
  -2353962.05547  -1751482.71145  21345362.7504                   21345363.3164
        47.5004         33.2504
   7921350.94947   6231641.02044  22963254.6024                   22963255.4774
        43.5004         28.7504
 -15169933.03548 -11704927.88747  20499475.5314                   20499476.8714
        48.7504         47.0004
   7621907.24247   6006784.12545  22428991.0004                   22428990.5084
        45.0004         31.0004
  -3909766.14848  -2962275.91847  20286764.5084                   20286763.0474
        49.5004         46.2504
  11484409.36346   8999692.95744  24621006.7194                   24621009.8714
        38.5004         28.5004
 -13841600.96547 -10692491.39544  22088062.0704                   22088063.2114
        45.7504         29.0004
 -16411985.41447 -12716276.16446  22160504.1024                   22160507.4804
        43.5004         38.5004
  28694326.60246  22440037.61742  24175927.8594                   24175934.8794
        37.0004         16.2504
 25  8  7 23  8  0.0000000  0  9G01G02G03G28G31G32G04G26G16
   -988402.22747   -687410.14545  21605220.2584                   21605220.8364
        47.5004         32.5004
   9322321.39147   7323306.10544  23229850.7194                   23229851.4264
        43.5004         29.0004
 -13905600.60948 -10719733.75847  20740069.8284                   20740071.3984
        49.2504         47.0004
   9026691.06647   7101420.82845  22696313.2034                   22696313.2974
        45.2504         31.2504
  -2549972.88348  -1902696.75047  20545524.8914                   20545523.3554
        49.0004         46.0004
  12875694.83646  10083811.44545  24885759.3054                   24885762.6724
        39.5004         30.0004
 -12578210.09447  -9708030.88744  22328477.0784                   22328478.5904
        44.5004         29.2504
 -15156158.34047 -11737709.51646  22399480.0234                   22399483.6524
        42.7504         38.5004
  29910823.02046  23387957.21542  24407418.4384                   24407426.1454
        37.0004         16.2504
 25  8  7 23  8 30.0000000  0  9G01G02G03G28G31G32G04G26G16
  -1197765.76248   -850550.59445  21565379.1954                   21565380.0744
        48.0004         33.0004
   9148054.10947   7187513.23044  23196688.7814                   23196689.6334
        43.7504         27.5004
 -14216341.86348 -10961869.77347  20680937.9534                   20680939.3714
        49.7504         47.2504
   8856298.05147   6968647.00445  22663887.6334                   22663888.2384
        44.0004         31.2504
  -2765080.28548  -2070312.91047  20504591.6254                   20504589.6294
        48.7504         46.2504
  12691565.78946   9940334.13744  24850720.4924                   24850724.4734
        38.0004         28.5004
 -12890118.84847  -9951076.57044  22269122.8524                   22269124.4494
        44.5004         29.2504
 -15475356.73047 -11986435.43746  22338738.0944                   22338742.3834
        43.2504         38.5004
  29551846.96146  23108235.98842  24339108.2974                   24339114.8324
        37.7504         17.2504
 25  8  7 23  9  0.0000000  0  9G01G02G03G28G31G32G04G26G16
  -1406623.42248  -1013296.85945  21525635.4064                   21525635.4144
        48.0004         32.7504
   8973976.41847   7051868.10244  23163563.1484                   23163563.6764
        43.5004         27.2504
 -14526719.89548 -11203722.76647  20621874.5164                   20621875.8674
        49.7504         47.5004
   8686155.58647   6836068.41045  22631510.9144                   22631510.5434
        43.5004         31.0004
  -2979659.20348  -2237517.26647  20463758.1334                   20463756.6334
        49.2504         46.2504
  12507452.57046   9796869.23044  24815685.3594                   24815687.9494
        40.5004         28.7504
 -13201892.68747 -10194017.13345  22209794.0084                   22209795.6134
        43.7504         30.0004
 -15794142.76247 -12234840.04346  22278075.3204                   22278079.2544
        42.5004         38.5004
  29192837.68346  22828488.77942  24270790.8364                   24270797.6454
        38.0004         16.2504
 25  8  7 23  9 30.0000000  0  9G01G02G03G28G31G32G04G26G16
  -1614977.73447  -1175650.91045  21485986.9304                   21485987.5164
        47.5004         33.2504
   8800085.38347   6916368.40244  23130473.1644                   23130473.4304
        43.5004         27.2504
 -14836732.94548 -11445291.34847  20562881.3284                   20562882.6214
        49.0004         47.5004
   8516260.68847   6703682.70345  22599181.7664                   22599181.2274
        44.2504         30.0004
  -3193711.71948  -2404311.43447  20423025.8594                   20423024.0084
        49.5004         46.0004
  12323354.80946   9653416.20744  24780654.1644                   24780656.8674
        40.7504         28.7504
 -13513532.12947 -10436852.97345  22150490.9774                   22150492.4844
        42.5004         30.2504
 -16112514.08647 -12482921.48846  22217491.1254                   22217495.0704
        43.2504         38.7504
  28833798.04346  22548717.98842  24202466.8204                   24202474.5354
        37.2504         16.2504
 25  8  7 23 10  0.0000000  0  9G01G02G03G28G31G32G04G26G16
  -1822832.38747  -1337615.61345  21446433.0704                   21446434.0474
        47.2504         33.0004
   8626376.34847   6781010.52344  23097417.4454                   23097418.3014
        43.2504         27.5004
 -15146380.36748 -11686575.02747  20503957.2584                   20503958.4844
        48.2504         47.5004
   8346609.23447   6571486.74245  22566896.9774                   22566898.1604
        44.5004         31.5004
  -3407241.96148  -2570698.64547  20382391.8204                   20382390.5594
        49.2504         46.2504
  12139270.94946   9509974.17244  24745624.1884                   24745626.8834
        41.2504         28.7504
 -13825039.00447 -10679585.49244  22091213.0394                   22091214.4494
        42.5004         29.7504
 -16430469.39147 -12730678.77346  22156986.5864                   22156990.4614
        43.7504         38.7504
  28474729.18446  22268924.45742  24134138.0084                   24134145.2814
        38.2504         16.7504
 25  8  7 23 10 30.0000000  0  9G01G02G03G28G31G32G04G26G16
  -2030188.79347  -1499192.08245  21406974.9144                   21406975.6134
        47.5004         33.0004
   8452847.60247   6645793.12144  23064395.6884                   23064396.9454
        42.7504         27.7504
 -15455659.23048 -11927571.51647  20445103.3134                   20445104.5394
        48.0004         47.5004
   8177199.49647   6439479.11345  22534659.1724                   22534659.4734
        43.0004         30.2504
  -3620251.25048  -2736679.91447  20341857.8204                   20341856.2154
        49.0004         46.0004
  11955201.75446   9366543.57844  24710594.6644                   24710600.2854
        39.2504         28.5004
 -14136412.65247 -10922214.23044  22031960.0164                   22031962.2274
        42.5004         28.7504
 -16748005.09047 -12978109.09846  22096560.8674                   22096564.3754
        43.2504         38.0004
  28115635.25446  21989111.37542  24065804.8524                   24065811.5084
        38.0004         17.7504
 25  8  7 23 11  0.0000000  0  9G01G02G03G28G31G32G04G26G16
  -2237048.39847  -1660381.42245  21367610.5864                   21367611.3674
        47.5004         33.5004
   8279496.59847   6510714.21944  23031407.9774                   23031409.7664
        42.7504         27.5004
 -15764566.64148 -12168278.56247  20386320.1884                   20386321.9384
        49.0004         47.5004
   8008029.60947   6307658.35545  22502468.2034                   22502467.9104
        43.5004         30.5004
  -3832740.91848  -2902256.28947  20301422.4144                   20301420.6644
        48.7504         45.7504
  11771148.08646   9223125.07845  24675572.4064                   24675576.6174
        41.2504         32.2504
 -14447652.50847 -11164738.70344  21972733.8444                   21972735.0744
        43.5004         29.5004
 -17065117.75847 -13225209.77746  22036216.4774                   22036220.1644
        43.7504         38.0004
  27756519.48446  21709281.26642  23997466.7274                   23997473.4224
        36.5004         16.7504
 25  8  7 23 11 30.0000000  0  9G01G02G03G28G31G32G04G26G16
   -867988.56647   -593581.59845  21628134.2424                   21628135.2934
        47.5004         33.0004
   9681744.47747   7603374.69944  23298247.2894                   23298248.6604
        42.2504         27.0004
 -14497672.26648 -11181088.10547  20627401.8984                   20627403.1684
        49.5004         47.5004
   9414520.56347   7403625.28545  22770115.2114                   22770114.4024
        45.0004         30.5004
  -2469288.21948  -1839825.62147  20560878.7424                   20560877.1174
        49.2504         45.7504
  13162534.00446  10307321.75044  24940345.1804                   24940346.9924
        41.5004         28.7504
 -13183330.44147 -10179552.58244  22213325.9384                   22213327.4924
        45.2504         29.7504
 -15806376.14547 -12244372.06246  22275747.2814                   22275750.6524
        44.0004         38.2504
  28972815.00046  22657044.39842  24228919.1954                   24228926.7854
        36.7504         17.7504
 25  8  7 23 12  0.0000000  0  9G01G02G03G28G31G32G04G26G16
  -1073864.73047   -754004.63345  21588957.0084                   21588957.9844
        47.0004         33.5004
   9508737.31347   7468563.71544  23265325.7974                   23265326.7854
        42.5004         28.0004
 -14805833.92648 -11421214.04347  20568760.7114                   20568762.5984
        49.5004         47.5004
   9245819.04347   7272169.51645  22738011.9774                   22738010.9024
        44.7504         31.0004
  -2680748.96948  -2004600.24247  20520639.1644                   20520636.9414
        49.7504         46.0004
  12978507.82046  10163924.60244  24905325.5234                   24905328.8094
        38.5004         27.5004
 -13494306.83247 -10421871.76244  22154149.2194                   22154150.6054
        44.7504         29.2504
 -16122638.04347 -12490809.80546  22215564.3984                   22215568.0944
        43.5004         38.7504
  28613661.47346  22377184.86343  24160575.0474                   24160580.7234
        37.2504         18.2504
 25  8  7 23 12 30.0000000  0  9G01G02G03G28G31G32G04G26G16
  -1279251.44547   -914046.27745  21549873.6884                   21549874.4694
        47.0004         32.7504
   9335898.61746   7333884.00844  23232435.3444                   23232436.9844
        41.7504         27.7504
 -15113618.34448 -11661046.02047  20510191.5474                   20510192.8364
        49.7504         47.7504
   9077349.00047   7140894.10945  22705952.7664                   22705952.5824
        44.2504         30.0004
  -2891697.78948  -2168975.95747  20480497.0554                   20480495.1254
        49.7504         46.0004
  12794496.53146  10020539.13344  24870308.7584                   24870313.7154
        40.2504         29.5004
 -13805150.60547 -10664087.59844  22094997.2584                   22094998.9574
        45.0004         28.5004
 -16438469.31647 -12736911.99646  22155462.9064                   22155467.2344
        44.0004         39.2504
  28254494.88346  22097315.17242  24092227.1414                   24092233.1804
        37.2504         17.7504
 25  8  7 23 13  0.0000000  0  9G01G02G03G28G31G32G04G26G16
  -1484150.53147  -1073707.95745  21510882.4614                   21510883.3134
        47.0004         33.0004
   9163226.25447   7199333.86744  23199577.5704                   23199578.7624
        42.7504         27.0004
 -15421023.00448 -11900582.08247  20451693.7974                   20451695.6454
        50.0004         47.5004
   8909108.31647   7009797.44144  22673936.9844                   22673937.9694
        43.0004         29.7504
  -3102136.06248  -2332953.84447  20440452.0474                   20440450.3754
        49.5004         45.7504
  12610500.60946   9877165.62144  24835294.7584                   24835298.6914
        37.5004         26.5004
 -14115861.53547 -10906199.92244  22035871.0234                   22035872.5434
        45.0004         29.2504
 -16753866.85247 -12982676.21946  22095445.2894                   22095449.0554
        43.7504         39.0004
  27895318.59446  21817437.89143  24023878.1724                   24023884.2424
        38.5004         18.2504
 25  8  7 23 13 30.0000000  0  9G01G02G03G28G31G32G04G26G16
  -1688563.75847  -1232991.03145  21471984.3984                   21471984.9774
        46.5004         33.0004
   8990718.01647   7064911.64144  23166750.2894                   23166751.0314
        42.5004         27.7504
 -15728045.24648 -12139820.16047  20393269.8674                   20393270.9694
        49.7504         47.5004
   8741094.91847   6878877.87944  22641965.4384                   22641965.3364
        42.5004         29.0004
  -3312065.84048  -2496535.50447  20400503.5784                   20400501.7704
        50.0004         46.0004
  12426520.60246   9733804.43444  24800285.8444                   24800288.9384
        40.5004         26.5004
 -14426439.26247 -11148208.46145  21976770.1024                   21976771.2704
        45.0004         30.0004
 -17068827.46547 -13228099.96946  22035509.9454                   22035513.9224
        43.7504         39.5004
  27536136.23446  21537555.89543  23955527.9534                   23955533.7034
        39.0004         18.2504
 25  8  7 23 14  0.0000000  0  9G01G02G03G28G31G32G04G26G16
  -1892494.82047  -1391898.40245  21433176.8914                   21433177.8404
        47.0004         33.2504
   8818369.62547   6930613.96944  23133953.8444                   23133955.5634
        43.2504         27.7504
 -16034684.33248 -12378759.67247  20334918.4454                   20334919.7154
        50.0004         47.7504
   8573304.88347   6748132.32844  22610037.0164                   22610036.2384
        43.2504         29.7504
  -3521490.68048  -2659723.69547  20360651.5234                   20360649.5944
        49.7504         45.7504
  12242555.00846   9590454.55544  24765276.6954                   24765283.2974
        37.5004         28.2504
 -14736885.38747 -11390114.44544  21917693.8834                   21917695.4884
        45.5004         28.5004
 -17383349.82047 -13473182.21946  21975658.8134                   21975662.5554
        44.0004         39.5004
  27176949.22746  21257670.23042  23887177.0394                   23887182.1094
        39.2504         17.7504
 25  8  7 23 14 30.0000000  0  9G01G02G03G28G31G32G04G26G16
   -520519.18447   -322826.53945  21694255.7974                   21694256.2774
        46.5004         32.2504
  10221604.04347   8024043.18444  23400981.0084                   23400981.5044
        42.7504         27.2504
 -14765507.82448 -11389790.93047  20576434.5704                   20576435.9384
        49.7504         47.7504
   9981161.30947   7845163.28944  22877942.7814                   22877942.6604
        44.0004         29.5004
  -2154986.12148  -1594914.95747  20620688.3054                   20620687.0314
        49.0004         45.7504
  13634030.27746  10674720.84844  25030066.8204                   25030072.0204
        38.7504         28.0004
 -13471769.57047 -10404309.81644  22158437.6254                   22158438.8634
        44.2504         28.5004
 -16122000.72747 -12490312.69146  22215685.4774                   22215689.0704
        44.2504         39.5004
  28393192.54346  22205392.64842  24118619.2424                   24118625.4774
        39.5004         17.2504
 25  8  7 23 15  0.0000000  0  9G01G02G03G28G31G32G04G26G16
   -723489.69947   -480985.43045  21655631.6884                   21655632.5354
        46.5004         32.7504
  10049569.73047   7889990.25044  23368243.6644                   23368245.2774
        42.7504         26.2504
 -15071371.05948 -11628125.88747  20518230.5394                   20518232.0394
        49.5004         47.7504
   9813813.46147   7714762.33644  22846097.5474                   22846097.4264
        44.0004         28.5004
  -2363405.17248  -1757319.43047  20581027.8594                   20581025.9534
        49.2504         45.7504
  13450097.02346  10531396.24245  24995066.2504                   24995071.4384
        40.7504         32.5004
 -13781949.75447 -10646008.59444  22099412.0004                   22099413.3914
        45.5004         29.0004
 -16435635.46947 -12734703.30146  22156002.3834                   22156006.0044
        43.7504         39.2504
  28034008.78946  21925509.52042  24050269.2194                   24050274.5784
        39.2504         17.7504
 25  8  7 23 15 30.0000000  0  9G01G02G03G28G31G32G04G26G16
   -925982.93447   -638772.41845  21617098.7734                   21617099.5394
        47.0004         32.2504
   9877688.66847   7756056.72344  23335536.3834                   23335537.3284
        43.0004         26.2504
 -15376842.60548 -11866155.63747  20460101.2664                   20460102.4964
        50.0004         47.7504
   9646683.50447   7584531.14844  22814293.3984                   22814293.8484
        43.0004         29.7504
  -2571324.19948  -1919334.27047  20541461.9304                   20541460.3594
        49.2504         45.7504
  13266180.61746  10388084.59444  24960068.3594                   24960071.9144
        39.2504         29.2504
 -14091996.62547 -10887603.47344  22040411.7424                   22040413.4694
        45.2504         29.5004
 -16748821.88747 -12978744.55546  22096405.0554                   22096408.2274
        43.2504         39.0004
  27674831.71546  21645631.59443  23981919.9844                   23981925.7544
        38.5004         18.2504
 25  8  7 23 16  0.0000000  0  9G01G02G03G28G31G32G04G26G16
  -1128002.69547   -796190.46545  21578655.3524                   21578656.4734
        47.0004         33.0004
   9705956.60947   7622239.29344  23302856.8674                   23302857.3014
        43.0004         25.5004
 -15681921.89848 -12103879.73047  20402047.0864                   20402047.7504
        50.0004         47.7504
   9479767.35947   7454466.59444  22782530.3674                   22782530.9144
        43.0004         28.5004
  -2778746.96148  -2080962.40247  20501990.8364                   20501988.9534
        49.5004         45.5004
  13082279.47746  10244784.92644  24925073.3284                   24925075.4884
        41.0004         26.0004
 -14401911.85547 -11129095.77044  21981437.0394                   21981438.4384
        45.0004         29.5004
 -17061558.82847 -13222435.56646  22036892.8054                   22036896.5124
        44.2504         39.5004
  27315663.29346  21365760.43843  23913572.3364                   23913577.4224
        39.0004         18.5004
 25  8  7 23 16 30.0000000  0  9G01G02G03G28G31G32G04G26G16
  -1329550.85547   -953241.03145  21540302.2734                   21540302.8874
        46.7504         32.5004
   9534371.43047   7488536.30944  23270205.5704                   23270207.0744
        43.0004         26.7504
 -15986606.16848 -12341296.01647  20344066.6484                   20344068.8244
        50.7504         47.7504
   9313063.12547   7324567.13744  22750807.7424                   22750807.7194
        42.5004         29.2504
  -2985675.38748  -2242205.33247  20462613.8284                   20462611.7384
        49.7504         45.5004
  12898394.39545  10101497.80543  24890078.3674                   24890084.8094
        34.2504         23.5004
 -14711694.96147 -11370485.11744  21922487.4144                   21922488.8714
        45.0004         29.5004
 -17373843.10547 -13465773.85946  21977467.3984                   21977470.3204
        44.5004         38.7504
  26956506.70346  21085898.46143  23845225.8204                   23845231.7234
        38.2504         18.5004
 25  8  7 23 17  0.0000000  0  9G01G02G03G28G31G32G04G26G16
  -1530630.59047  -1109926.58245  21502038.2734                   21502039.1054
        46.2504         33.0004
   9362929.14847   7354944.69144  23237580.7034                   23237582.4344
        43.0004         27.7504
 -16290894.25048 -12578403.58647  20286163.0004                   20286164.1644
        50.0004         47.7504
   9146567.37147   7194830.14145  22719125.2504                   22719125.5944
        43.5004         30.0004
  -3192112.57448  -2403065.48047  20423329.9224                   20423328.1804
        49.2504         45.7504
  12714524.41046   9958222.35544  24855090.5234                   24855097.1764
        37.0004         29.0004
 -15021347.02047 -11611772.35544  21863562.0164                   21863563.6524
        44.0004         29.0004
 -17685672.95347 -13708758.05146  21918128.0554                   21918131.6134
        43.2504         39.5004
  26597364.46946  20806047.67242  23776884.1094                   23776889.1804
        38.5004         17.2504
 25  8  7 23 17 30.0000000  0  9G01G02G03G28G31G32G04G26G16
   -155814.82047    -38641.62145  21763656.9224                   21763657.7624
        46.7504         33.5004
  10767055.60947   8449068.93844  23504776.8984                   23504779.4884
        42.2504         26.7504
 -15019351.01648 -11587590.65247  20528129.3984                   20528130.8484
        49.7504         47.7504
  10555706.02347   8292860.24245  22987275.1804                   22987275.0314
        44.0004         30.2504
  -1822631.20348  -1335937.14847  20683933.8594                   20683931.8914
        49.7504         45.5004
  14106098.60546  11042565.87543  25119898.8594                   25119901.9654
        37.7504         22.5004
 -13755434.96547 -10625347.28544  22104457.3914                   22104458.3634
        43.7504         29.0004
 -16421612.61347 -12723775.86746  22158670.4224                   22158673.7624
        43.0004         39.5004
  27813674.46946  21753821.98042  24008338.9614                   24008344.7034
        38.7504         17.2504
 25  8  7 23 18  0.0000000  0  9G01G02G03G28G31G32G04G26G16
   -355961.37547   -194600.03545  21725570.3754                   21725571.1804
        46.0004         33.5004
  10595894.52747   8315696.46144  23472206.6724                   23472207.9884
        42.5004         25.5004
 -15322836.66848 -11824072.95348  20470378.2814                   20470379.5784
        49.7504         48.0004
  10389623.45747   8163445.21144  22955671.3674                   22955669.9774
        45.0004         29.2504
  -2028089.41048  -1496034.46147  20644836.2814                   20644834.7504
        49.0004         45.5004
  13922262.78146  10899316.94544  25084915.8204                   25084921.9964
        39.0004         27.7504
 -14064821.58647 -10866427.68044  22045583.0554                   22045584.2704
        45.5004         28.5004
 -16732522.28147 -12966043.03546  22099506.2274                   22099509.6564
        44.0004         39.2504
  27454574.04346  21474003.75443  23940004.4844                   23940009.8484
        38.5004         18.2504
 25  8  7 23 18 30.0000000  0 10G01G02G03G09G28G31G32G04G26G16
   -555646.21947   -350198.65645  21687571.4614                   21687572.6644
        45.7504         32.5004
  10424868.39547   8182429.05544  23439662.7894                   23439663.6414
        43.0004         25.7504
 -15625919.22348 -12060241.15247  20412703.2584                   20412704.6954
        49.7504         47.7504
  51448068.07456  40174670.46155  25019927.7424                   25019935.6334
        38.0004         30.5004
  10223742.44547   8034187.21544  22924105.0634                   22924104.6414
        43.0004         28.7504
  -2233063.07848  -1655754.21147  20605831.0944                   20605828.8874
        49.0004         45.2504
  13738442.86046  10756080.60044  25049936.6024                   25049941.7774
        39.2504         29.2504
 -14374076.96147 -11107405.82044  21986733.8444                   21986734.7774
        45.0004         29.0004
 -17042969.23447 -13207949.65246  22040429.9694                   22040433.2464
        44.0004         39.0004
  27095498.04346  21194204.59443  23871675.3204                   23871679.8674
        39.7504         19.0004
 25  8  7 23 19  0.0000000  0 10G01G02G03G09G28G31G32G04G26G16
   -754874.69947   -505441.68445  21649659.5314                   21649660.1914
        45.2504         32.5004
  10253971.74646   8049262.60544  23407141.6254                   23407143.7814
        41.5004         25.2504
 -15928599.39148 -12296095.80547  20355105.5784                   20355106.6604
        50.0004         47.7504
  51113649.11346  39914084.46545  24956288.7664                   24956297.7464
        38.2504         30.7504
  10058057.61747   7905082.14544  22892574.7814                   22892575.8914
        42.0004         28.2504
  -2437557.61748  -1815100.61347  20566916.6724                   20566915.3754
        49.2504         45.2504
  13554636.17646  10612854.53944  25014959.7344                   25014964.2464
        39.0004         29.0004
 -14683204.05147 -11348283.98044  21927908.5234                   21927910.0204
        45.2504         28.7504
 -17352953.77347 -13449495.94946  21981441.9144                   21981445.3284
        44.2504         39.5004
  26736446.56346  20914424.51242  23803349.2274                   23803353.9414
        39.5004         17.7504
 25  8  7 23 19 30.0000000  0 10G01G02G03G09G28G31G32G04G26G16
   -953652.58647   -660333.59045  21611833.2114                   21611834.6724
        45.2504         32.7504
  10083198.26646   7916192.12144  23374644.3914                   23374646.2774
        40.7504         25.5004
 -16230878.50048 -12531637.94948  20297583.3754                   20297584.8484
        50.5004         48.0004
  50779238.28146  39653504.78545  24892652.6334                   24892661.4304
        37.7504         30.5004
   9892563.25847   7776125.42644  22861083.4534                   22861082.8984
        43.0004         28.0004
  -2641578.15648  -1974077.66447  20528093.5004                   20528091.6334
        49.0004         45.5004
  13370839.27746  10469636.10944  24979984.2664                   24979987.7624
        38.7504         25.2504
 -14992206.34447 -11589064.90644  21869107.5704                   21869108.5704
        45.2504         29.2504
 -17662476.71947 -13690682.56646  21922541.2814                   21922544.8984
        44.5004         38.7504
  26377419.44946  20634663.43443  23735028.7584                   23735032.8444
        39.7504         19.2504
 25  8  7 23 20  0.0000000  0 10G01G02G03G09G28G31G32G04G26G16
  -1151984.58647   -814878.05545  21574091.8134                   21574093.0084
        45.7504         32.7504
   9912542.76646   7783213.54744  23342169.7034                   23342172.4024
        41.0004         26.0004
 -16532756.59848 -12766867.61747  20240138.0704                   20240139.1764
        49.7504         47.7504
  50444833.40246  39392929.77045  24829017.8594                   24829026.1604
        38.0004         30.7504
   9727254.64847   7647313.46544  22829626.2894                   22829627.1684
        42.0004         28.7504
  -2845129.71548  -2132689.27347  20489358.7274                   20489356.9064
        48.5004         45.2504
  13187050.21146  10326423.72344  24945010.4224                   24945015.4924
        38.2504         28.0004
 -15301086.07047 -11829750.32044  21810329.0474                   21810330.3634
        45.0004         29.5004
 -17971537.73847 -13931509.23846  21863729.7194                   21863732.3444
        44.2504         38.7504
  26018417.73846  20354922.14543  23666712.3984                   23666716.9104
        39.5004         19.2504
 25  8  7 23 20 30.0000000  0 10G01G02G03G09G28G31G32G04G26G16
    225560.07447    258533.30945  21836230.6174                   21836231.2774
        45.0004         32.7504
  11317435.03546   8877934.53144  23609512.3134                   23609514.0554
        40.5004         26.5004
 -15258794.90648 -11774170.17648  20482564.8594                   20482566.0594
        50.0004         48.2504
  51685872.07846  40359973.10245  25065178.4144                   25065187.8244
        38.2504         30.7504
  11137561.46947   8746253.79344  23097999.3674                   23097998.4144
        43.2504         28.2504
  -1472781.39547  -1063326.96147  20750507.6484                   20750506.2584
        47.7504         45.2504
  14578701.72746  11410827.41844  25209832.4534                   25209837.5904
        38.5004         27.2504
 -14034406.50047 -10842727.20344  22051370.3674                   22051371.5234
        45.5004         29.2504
 -16704697.40647 -12944360.83646  22104800.7734                   22104804.0474
        44.5004         39.2504
  27234883.31646  21302817.71143  23898198.2274                   23898202.3954
        39.0004         19.2504
 25  8  7 23 21  0.0000000  0 10G01G02G03G09G28G31G32G04G26G16
     28125.07847    104687.80145  21798659.8754                   21798660.7734
        45.0004         32.2504
  11147020.23846   8745143.52744  23577083.5864                   23577086.0124
        40.5004         25.2504
 -15559852.06648 -12008760.14848  20425275.1954                   20425276.8204
        50.0004         48.0004
  51351491.35546  40099416.90244  25001548.2814                   25001556.9884
        38.0004         29.5004
  10972629.68047   8617735.46144  23066613.6564                   23066613.5164
        42.5004         29.0004
  -1675389.37948  -1221203.31247  20711953.0084                   20711951.4024
        49.0004         45.2504
  14394941.25446  11267637.25045  25174865.6724                   25174870.6254
        37.7504         30.5004
 -14343028.82847 -11083212.05145  21992641.5704                   21992642.4534
        45.0004         30.7504
 -17012814.34847 -13184451.86746  22046168.2974                   22046170.6954
        45.0004         39.2504
  26875954.73446  21023133.45343  23829895.8204                   23829900.6134
        38.5004         19.7504
 25  8  7 23 21 30.0000000  0 10G01G02G03G09G28G31G32G04G26G16
   -168867.57847    -48813.02345  21761173.4844                   21761174.4184
        45.7504         33.2504
  10976718.82046   8612440.89144  23544676.0314                   23544678.7154
        41.5004         25.7504
 -15860498.00848 -12243029.69548  20368064.4534                   20368065.6024
        50.0004         48.0004
  51017120.15946  39838868.13445  24937918.8754                   24937927.7664
        38.7504         31.2504
  10807880.18047   8489359.20344  23035262.4924                   23035262.6994
        42.0004         29.2504
  -1877531.73848  -1378716.84047  20673486.5234                   20673484.7504
        48.5004         45.5004
  14211192.61346  11124456.44544  25139898.7584                   25139904.9734
        39.0004         29.5004
 -14651524.99647 -11323598.59845  21933936.5784                   21933937.6604
        44.7504         30.0004
 -17320457.91047 -13424174.03946  21987625.2814                   21987628.5394
        44.0004         39.7504
  26517065.37946  20743479.70743  23761601.2894                   23761605.3594
        39.5004         20.0004
 25  8  7 23 22  0.0000000  0 10G01G02G03G09G28G31G32G04G26G16
   -365416.84047   -201968.35945  21723771.4144                   21723772.5004
        45.7504         32.5004
  10806531.71546   8479827.27043  23512291.3444                   23512293.1764
        40.5004         23.7504
 -16160727.11748 -12476974.43448  20310932.8134                   20310933.8054
        49.5004         48.0004
  50682762.00846  39578329.51945  24874292.5004                   24874301.2894
        38.5004         30.0004
  10643314.17247   8361125.90244  23003946.8834                   23003945.7854
        43.5004         27.2504
  -2079207.31648  -1535866.65247  20635109.1094                   20635106.9804
        48.7504         45.0004
  14027459.73846  10981287.91043  25104934.4694                   25104938.3364
        36.7504         22.7504
 -14959891.51647 -11563884.12145  21875256.0474                   21875257.1804
        46.0004         31.0004
 -17627622.09447 -13663522.66846  21929174.2974                   21929176.9104
        44.7504         39.7504
  26158221.44546  20463861.37143  23693315.4774                   23693319.3794
        40.0004         19.5004
 25  8  7 23 22 30.0000000  0 10G01G02G03G09G28G31G32G04G26G16
   -561524.29747   -354779.41845  21686453.6334                   21686454.1994
        45.5004         32.2504
  10636457.25046   8347301.49644  23479927.2814                   23479929.6724
        40.7504         25.2504
 -16460536.34448 -12710591.98848  20253881.0004                   20253882.2734
        49.7504         48.2504
  50348417.67646  39317801.73045  24810669.9144                   24810677.8714
        38.7504         32.0004
  10478930.20747   8233034.41044  22972665.7974                   22972666.5434
        42.7504         27.2504
  -2280417.44948  -1692653.77047  20596819.8914                   20596818.3244
        48.7504         45.0004
  13843743.58246  10838132.31643  25069976.4224                   25069979.0984
        40.0004         21.5004
 -15268127.44947 -11804067.89145  21816600.9384                   21816601.9804
        44.2504         30.5004
 -17934303.39847 -13902495.02346  21870814.2274                   21870817.3714
        43.2504         39.5004
  25799427.39546  20184281.91043  23625038.6804                   23625043.2034
        40.5004         19.5004
 25  8  7 23 23  0.0000000  0 10G01G02G03G09G28G31G32G04G26G16
   -757191.05947   -507247.09045  21649218.7814                   21649220.5124
        45.7504         32.0004
  10466493.75846   8214862.15244  23447584.0474                   23447587.3714
        41.5004         25.7504
 -16759922.22748 -12943879.66848  20196909.5704                   20196910.9774
        49.7504         48.2504
  50014088.46546  39057285.69945  24747048.2584                   24747056.6024
        38.0004         30.5004
  10314727.19147   8105083.97744  22941419.0234                   22941418.8164
        43.7504         27.5004
  -2481163.39548  -1849079.19147  20558619.3914                   20558617.6954
        48.7504         45.2504
  13660045.78146  10694991.00044  25035019.5314                   25035024.0704
        40.5004         27.5004
 -15576231.58647 -12044148.96545  21757970.8134                   21757971.6644
        43.5004         30.5004
 -18240498.07447 -14141088.19146  21812547.0004                   21812550.3984
        43.7504         39.2504
  25440687.91846  19904744.95343  23556772.7584                   23556776.6914
        40.7504         19.5004
 25  8  7 23 23 30.0000000  0 10G01G02G03G09G28G31G32G04G26G16
    623005.66847    568230.82445  21911861.8204                   21911863.2154
        45.7504         32.7504
  11872063.25446   9310110.84044  23715056.0234                   23715058.0784
        41.2504         24.5004
 -15483453.80948 -11949228.93448  20439813.5164                   20439814.8554
        50.0004         48.2504
  51255204.48846  40024389.37944  24983224.4384                   24983233.7974
        37.5004         29.5004
  11726127.19947   9204876.11744  23209999.8134                   23209999.4734
        42.2504         27.0004
  -1106021.91448   -777540.37547  20820299.8524                   20820298.6454
        48.7504         45.0004
  15051791.51646  11779468.05143  25299859.0474                   25299864.6764
        36.0004         22.2504
 -14308774.68047 -11056520.14545  21999159.1884                   21999160.5824
        45.5004         30.2504
 -16970774.47747 -13151693.10246  22054167.6484                   22054170.8674
        45.5004         39.2504
  26657437.40646  20852861.74243  23788312.1884                   23788316.4104
        40.7504         20.2504
 25  8  7 23 24  0.0000000  0 10G01G02G03G09G28G31G32G04G26G16
    428210.12147    416442.01645  21874793.7194                   21874794.7504
        45.0004         32.5004
  11702311.15647   9177836.17244  23682753.6414                   23682755.3794
        42.5004         24.7504
 -15781989.21548 -12181853.90248  20383004.0004                   20383005.6764
        50.0004         48.2504
  50920903.09046  39763895.04345  24919608.3594                   24919616.8444
        38.7504         30.5004
  11562276.53947   9077200.27744  23178819.4694                   23178820.3364
        42.2504         28.5004
  -1305849.02048   -933249.82447  20782273.8444                   20782272.2154
        48.0004         45.0004
  14868128.17646  11636353.72344  25264909.0944                   25264915.0084
        38.7504         27.5004
 -14616617.60947 -11296397.68045  21940579.0634                   21940579.8164
        45.2504         32.0004
 -17275990.91847 -13389524.00846  21996087.1414                   21996089.8794
        45.0004         39.2504
  26298814.34846  20573415.50043  23720068.3134                   23720071.9884
        41.2504         21.5004
 25  8  7 23 24 30.0000000  0 10G01G02G03G09G28G31G32G04G26G16
    233846.75447    264989.98445  21837807.4144                   21837808.8524
        45.2504         32.0004
  11532661.04746   9045641.05544  23650470.5164                   23650472.6804
        41.5004         25.7504
 -16080095.86348 -12414144.77348  20326276.3054                   20326277.4734
        50.0004         48.5004
  50586615.83646  39503411.73445  24855995.3754                   24856004.3874
        38.7504         32.0004
  11398598.94147   8949659.24644  23147672.7344                   23147671.8324
        42.5004         26.7504
  -1505220.18448  -1088603.98047  20744335.0164                   20744333.5394
        48.5004         45.2504
  14684482.78546  11493253.45744  25229962.0864                   25229967.8364
        37.7504         25.5004
 -14924329.62547 -11536173.20345  21882023.0784                   21882024.4104
        45.2504         30.7504
 -17580714.16447 -13626970.61746  21938099.3674                   21938102.7464
        45.5004         39.5004
  25940254.84046  20294018.81343  23651836.7344                   23651840.4694
        40.7504         20.7504
 25  8  7 23 25  0.0000000  0 10G01G02G03G09G28G31G32G04G26G16
     39914.04747    113873.52345  21800903.4614                   21800904.5864
        45.7504         32.5004
  11363111.16446   8913524.00044  23618206.0004                   23618208.5944
        41.5004         25.5004
 -16377770.61348 -12646099.10548  20269630.7584                   20269631.7384
        49.5004         48.5004
  50252343.67246  39242940.19545  24792385.5394                   24792394.3324
        38.5004         30.5004
  11235093.08647   8822252.00044  23116558.8984                   23116558.9774
        42.7504         28.5004
  -1704136.73448  -1243603.89847  20706482.5394                   20706480.8524
        48.0004         44.7504
  14500856.53547  11350167.98043  25195021.6954                   25195022.6954
        42.2504         22.5004
 -15231909.66447 -11775845.89845  21823492.6804                   21823493.2664
        45.5004         30.7504
 -17884940.83247 -13864030.29346  21880207.5944                   21880210.3284
        45.0004         39.7504
  25581763.23846  20014675.01243  23583617.4454                   23583621.2504
        40.0004         20.5004
 25  8  7 23 25 30.0000000  0 10G01G02G03G09G28G31G32G04G26G16
   -153591.10247    -36909.78145  21764080.6954                   21764081.8984
        45.0004         32.2504
  11193658.12146   8781482.39144  23585960.2194                   23585962.8404
        41.5004         25.2504
 -16675011.96148 -12877715.71948  20213067.6484                   20213068.7934
        50.0004         48.5004
  49918086.19946  38982480.06645  24728778.0394                   24728786.2384
        38.0004         30.5004
  11071756.00847   8694976.31644  23085477.0234                   23085476.1414
        42.5004         27.2504
  -1902601.43447  -1398251.72747  20668715.9384                   20668714.1094
        47.7504         45.0004
  14317249.04746  11207097.02344  25160080.8834                   25160085.6334
        38.7504         25.5004
 -15539358.32047 -12015416.19545  21764987.1094                   21764987.8874
        46.0004         31.5004
 -18188669.02347 -14100701.53946  21822409.5084                   21822412.3794
        45.5004         39.7504
  25223342.21146  19735386.20743  23515411.6954                   23515415.9694
        39.7504         22.2504
 25  8  7 23 26  0.0000000  0 10G01G02G03G09G28G31G32G04G26G16
   -346669.98047   -187360.91045  21727338.9224                   21727339.8244
        45.5004         31.7504
  11024300.62546   8649515.23444  23553733.7584                   23553735.7544
        41.7504         25.7504
 -16971816.48448 -13108991.94148  20156587.5004                   20156588.4654
        50.2504         48.5004
  49583844.60946  38722032.35244  24665174.1024                   24665182.2854
        38.2504         29.5004
  10908586.79347   8567831.41044  23054426.7034                   23054427.0474
        42.0004         25.0004
  -2100615.53147  -1552548.43047  20631034.9144                   20631033.3834
        47.7504         44.7504
  14133661.71946  11064041.94944  25125146.3674                   25125150.0204
        40.0004         27.5004
 -15846674.19147 -12254883.03545  21706506.5234                   21706507.4774
        45.0004         31.0004
 -18491894.99247 -14336981.44546  21764707.7894                   21764710.6334
        45.0004         39.7504
  24864996.71146  19456156.23843  23447220.2814                   23447224.8164
        39.7504         19.7504
 25  8  7 23 26 30.0000000  0 10G01G02G03G09G28G31G32G04G26G16
   1036099.42647    890121.67645  21990471.3594                   21990471.9344
        45.5004         32.2504
  12430459.58246   9745223.24644  23821315.7114                   23821318.9884
        40.5004         26.0004
 -15692754.09048 -12112319.93048  20399985.1024                   20399985.8874
        50.0004         48.7504
  50825048.19946  39689204.24645  24901366.8054                   24901375.1524
        37.0004         30.0004
  12321006.69947   9668418.30544  23323201.1334                   23323201.6994
        42.0004         28.5004
   -722756.56247   -478892.09847  20893232.8914                   20893230.9734
        47.5004         44.5004
  15525519.21146  12148606.02344  25390007.1254                   25390013.4454
        37.5004         27.0004
 -14578428.94547 -11266639.91845  21947845.2814                   21947846.2894
        45.7504         31.5004
 -17219188.17647 -13345261.77746  22006895.8134                   22006898.5394
        45.0004         39.7504
  26082160.07046  20404595.51243  23678839.0314                   23678842.8914
        40.2504         21.7504
 25  8  7 23 27  0.0000000  0 10G01G02G03G09G28G31G32G04G26G16
    843862.41047    740326.53545  21953890.1484                   21953890.6134
        45.5004         31.7504
  12261281.69146   9613396.06344  23789122.1484                   23789126.0984
        40.0004         24.2504
 -15988681.71548 -12342912.85548  20343671.6094                   20343672.9104
        50.0004         48.5004
  50490835.46146  39428779.01644  24837768.3984                   24837776.5354
        37.5004         29.5004
  12158163.32447   9541527.28144  23292214.1414                   23292213.4184
        43.0004         27.0004
   -919879.66047   -632494.52747  20855721.3674                   20855719.8594
        47.5004         44.7504
  15341970.03546  12005580.76643  25355079.3674                   25355082.1764
        38.2504         23.0004
 -14885482.24247 -11505902.14145  21889415.2504                   21889416.1334
        45.5004         31.5004
 -17521405.63747 -13580755.83246  21949385.3054                   21949388.6914
        45.7504         40.0004
  25723972.39146  20125488.53943  23610677.9924                   23610681.4884
        39.7504         21.7504
 25  8  7 23 27 30.0000000  0 10G01G02G03G09G28G31G32G04G26G16
    652041.09047    590855.32045  21917387.5394                   21917388.3794
        46.0004         31.7504
  12092188.06346   9481634.50844  23756945.2504                   23756949.3554
        40.5004         26.0004
 -16284169.15248 -12573162.78948  20287442.3204                   20287443.5274
        50.0004         48.7504
  50156635.72746  39168363.89845  24774171.3524                   24774180.1884
        37.5004         30.5004
  11995478.02747   9414759.44544  23261256.0004                   23261256.4964
        42.2504         28.7504
  -1116562.55547   -785753.93047  20818293.6414                   20818292.3984
        47.7504         44.5004
  15158438.89846  11862569.20744  25320154.3914                   25320160.1174
        37.2504         25.5004
 -15192405.54347 -11745063.08245  21831009.8134                   21831011.0474
        45.7504         31.2504
 -17823116.65647 -13815855.26246  21891971.9774                   21891974.6414
        46.0004         40.5004
  25365867.03946  19846445.70343  23542533.0784                   23542536.3244
        39.5004         21.7504
 25  8  7 23 28  0.0000000  0 10G01G02G03G09G28G31G32G04G26G16
    460635.80547    441708.28545  21880964.2814                   21880965.1764
        45.2504         31.7504
  11923179.26246   9349939.05144  23724784.8134                   23724787.7734
        41.0004         25.5004
 -16579211.32848 -12803065.75848  20231297.8754                   20231299.0354
        50.0004         49.0004
  49822452.03946  38907961.28945  24710579.0164                   24710587.0394
        37.5004         31.0004
  11832951.54346   9288115.38344  23230327.9064                   23230327.5274
        41.2504         26.5004
  -1312804.64848   -938669.85947  20780950.2974                   20780948.8054
        48.0004         44.5004
  14974928.94145  11719574.43043  25285231.8524                   25285237.7774
        34.2504         22.0004
 -15499195.84447 -11984120.37145  21772629.6334                   21772630.3014
        45.5004         31.5004
 -18124315.88747 -14050555.89846  21834655.5704                   21834658.4964
        46.0004         40.2504
  25007850.82446  19567472.31343  23474404.3284                   23474407.4344
        39.0004         21.5004
 25  8  7 23 28 30.0000000  0 10G01G02G03G09G28G31G32G04G26G16
    269641.72347    292881.66045  21844619.5704                   21844620.5434
        46.0004         32.2504
  11754250.42646   9218305.93444  23692637.8594                   23692642.2154
        39.7504         25.5004
 -16873808.46948 -13032621.94948  20175237.8054                   20175239.1724
        49.7504         48.5004
  49488282.09446  38647569.40245  24646988.9694                   24646996.1844
        38.7504         30.5004
  11670579.32846   9161591.50844  23199430.0554                   23199430.4384
        41.7504         28.0004
  -1508610.47348  -1091245.83247  20743690.0314                   20743688.3204
        48.0004         44.5004
  14791438.14145  11576594.41843  25250316.5394                   25250322.0234
        34.5004         22.0004
 -15805855.37147 -12223075.77045  21714273.7034                   21714275.0004
        45.7504         31.7504
 -18425003.31647 -14284857.73446  21777436.6334                   21777439.3954
        46.0004         40.0004
  24649924.64546  19288569.06643  23406292.7974                   23406296.2664
        39.2504         22.0004
 25  8  7 23 29  0.0000000  0 10G01G02G03G09G28G31G32G04G26G16
     79057.01247    144374.02345  21808352.6644                   21808353.3714
        46.0004         32.7504
  11585399.21146   9086733.27044  23660506.7424                   23660511.2384
        40.7504         26.2504
 -17167957.68048 -13261829.10548  20119263.2504                   20119264.0784
        50.0004         48.7504
  49154126.87946  38387188.99244  24583400.6884                   24583407.8554
        37.5004         29.5004
  11508360.01247   9035186.79744  23168560.7274                   23168560.6024
        42.0004         27.2504
  -1703981.68748  -1243483.16047  20706512.2424                   20706510.5554
        48.0004         44.5004
  14607967.52346  11433630.14544  25215403.6254                   25215408.4384
        36.7504         25.0004
 -16112383.17647 -12461928.52045  21655943.1804                   21655944.2734
        45.0004         31.5004
 -18725175.74647 -14518758.26646  21720315.3364                   21720318.2774
        45.2504         40.0004
  24292092.76246  19009739.34443  23338199.7114                   23338202.7234
        39.7504         22.5004
 25  8  7 23 29 30.0000000  0  9G01G02G03G09G28G31G04G26G16
   -111122.17247     -3817.62545  21772162.4614                   21772164.1094
        45.5004         31.5004
  11416621.71546   8955218.04344  23628390.6414                   23628393.9964
        40.5004         25.5004
 -17461658.14548 -13490686.59448  20063373.3834                   20063375.1374
        50.5004         48.7504
  48819985.03146  38126818.99245  24519814.9844                   24519822.6454
        37.2504         30.2504
  11346290.09446   8908898.47344  23137719.5004                   23137719.6914
        41.7504         27.5004
  -1898922.17248  -1395384.85247  20669416.0164                   20669414.1994
        48.2504         44.2504
 -16418780.45747 -12700679.57045  21597638.5634                   21597639.0474
        45.0004         31.7504
 -19024832.10947 -14752256.67646  21663292.7034                   21663295.4614
        46.0004         40.0004
  23934357.27346  18730984.71543  23270124.4534                   23270128.1604
        40.5004         22.7504
 25  8  7 23 30  0.0000000  0  9G01G02G03G09G28G31G04G26G16
   1274530.76247   1075911.85945  22035843.6254                   22035844.8834
        45.0004         32.0004
  12823343.84846  10051364.89544  23896080.2664                   23896084.4694
        39.7504         24.5004
 -16179475.12948 -12491582.93048  20307364.9304                   20307366.0394
        49.7504         48.7504
  50061290.78546  39094070.50045  24756027.3134                   24756035.2584
        38.2504         31.7504
  12759795.61347  10010331.31644  23406700.9384                   23406700.1564
        42.7504         27.5004
   -518004.77748   -319345.33247  20932195.8054                   20932194.3634
        48.0004         44.2504
 -15149614.05547 -11711718.65645  21839152.6174                   21839153.3634
        45.5004         31.5004
 -17748537.32047 -13757741.20346  21906163.6024                   21906166.2114
        45.7504         40.2504
  25152156.64846  19679919.57043  23501863.9534                   23501867.0984
        40.5004         21.2504
 25  8  7 23 30 30.0000000  0  9G01G02G03G09G28G31G04G26G16
   1085162.96547    928352.45345  21999808.1174                   21999809.7504
        45.0004         31.2504
  12654714.27046   9919964.94144  23863991.8754                   23863996.3484
        40.2504         25.5004
 -16472263.65248 -12719729.82448  20251648.9534                   20251650.3244
        49.7504         48.7504
  49727184.26646  38833728.03545  24692448.9774                   24692456.6054
        38.2504         30.7504
  12598026.14147   9884277.08644  23375917.1174                   23375917.6564
        42.2504         26.5004
   -712082.69948   -470574.90247  20895264.0474                   20895262.5124
        48.7504         44.5004
 -15455741.75047 -11950259.63345  21780898.3594                   21780899.0634
        46.2504         31.7504
 -18047146.50047 -13990423.62546  21849340.1174                   21849342.7344
        45.7504         40.5004
  24794632.94546  19401329.95343  23433829.3834                   23433832.1954
        41.2504         21.7504
 25  8  7 23 31  0.0000000  0  9G01G02G03G09G28G31G04G26G16
    896202.75047    781110.64545  21963850.1094                   21963851.4454
        46.0004         31.7504
  12486160.58246   9788624.10544  23831918.2814                   23831920.8834
        40.2504         26.2504
 -16764587.36748 -12947514.52048  20196021.9064                   20196023.0044
        50.0004         48.7504
  49393101.29346  38573403.91045  24628873.9694                   24628882.7584
        38.2504         30.7504
  12436409.41046   9758341.92244  23345161.6564                   23345162.5704
        40.0004         27.0004
   -905727.27048   -621466.80147  20858415.1644                   20858413.3674
        48.0004         44.7504
 -15761728.67647 -12188690.92645  21722671.1414                   21722671.6684
        45.5004         32.2504
 -18345222.87947 -14222690.86746  21792618.3054                   21792621.0594
        45.7504         40.5004
  24437225.74646  19122831.11743  23365817.1954                   23365819.7074
        40.2504         22.5004
 25  8  7 23 31 30.0000000  0  9G01G02G03G09G28G31G04G26G16
    707647.30547    634184.24245  21927969.3984                   21927970.7154
        45.5004         31.5004
  12317679.76246   9657340.07844  23799856.7814                   23799860.6644
        39.2504         26.2504
 -17056444.28548 -13174935.48448  20140483.2034                   20140484.0514
        49.5004         49.0004
  49059041.77346  38313098.05945  24565305.4614                   24565312.7544
        37.5004         30.0004
  12274943.05947   9632523.93044  23314436.8284                   23314436.6214
        42.0004         27.7504
  -1098940.97348   -772022.94147  20821647.1334                   20821645.5784
        48.0004         44.5004
 -16067574.84847 -12427012.53545  21664470.3914                   21664470.8554
        45.7504         32.0004
 -18642764.34447 -14454541.29746  21735997.7344                   21736000.7814
        45.7504         40.5004
  24079938.63346  18844425.87543  23297827.4614                   23297830.1024
        40.5004         22.2504
 25  8  7 23 32  0.0000000  0  9G01G02G03G09G28G31G04G26G16
    519490.56647    487568.51245  21892164.4694                   21892165.9884
        45.5004         30.7504
  12149265.84446   9526108.14144  23767808.4304                   23767812.1914
        40.0004         25.5004
 -17347835.85548 -13401993.83648  20085033.2974                   20085034.2384
        49.2504         48.7504
  48725002.35946  38052807.84844  24501739.1174                   24501746.7734
        38.0004         29.5004
  12113621.52747   9506818.78544  23283738.4224                   23283738.2304
        42.5004         27.5004
  -1291729.93047   -922248.12947  20784960.7664                   20784959.4884
        47.5004         44.5004
 -16373283.59447 -12665227.06245  21606295.3134                   21606296.3444
        45.7504         32.7504
 -18939772.07447 -14685975.82446  21679478.5084                   21679481.6844
        46.0004         40.5004
  23722772.00046  18566114.49243  23229860.2194                   23229862.7734
        40.2504         21.7504
 25  8  7 23 32 30.0000000  0  9G01G02G03G09G28G31G04G26G16
    331727.99247    341259.93445  21856434.4384                   21856435.6134
        45.5004         31.0004
  11980914.43846   9394924.98044  23735773.3594                   23735777.1294
        39.5004         24.5004
 -17638761.89148 -13628689.43748  20029672.0704                   20029672.7384
        49.5004         48.7504
  48390981.25846  37792531.89145  24438178.2664                   24438184.3954
        37.7504         30.5004
  11952440.77347   9381223.34044  23253065.8054                   23253067.1454
        42.0004         26.0004
  -1484098.31648  -1072145.59047  20748354.3524                   20748352.6254
        48.0004         44.5004
 -16678856.66447 -12903335.87145  21548146.4694                   21548147.4694
        45.7504         32.5004
 -19236245.76247 -14916994.22746  21623061.9614                   21623064.8554
        45.5004         40.0004
  23365726.91046  18287897.82443  23161916.7274                   23161919.2464
        40.2504         22.5004
 25  8  7 23 33  0.0000000  0  9G01G02G03G09G28G31G04G26G16
   1719782.28147   1422860.58245  22120572.7734                   22120574.2234
        45.7504         31.2504
  13388047.47746  10491391.98443  24003542.3754                   24003545.6764
        40.5004         22.5004
 -16353791.57048 -12627413.85248  20274193.4454                   20274194.4884
        50.2504         48.7504
  49632408.78946  38759878.23445  24674412.3674                   24674420.0434
        38.5004         30.0004
  13366823.16447  10483339.45344  23522213.6334                   23522214.7704
        42.5004         27.2504
   -100623.02048      5887.10247  21011621.0164                   21011619.7504
        48.2504         44.2504
 -15408864.60247 -11913731.59845  21789818.0314                   21789819.0984
        45.7504         32.7504
 -17956754.20747 -13919987.75846  21866540.9454                   21866543.7814
        45.5004         40.5004
  24584238.07446  19237387.32843  23393790.9384                   23393794.6174
        40.0004         23.2504
 25  8  7 23 33 30.0000000  0  9G01G02G03G09G28G31G04G26G16
   1532798.37147   1277158.75845  22084990.6334                   22084992.0904
        45.0004         30.5004
  13219811.01646  10360298.34044  23971527.4534                   23971531.8324
        39.5004         26.0004
 -16643782.16048 -12853380.53148  20219010.4924                   20219011.4694
        49.2504         49.0004
  49298422.94546  38499629.74245  24610857.3834                   24610864.5864
        38.5004         30.7504
  13205915.93447  10357957.11744  23491594.7424                   23491594.6914
        43.0004         26.0004
   -292158.96148   -143361.70347  20975173.1174                   20975171.5824
        48.2504         44.5004
 -15714167.48847 -12151629.87945  21731721.6254                   21731721.7544
        45.5004         32.5004
 -18252154.84047 -14150170.00446  21810327.7974                   21810330.7774
        45.5004         40.5004
  24227445.24246  18959367.21143  23325895.8834                   23325897.7854
        39.5004         23.0004
 25  8  7 23 34  0.0000000  0  9G01G02G03G09G28G31G04G26G16
   1346196.00847   1131754.23845  22049481.6484                   22049483.0124
        45.2504         31.0004
  13051624.38746  10229243.51644  23939523.1884                   23939527.1994
        40.2504         24.0004
 -16933305.82848 -13078983.37548  20163915.7274                   20163916.9344
        49.0004         49.0004
  48964451.08246  38239392.12944  24547304.0944                   24547311.7154
        36.5004         29.2504
  13045138.45747  10232675.87144  23461000.1724                   23461001.0204
        42.2504         25.5004
   -483286.25448   -292292.07847  20938802.8524                   20938800.8324
        48.5004         44.5004
 -16019338.84847 -12389425.68745  21673648.9614                   21673649.4494
        46.0004         32.7504
 -18547019.52047 -14379934.62146  21754217.1484                   21754219.9344
        45.7504         40.7504
  23870780.07446  18681446.58643  23258024.6254                   23258027.0474
        40.0004         22.5004
 25  8  7 23 34 30.0000000  0  9G01G02G03G09G28G31G04G26G16
   1159974.14847    986646.22345  22014044.8524                   22014046.6174
        45.2504         30.5004
  12883486.81646  10098226.94544  23907528.3594                   23907531.7194
        40.7504         24.7504
 -17222358.84848 -13304219.48048  20108910.6094                   20108911.4184
        48.7504         48.7504
  48630495.10546  37979166.91445  24483754.5554                   24483761.6134
        37.0004         31.5004
  12884490.31347  10107495.46944  23430429.8284                   23430429.8954
        43.0004         26.7504
   -674006.18448   -440905.02347  20902510.1724                   20902508.3914
        48.0004         44.0004
 -16324376.83647 -12627117.57445  21615601.7344                   21615602.5164
        45.7504         33.0004
 -18841344.39847 -14609278.61746  21698208.8674                   21698211.2114
        45.5004         40.5004
  23514247.78946  18403629.48043  23190178.5234                   23190180.7624
        39.7504         22.5004
 25  8  7 23 35  0.0000000  0  9G01G02G03G09G28G31G04G26G16
    974129.97747    841832.48845  21978679.4844                   21978681.0824
        45.0004         30.5004
  12715395.35246   9967246.24644  23875540.9774                   23875545.2274
        40.7504         24.0004
 -17510939.41848 -13529087.44548  20053995.4694                   20053996.7814
        49.0004         48.7504
  48296554.76246  37718953.87145  24420207.3134                   24420214.5664
        37.2504         30.0004
  12723969.29346   9982414.09844  23399883.7274                   23399883.1644
        41.5004         25.5004
   -864320.85948   -589202.19147  20866294.1564                   20866292.6134
        48.5004         44.2504
 -16629281.46147 -12864705.53145  21557580.0314                   21557580.9844
        46.5004         32.2504
 -19135127.50047 -14838200.44546  21642303.9924                   21642306.5514
        45.2504         40.5004
  23157851.82846  18125918.60543  23122357.6254                   23122360.7074
        39.5004         22.7504
 25  8  7 23 35 30.0000000  0  9G01G02G03G09G28G31G04G26G16
    788659.78547    697310.18845  21943386.2664                   21943387.2894
        45.7504         31.5004
  12547346.14146   9836298.57444  23843562.6884                   23843567.0434
        40.0004         25.5004
 -17799046.46148 -13753586.43048  19999170.3444                   19999171.5904
        49.2504         48.7504
  47962629.32846  37458752.45744  24356663.7814                   24356670.9844
        37.7504         29.5004
  12563572.28946   9857429.34844  23369360.6094                   23369360.8524
        41.0004         25.5004
  -1054233.74648   -737186.27047  20830154.7894                   20830153.6484
        48.2504         44.2504
 -16934053.44147 -13102190.14845  21499584.2974                   21499584.4144
        46.2504         32.5004
 -19428367.71947 -15066699.24646  21586501.8134                   21586504.6844
        45.7504         40.5004
  22801594.61746  17848315.83243  23054564.3914                   23054566.4924
        40.0004         22.2504
 25  8  7 23 36  0.0000000  0  9G01G02G03G09G28G31G04G26G16
   2178985.66447   1780680.93845  22207956.3914                   22207957.7664
        45.7504         31.0004
  13954761.08646  10932985.20344  24111384.9694                   24111389.6484
        40.0004         25.2504
 -16511249.91448 -12750108.59048  20244229.6094                   20244230.8054
        49.7504         49.0004
  49204148.69546  38426170.36344  24592916.4694                   24592923.6484
        38.0004         29.5004
  13978721.15647  10960142.65244  23638655.2194                   23638655.5784
        42.5004         24.5004
    331677.47748    342744.52747  21093885.0314                   21093883.9384
        48.5004         44.0004
 -15663263.92647 -12111964.50845  21741407.5474                   21741408.4344
        46.2504         32.5004
 -18145634.59047 -14067166.87546  21830597.9924                   21830600.7114
        46.0004         40.7504
  24020910.07046  18798432.02043  23286591.9774                   23286594.7934
        40.2504         22.7504
 25  8  7 23 36 30.0000000  0  9G01G02G03G09G28G31G04G26G16
   1994253.50047   1636733.72745  22172802.9224                   22172804.8404
        46.0004         31.0004
  13786787.53146  10802096.42244  24079421.6094                   24079425.5664
        40.0004         25.5004
 -16798405.92248 -12973866.50048  20189585.9614                   20189587.4384
        49.2504         49.0004
  48870251.65246  38165991.09044  24529378.3054                   24529384.8914
        37.7504         28.7504
  13818564.13747  10835344.93844  23608178.2504                   23608177.9694
        42.0004         26.5004
    142558.66048    195379.20747  21057897.0474                   21057895.2114
        48.7504         44.2504
 -15967771.99247 -12349243.48045  21683461.5634                   21683462.1454
        46.0004         32.7504
 -18437784.65247 -14294816.20746  21775003.1484                   21775005.9574
        46.0004         40.5004
  23664939.17646  18521052.34443  23218852.8284                   23218855.2704
        40.0004         22.5004
 25  8  7 23 37  0.0000000  0  9G01G02G03G09G28G31G04G26G16
   1809887.60947   1493071.91445  22137719.5084                   22137720.9964
        44.5004         30.5004
  13618849.29346  10671235.16844  24047463.9924                   24047468.2894
        39.0004         24.0004
 -17085082.15248 -13197250.56248  20135033.3674                   20135034.8634
        50.0004         49.0004
  48536370.32846  37905824.01644  24465842.7734                   24465849.1454
        36.5004         28.5004
  13658525.39847  10710639.34444  23577723.5234                   23577724.5864
        42.0004         24.0004
    -46165.27748     48321.57047  21021984.4534                   21021982.6764
        48.0004         44.0004
 -16272146.42247 -12586418.32045  21625540.6724                   21625541.2424
        46.0004         32.2504
 -18729385.15247 -14522037.31246  21719513.7974                   21719516.6994
        46.2504         40.7504
  23309118.13346  18243789.44543  23151142.1954                   23151144.8054
        40.0004         22.2504
 25  8  7 23 37 30.0000000  0  9G01G02G03G09G28G31G04G26G16
   1625884.46547   1349692.77045  22102704.9844                   22102706.6994
        46.5004         30.7504
  13450942.56346  10540398.39143  24015513.3284                   24015516.6054
        39.5004         22.5004
 -17371277.41848 -13420259.84048  20080572.3134                   20080573.3954
        49.2504         49.0004
  48202504.04746  37645668.71144  24402310.6174                   24402316.3404
        37.7504         28.0004
  13498602.05146  10586023.69544  23547290.4144                   23547292.2194
        41.5004         24.5004
   -234497.89548    -98431.13347  20986145.6254                   20986143.9534
        48.5004         44.0004
 -16576387.85547 -12823489.54745  21567645.7894                   21567646.1564
        46.5004         33.5004
 -19020434.92247 -14748829.28146  21664128.8674                   21664131.2734
        46.0004         40.7504
  22953449.83246  17966645.53543  23083460.6024                   23083462.7424
        40.2504         22.7504
 25  8  7 23 38  0.0000000  0  9G01G02G03G09G28G31G04G26G16
   1442241.03547   1206593.92245  22067759.3364                   22067760.4574
        45.7504         30.7504
  13283064.78546  10409584.27044  23983566.8984                   23983571.6644
        40.2504         25.0004
 -17656990.12548 -13642893.10548  20026203.1414                   20026204.2194
        48.5004         49.0004
  47868652.69946  37385525.03544  24338780.2034                   24338786.0744
        36.7504         28.7504
  13338791.81647  10461496.17244  23516880.2424                   23516881.7974
        42.2504         26.2504
   -422441.85248   -244880.98447  20950381.0234                   20950379.4064
        48.0004         43.7504
 -16880496.30947 -13060457.13745  21509775.7584                   21509776.2734
        46.5004         32.5004
 -19310932.20747 -14975190.75046  21608849.1334                   21608851.4384
        45.5004         40.7504
  22597937.39146  17689623.12543  23015808.6644                   23015810.7974
        40.0004         22.5004
 25  8  7 23 38 30.0000000  0  9G01G02G03G09G28G31G04G26G16
   1258954.55947   1063773.20745  22032880.8984                   22032882.1454
        46.0004         31.0004
  13115213.20746  10278790.48443  23951625.7504                   23951631.0084
        37.7504         22.5004
 -17942218.27348 -13865148.78548  19971925.8754                   19971927.0664
        49.2504         49.0004
  47534816.42646  37125393.10544  24275252.0704                   24275258.8244
        36.7504         29.0004
  13179092.66046  10337055.21943  23486490.3754                   23486491.4574
        41.5004         23.2504
   -609999.67247   -391029.95747  20914690.1414                   20914688.4414
        47.7504         44.0004
 -17184471.61347 -13297320.97745  21451931.6644                   21451931.4454
        46.2504         33.0004
 -19600875.03147 -15201120.16046  21553674.3054                   21553677.5164
        44.7504         41.0004
  22242584.70746  17412725.15643  22948187.1254                   22948189.5354
        40.5004         21.5004
 25  8  7 23 39  0.0000000  0  9G01G02G03G09G28G31G04G26G16
   2651448.97347   2148833.71545  22297863.3284                   22297865.2774
        45.2504         30.5004
  14522811.23846  11375619.83244  24219483.3834                   24219487.7194
        39.7504         24.2504
 -16651529.93048 -12859417.59048  20217535.8444                   20217536.8134
        49.2504         49.2504
  48776427.02746  38092882.11344  24511523.0474                   24511529.8484
        36.7504         28.0004
  14594928.40646  11440303.77744  23755915.2424                   23755916.0554
        40.5004         25.2504
    778252.91447    690725.29347  21178865.9304                   21178864.1414
        47.5004         43.7504
 -15912882.77347 -12306472.48845  21693906.7344                   21693907.1764
        46.0004         33.0004
 -18314831.26647 -14199008.08246  21798400.5004                   21798403.1334
        46.0004         40.5004
  23462827.46146  18363563.87943  23180391.3674                   23180393.7934
        40.0004         22.7504
 25  8  7 23 39 30.0000000  0  9G01G02G03G09G28G31G04G26G16
   2468868.28147   2006562.96145  22263119.4224                   22263121.3444
        45.7504         31.0004
  14355004.80546  11244861.19144  24187551.0314                   24187555.8284
        40.5004         24.2504
 -16935783.22748 -13080913.65248  20163443.9144                   20163445.0634
        48.2504         49.0004
  48442621.39145  37832774.06344  24448001.0164                   24448007.6644
        35.5004         27.0004
  14435445.43846  11316031.31644  23725566.2194                   23725566.7504
        41.0004         27.0004
    591460.15648    545172.48047  21143320.3054                   21143318.6454
        48.2504         43.7504
 -16216590.88747 -12543128.12945  21636112.3594                   21636113.1844
        46.0004         33.5004
 -18603659.25847 -14424068.78946  21743438.0864                   21743441.1684
        45.2504         40.7504
  23107804.50846  18086922.86343  23112832.2274                   23112834.2584
        40.2504         22.7504
 25  8  7 23 40  0.0000000  0  9G01G02G03G09G28G31G04G26G16
   2286635.73447   1864563.49645  22228441.8134                   22228443.5944
        44.5004         31.0004
  14187216.27746  11114116.59843  24155621.8754                   24155626.5664
        39.5004         23.0004
 -17219546.87548 -13302028.16048  20109445.6804                   20109446.7154
        49.0004         49.0004
  48108830.80145  37572677.68844  24384483.1724                   24384489.6564
        35.2504         29.0004
  14276066.96946  11191840.16044  23695238.5004                   23695238.9614
        41.5004         25.0004
    405045.63347    399914.39547  21107846.6954                   21107845.4614
        47.7504         44.0004
 -16520165.63747 -12779679.83645  21578344.3984                   21578344.8594
        45.2504         32.7504
 -18891927.52047 -14648693.35546  21688582.6414                   21688585.2774
        44.7504         41.0004
  22752951.10246  17810413.93043  23045306.1724                   23045308.0864
        40.2504         22.2504
 25  8  7 23 40 30.0000000  0  9G01G02G03G09G28G31G04G26G16
   2104748.75847   1722833.29345  22193830.4304                   22193831.5234
        44.5004         31.0004
  14019443.46946  10983384.16843  24123696.3674                   24123701.9184
        38.5004         22.5004
 -17502818.72348 -13522759.46148  20055540.7424                   20055541.6724
        49.0004         49.2504
  47775055.55145  37312593.31344  24320968.5164                   24320973.7344
        35.0004         27.7504
  14116791.17646  11067729.13344  23664929.5084                   23664929.5434
        40.2504         25.0004
    219006.98447    254949.20347  21072444.7814                   21072443.2624
        47.0004         43.7504
 -16823606.55547 -13016127.27045  21520601.2274                   21520601.6914
        45.2504         33.5004
 -19179633.93447 -14872880.11346  21633834.0634                   21633836.5824
        46.0004         41.0004
  22398271.23446  17534040.21143  22977812.8054                   22977814.4264
        40.7504         22.0004
 25  8  7 23 41  0.0000000  0  9G01G02G03G09G28G31G04G26G16
   1923204.61747   1581370.23445  22159283.6094                   22159284.9104
        45.2504         30.2504
  13851683.66846  10852661.91843  24091773.0084                   24091777.8794
        39.2504         22.7504
 -17785596.97348 -13743106.14548  20001730.0004                   20001730.6644
        48.0004         49.2504
  47441295.93046  37052521.10544  24257455.9614                   24257461.5984
        36.2504         27.0004
  13957616.18446  10943696.55944  23634640.5084                   23634640.2234
        41.2504         24.2504
     33342.09848    110275.24647  21037113.7584                   21037112.6764
        48.0004         44.0004
 -17126913.40247 -13252470.21545  21462883.9534                   21462884.5824
        46.0004         34.0004
 -19466776.59047 -15096627.58246  21579192.1484                   21579194.7584
        45.2504         41.0004
  22043768.70746  17257804.68443  22910352.8364                   22910355.1174
        41.7504         22.5004
 25  8  7 23 41 30.0000000  0  9G01G02G03G09G28G31G04G26G16
   1741999.35547   1440171.23844  22124801.5704                   22124803.2974
        45.2504         29.7504
  13683933.53546  10721947.19543  24059851.7274                   24059856.1804
        39.7504         22.5004
 -18067880.83248 -13963067.57848  19948012.8594                   19948013.8674
        48.0004         49.0004
  47107550.93445  36792460.28144  24193944.2814                   24193951.2734
        35.5004         27.5004
  13798538.81346  10819740.15244  23604367.2894                   23604368.0004
        40.5004         24.0004
   -151953.28948    -34110.79347  21001853.4694                   21001852.1644
        48.2504         43.7504
 -17430087.03147 -13488709.35245  21405191.9304                   21405192.3484
        46.2504         33.5004
 -19753354.87547 -15319935.29346  21524658.3674                   21524660.8594
        45.5004         40.7504
  21689445.68446  16981709.03543  22842927.3754                   22842929.4884
        41.2504         22.2504
 25  8  7 23 42  0.0000000  0  9G01G02G03G09G28G31G04G26G16
   3136556.73047   2526839.23845  22390176.8134                   22390178.2584
        44.5004         30.0004
  15091616.46546  11818842.60943  24327724.2344                   24327729.6644
        39.0004         22.5004
 -16774238.60548 -12955034.66848  20194184.7194                   20194186.0474
        49.5004         49.2504
  48349252.30545  37760020.02344  24430234.4304                   24430240.4024
        35.2504         27.2504
  15214983.01646  11923462.84444  23873908.7344                   23873909.9884
        40.7504         27.2504
   1238545.26647   1049394.55947  21266456.1174                   21266455.1454
        47.7504         43.7504
 -16157696.57847 -12497236.21145  21647319.6954                   21647320.0904
        45.7504         33.5004
 -18463936.82447 -14315193.90246  21770026.8984                   21770029.0204
        45.7504         40.7504
  22910738.16846  17933365.70743  23075331.3204                   23075333.2424
        41.5004         22.7504
 25  8  7 23 42 30.0000000  0  9G01G02G03G09G28G31G04G26G16
   2956019.07847   2386160.44945  22355821.7274                   22355823.4064
        43.5004         30.2504
  14923875.92246  11688135.35243  24295805.1414                   24295810.1604
        39.0004         22.5004
 -17055530.06648 -13174222.81648  20140656.9064                   20140658.2814
        49.7504         49.2504
  48015535.30145  37499981.02744  24366729.4064                   24366735.1954
        35.5004         27.5004
  15056093.32846  11799652.65243  23843671.7424                   23843672.0044
        40.5004         22.5004
   1053980.27048    905577.66047  21231335.0164                   21231333.4924
        48.2504         43.5004
 -16460604.76647 -12733268.50845  21589677.8524                   21589678.4804
        46.2504         33.5004
 -18749382.51647 -14537619.07446  21715707.6174                   21715710.5514
        45.5004         41.2504
  22556783.39147  17657557.00043  23007975.9224                   23007977.4844
        42.0004         22.7504
 25  8  7 23 43  0.0000000  0  9G01G02G03G09G28G31G04G26G16
   2775814.07047   2245740.86745  22321530.1644                   22321531.5664
        44.5004         30.0004
  14756139.53546  11557431.32443  24263885.5474                   24263890.8324
        37.5004         22.0004
 -17336319.52748 -13393019.79748  20087224.5164                   20087225.4184
        49.5004         49.5004
  47681835.57045  37239955.48844  24303227.4924                   24303234.2814
        34.7504         27.7504
  14897297.60946  11675915.69144  23813455.1094                   23813455.5824
        40.5004         26.0004
    869779.82048    762044.81647  21196282.7814                   21196281.6844
        48.0004         44.0004
 -16763376.77047 -12969194.68745  21532062.6724                   21532063.0664
        46.2504         33.5004
 -19034256.19147 -14759598.50846  21661498.2194                   21661501.0514
        45.0004         41.2504
  22203021.21146  17381898.35244  22940657.0704                   22940659.2544
        41.7504         24.7504
 25  8  7 23 43 30.0000000  0  9G01G02G03G09G28G31G04G26G16
   2595931.73447   2105572.70745  22287299.3914                   22287301.2934
        44.2504         30.5004
  14588397.34046  11426722.76243  24231966.4774                   24231971.2304
        40.2504         23.2504
 -17616612.34048 -13611429.77048  20033886.6414                   20033887.5664
        49.7504         49.5004
  47348146.26246  36979938.03944  24239729.3204                   24239734.9614
        36.0004         26.7504
  14738586.82846  11552244.85543  23783253.3364                   23783253.3714
        41.5004         22.0004
    685934.28547    618788.53947  21161298.1484                   21161296.5904
        47.5004         43.7504
 -17066019.46147 -13205020.09845  21474471.3834                   21474472.1804
        46.0004         33.5004
 -19318563.21947 -14981136.41446  21607396.4144                   21607398.8794
        45.2504         41.2504
  21849448.12546  17106387.06343  22873374.4384                   22873376.2624
        41.7504         23.7504
 25  8  7 23 44  0.0000000  0  9G01G02G03G09G28G31G04G26G16
   2416364.58647   1965650.14145  22253129.0314                   22253130.6334
        45.0004         30.5004
  14420642.35946  11296004.23843  24200042.9774                   24200048.7774
        39.0004         22.5004
 -17896411.44148 -13829455.03948  19980642.4694                   19980643.7504
        49.5004         49.5004
  47014462.79746  36719925.19944  24176230.5314                   24176236.3014
        36.7504         27.5004
  14579954.28946  11428635.03543  23753067.2664                   23753066.6524
        40.7504         22.7504
    502436.35948    475803.11347  21126379.9924                   21126378.6214
        48.0004         43.5004
 -17368537.26647 -13440748.18445  21416903.9304                   21416904.8324
        46.5004         33.2504
 -19602306.61347 -15202235.12146  21553401.8364                   21553404.3634
        45.5004         41.5004
  21496063.25047  16831022.41044  22806126.9924                   22806128.9264
        42.0004         24.0004
 25  8  7 23 44 30.0000000  0  9G01G02G03G09G28G31G04G26G16
   2237112.35247   1825972.97745  22219019.0554                   22219020.5124
        44.0004         30.0004
  14252874.45346  11165275.62943  24168118.8444                   24168124.1564
        39.7504         22.5004
 -18175712.46548 -14047092.18748  19927493.3984                   19927494.4104
        50.0004         49.5004
  46680787.94545  36459919.03944  24112735.0004                   24112740.0984
        34.7504         27.0004
  14421400.68446  11305086.68844  23722894.4774                   23722895.9494
        40.5004         24.5004
    319286.05948    333088.57047  21091527.5864                   21091525.6414
        48.5004         43.5004
 -17670927.28147 -13676376.71545  21359361.0394                   21359361.6994
        47.2504         34.5004
 -19885482.03547 -15422891.23846  21499515.4384                   21499518.0634
        45.0004         41.5004
  21142872.48446  16555809.02344  22738917.0704                   22738918.0944
        41.5004         24.2504
 25  8  7 23 45  0.0000000  0  9G01G02G03G09G28G31G04G26G16
   3633597.23047   2914142.89845  22484761.2504                   22484762.6844
        43.7504         30.5004
  15660516.03546  12262138.84443  24435983.2664                   24435989.8244
        38.5004         22.2504
 -16879085.27048 -13036733.32848  20174233.0084                   20174234.3014
        50.0004         49.5004
  47922552.28145  37427527.84044  24349033.2974                   24349040.5274
        33.7504         27.0004
  15838348.45346  12409201.83644  23992531.1254                   23992531.1134
        40.7504         24.0004
   1711906.48048   1418247.31347  21356534.0474                   21356532.6334
        48.5004         43.7504
 -16397760.03947 -12684298.27345  21601636.5704                   21601637.4064
        47.0004         32.7504
 -18592659.30147 -14415496.84846  21745530.9534                   21745533.4304
        46.2504         41.2504
  22365310.42247  17508358.23044  22971539.4534                   22971540.8914
        42.0004         24.5004
 25  8  7 23 45 30.0000000  0  9G01G02G03G09G28G31G04G26G16
   3454968.63347   2774951.67244  22450769.1334                   22450770.9304
        44.5004         29.5004
  15492717.21546  12131386.08643  24404053.3524                   24404059.3324
        39.0004         21.7504
 -17157382.58248 -13253588.36748  20121275.1174                   20121276.0904
        49.7504         49.5004
  47588897.75445  37167537.54344  24285541.5704                   24285546.9304
        35.0004         27.5004
  15679949.30947  12285773.83244  23962389.7114                   23962389.9304
        42.2504         25.0004
   1529446.73448   1276070.86747  21321813.4844                   21321812.4534
        48.7504         43.5004
 -16699891.29747 -12919725.16445  21544143.2734                   21544143.4304
        46.5004         33.5004
 -18874691.43047 -14635262.10246  21691862.0474                   21691864.7154
        45.5004         41.5004
  22012521.38347  17233457.85244  22904405.6644                   22904407.0434
        42.2504         25.2504
 25  8  7 23 46  0.0000000  0  9G01G02G03G09G28G31G04G26G16
   3276649.43447   2636001.53945  22416836.2664                   22416837.9924
        43.2504         30.0004
  15324900.93446  12000619.78543  24372119.9774                   24372124.8054
        38.7504         21.7504
 -17435173.58248 -13470048.87548  20068412.9144                   20068413.9184
        49.5004         49.5004
  47255255.54745  36907556.83644  24222051.3754                   24222057.4884
        35.2504         27.5004
  15521626.47346  12162405.33643  23932259.5394                   23932261.2894
        37.7504         21.5004
   1347330.45347   1134162.04747  21287158.0944                   21287156.3444
        47.7504         43.5004
 -17001890.82047 -13155049.41445  21486674.8134                   21486674.9614
        47.2504         33.0004
 -19156147.64147 -14854578.57446  21638302.6804                   21638305.1684
        47.2504         41.7504
  21659940.34847  16958719.55944  22837311.3054                   22837312.6884
        42.5004         25.0004
 25  8  7 23 46 30.0000000  0  9G01G02G03G09G28G31G04G26G16
   3098637.00047   2497290.43844  22382961.7344                   22382963.5704
        45.2504         29.7504
  15157065.02346  11869838.16843  24340181.7274                   24340187.6374
        39.2504         22.0004
 -17712456.38348 -13686113.37548  20015648.1564                   20015648.9844
        49.2504         49.5004
  46921626.09045  36647586.06644  24158563.8834                   24158569.4454
        34.7504         27.0004
  15363378.18846  12039094.89544  23902147.8834                   23902147.9494
        40.5004         25.0004
   1165555.38348    992519.10247  21252567.3364                   21252565.6684
        48.7504         43.2504
 -17303758.16047 -13390270.65245  21429231.0084                   21429231.4304
        47.2504         33.2504
 -19437026.10947 -15073444.87946  21584853.4144                   21584856.3634
        44.7504         41.7504
  21307571.28147  16684146.42644  22770257.6884                   22770258.8984
        43.0004         25.2504
 25  8  7 23 47  0.0000000  0  9G01G02G03G09G28G31G04G26G16
   2920930.83247   2358817.98045  22349145.3594                   22349147.1684
        43.0004         30.0004
  14989209.64146  11739041.34043  24308239.8284                   24308246.3204
        38.5004         22.2504
 -17989226.94948 -13901778.74248  19962980.2814                   19962981.3834
        50.0004         49.5004
  46588011.90645  36387627.22344  24095079.4694                   24095084.2854
        34.2504         28.0004
  15205204.96546  11915842.97743  23872047.9774                   23872048.5634
        39.2504         22.5004
    984120.87948    851141.54747  21218041.3914                   21218039.6644
        48.0004         43.7504
 -17605490.62147 -13625386.81645  21371813.2734                   21371813.2974
        47.2504         33.7504
 -19717322.86747 -15291857.89846  21531515.1174                   21531517.3834
        46.5004         41.7504
  20955420.05947  16409743.04744  22703245.7974                   22703246.9734
        42.5004         25.5004
