     2.11           OBSERVATION DATA    G (GPS)             RINEX VERSION / TYPE
teqc  2019Feb25                         20250821 01:26:43UTCPGM / RUN BY / DATE
Linux 2.6.32-573.12.1.x86_64|x86_64|gcc -static|Linux 64|=+ COMMENT
BIT 2 OF LLI FLAGS DATA COLLECTED UNDER A/S CONDITION       COMMENT
04223200                                                    MARKER NAME
0422                                                        MARKER NUMBER
-Unknown-           -Unknown-                               OBSERVER / AGENCY
0220340422          TRIMBLE 5700        2.32                REC # / TYPE / VERS
-Unknown-           TRM41249.00     NONE                    ANT # / TYPE
 -2430805.0950 -4657393.5447  3606069.0748                  APPROX POSITION XYZ
        0.0000        0.0000        0.0000                  ANTENNA: DELTA H/E/N
     1     1                                                WAVELENGTH FACT L1/2
     7    L1    L2    C1    P1    P2    S1    S2            # / TYPES OF OBSERV
    18                                                      LEAP SECONDS
 SNR is mapped to RINEX snr flag value [0-9]                COMMENT
  L1 & L2: min(max(int(snr_dBHz/6), 0), 9)                  COMMENT
  2025     7     2     0     0   30.0000000     GPS         TIME OF FIRST OBS
                                                            END OF HEADER
 25  7  2  0  0 30.0000000  0 10G10G02G08G03G25G28G04G32G31G01
   3402586.33257   2590084.50456  22576475.9844                   22576475.8554
        44.5004         41.5004
 -23906946.86757 -18592258.81256  21230454.4384                   21230448.9924
        47.5004         39.0004
   -123268.79755   -167196.20754  25012779.4924                   25012786.3594
        33.0004         24.0004
  -8186372.81656  -6360215.23855  23335528.7814                   23335529.3554
        41.2504         33.2504
  -1984504.74256  -1526346.61355  24425787.7734                   24425789.0744
        37.2504         30.0004
 -25954530.28957 -20199683.48456  20747618.4774                   20747615.1134
        47.7504         39.0004
  -1199507.89555   -915653.64852  24826564.6644                   24826569.9774
        34.7504         17.2504
  -6796232.35958  -5478255.16857  22062154.8054                   22062153.2774
        48.2504         46.5004
 -23888498.00058 -18590482.62957  20930460.5164                   20930456.7304
        49.2504         47.0004
 -18685225.55957 -14525122.82055  21736360.0234                   21736356.7424
        44.2504         34.5004
 25  7  2  0  1  0.0000000  0 10G10G02G08G03G25G28G04G32G31G01
   3453622.60947   2629852.98846  22586187.5084                   22586187.3914
        43.5004         41.5004
 -23914181.25447 -18597896.01246  21229078.1254                   21229072.0944
        46.5004         39.0004
    -56617.73045   -115260.57044  25025462.1804                   25025470.2704
        34.7504         26.2504
  -8278994.04746  -6432387.50045  23317902.8674                   23317903.8794
        41.2504         34.0004
  -2020245.84846  -1554196.80145  24418986.6094                   24418987.8554
        37.5004         30.2504
 -25967754.10947 -20209987.73846  20745102.0474                   20745098.5004
        46.7504         39.0004
  -1289473.88745   -985756.78142  24809444.1024                   24809450.1414
        35.0004         17.2504
  -6740375.68747  -5434730.51247  22072783.8444                   22072782.3754
        47.0004         46.5004
 -23968119.37948 -18652525.20347  20915308.8054                   20915305.3634
        49.0004         47.0004
 -18755470.86347 -14579859.38345  21722992.1174                   21722989.5704
        44.0004         34.2504
 25  7  2  0  1 30.0000000  0 10G10G02G08G03G25G28G04G32G31G01
   3504906.10947   2669814.11346  22595947.2114                   22595946.5944
        44.0004         41.0004
 -23920899.85247 -18603131.28546  21227799.4694                   21227793.6454
        46.5004         39.0004
      9967.65645    -63376.11744  25038133.7274                   25038140.6564
        35.0004         27.0004
  -8371613.43446  -6504558.32046  23300277.9844                   23300278.6214
        41.7504         36.2504
  -2055545.91846  -1581703.29745  24412268.8204                   24412270.6024
        36.7504         30.0004
 -25980386.36347 -20219831.03146  20742698.3754                   20742694.4184
        47.0004         38.7504
  -1379317.96145  -1055764.88342  24792347.4304                   24792353.0474
        35.5004         17.7504
  -6684420.12947  -5391128.79347  22083432.1174                   22083430.7114
        47.5004         46.0004
 -24047256.16048 -18714190.15647  20900249.6334                   20900245.8014
        48.7504         46.7504
 -18825273.62147 -14634251.09445  21709708.8914                   21709706.5664
        44.5004         34.5004
 25  7  2  0  2  0.0000000  0 10G10G02G08G03G25G28G04G32G31G01
   3556441.00447   2709971.12546  22605753.9534                   22605753.7894
        43.5004         40.7504
 -23927098.54347 -18607961.44546  21226619.7424                   21226614.0204
        46.5004         38.7504
     76488.88745    -11541.64544  25050792.4534                   25050799.7814
        35.7504         27.5004
  -8464226.03546  -6576723.84446  23282654.9224                   23282655.1414
        41.5004         36.5004
  -2090398.82446  -1608861.38745  24405636.5314                   24405638.1844
        37.5004         30.5004
 -25992423.11747 -20229210.29346  20740407.8444                   20740404.0204
        47.5004         39.0004
  -1469035.94145  -1125674.67642  24775275.2114                   24775279.7384
        35.5004         17.7504
  -6628362.92647  -5347447.87947  22094099.1804                   22094097.9224
        47.0004         46.0004
 -24125901.74648 -18775472.35947  20885283.8284                   20885279.9694
        49.5004         47.0004
 -18894627.50447 -14688293.03545  21696511.8364                   21696508.8204
        44.5004         35.0004
 25  7  2  0  2 30.0000000  0 10G10G02G08G03G25G28G04G32G31G01
   3608224.90647   2750322.18446  22615608.1174                   22615607.6524
        44.2504         41.0004
 -23932780.00847 -18612388.55946  21225538.2974                   21225533.3134
        47.0004         39.2504
    142940.44946     40238.55545  25063438.6174                   25063445.6484
        36.5004         30.0004
  -8556833.57446  -6648885.43046  23265031.3134                   23265032.2934
        41.2504         37.0004
  -2124805.31646  -1635671.60545  24399089.9614                   24399090.7154
        37.0004         30.2504
 -26003867.09447 -20238127.65646  20738230.0394                   20738226.1884
        46.7504         39.0004
  -1558630.01646  -1195487.96142  24758225.1024                   24758229.9494
        36.2504         17.7504
  -6572207.89147  -5303690.73447  22104785.1484                   22104783.6134
        47.0004         46.0004
 -24204056.29348 -18836371.94147  20870411.5394                   20870407.7464
        49.2504         46.7504
 -18963532.94947 -14741985.54345  21683399.0004                   21683396.1414
        45.0004         34.2504
 25  7  2  0  3  0.0000000  0 10G10G02G08G03G25G28G04G32G31G01
   3660261.10547   2790869.83246  22625510.3674                   22625509.7934
        45.0004         41.0004
 -23937940.68447 -18616409.87946  21224556.4304                   21224550.7854
        47.0004         38.7504
    209323.02345     91964.95344  25076070.6174                   25076077.4964
        34.5004         27.7504
  -8649431.91446  -6721039.85246  23247410.8284                   23247411.5004
        40.5004         37.5004
  -2158760.17246  -1662129.89145  24392628.5474                   24392629.1254
        38.7504         30.7504
 -26014715.16047 -20246580.67246  20736165.6484                   20736161.6524
        46.2504         38.7504
  -1648096.71946  -1265202.01642  24741200.2584                   24741205.2624
        36.2504         17.7504
  -6515953.09047  -5259855.85247  22115490.1954                   22115488.5084
        47.7504         46.0004
 -24281714.23448 -18896884.55947  20855633.6334                   20855629.8674
        49.0004         47.0004
 -19031984.57447 -14795324.43445  21670373.5394                   21670370.1564
        45.0004         34.5004
 25  7  2  0  3 30.0000000  0 10G10G02G08G03G25G28G04G32G31G01
   3712546.78147   2831611.88346  22635459.6484                   22635459.3324
        44.5004         41.0004
 -23942584.00448 -18620028.05546  21223673.0784                   21223667.5314
        48.0004         39.5004
    275630.80145    143633.09044  25088688.2424                   25088696.0824
        34.0004         26.5004
  -8742023.15246  -6793188.73446  23229790.9224                   23229791.4924
        40.7504         37.5004
  -2192264.38746  -1688237.03145  24386252.6644                   24386253.9694
        38.2504         30.0004
 -26024970.44147 -20254571.77346  20734214.0394                   20734210.4844
        47.2504         39.0004
  -1737438.66446  -1334818.82442  24724198.7034                   24724203.1214
        37.5004         17.2504
  -6459602.72347  -5215946.48447  22126213.4454                   22126211.7464
        47.5004         45.7504
 -24358876.48048 -18957010.91447  20840950.1094                   20840946.1024
        49.0004         47.0004
 -19099983.18447 -14848310.32045  21657433.4614                   21657430.7584
        44.5004         35.0004
 25  7  2  0  4  0.0000000  0 10G10G02G08G03G25G28G04G32G31G01
   3765086.27347   2872551.71146  22645458.3444                   22645457.5474
        44.2504         41.0004
 -23946705.43447 -18623239.56246  21222888.4384                   21222882.8284
        46.5004         39.2504
    341865.45745    195244.25844  25101293.4924                   25101300.4574
        32.5004         25.0004
  -8834601.99246  -6865327.96546  23212173.2034                   23212174.7274
        40.5004         37.5004
  -2225311.82046  -1713988.25445  24379963.3054                   24379965.1174
        37.2504         30.2504
 -26034628.83647 -20262097.77746  20732376.3134                   20732372.7464
        45.7504         39.0004
  -1826651.26246  -1404334.96142  24707222.2114                   24707225.8164
        38.0004         17.2504
  -6403153.72747  -5171960.27347  22136955.3134                   22136953.5744
        47.7504         45.5004
 -24435536.37148 -19016745.83247  20826362.0944                   20826357.9414
        49.2504         47.0004
 -19167522.32047 -14900938.18445  21644581.0634                   21644578.5084
        44.5004         34.0004
 25  7  2  0  4 30.0000000  0 10G10G02G08G03G25G28G04G32G31G01
   3817875.94947   2913686.48446  22655503.0234                   22655503.1334
        44.0004         41.0004
 -23950309.31248 -18626047.78546  21222202.7974                   21222196.7704
        48.5004         39.0004
    408020.35945    246793.27744  25113882.5084                   25113889.4024
        33.0004         25.0004
  -8927171.36346  -6937459.80146  23194558.2034                   23194558.9304
        40.2504         36.7504
  -2257904.40646  -1739385.05944  24373761.0084                   24373762.7154
        37.2504         29.2504
 -26043694.40247 -20269161.84046  20730650.9774                   20730647.1174
        46.5004         38.7504
  -1915737.97746  -1473752.92643  24690269.0944                   24690273.2304
        39.0004         18.2504
  -6346611.24247  -5127901.21147  22147714.7814                   22147713.3874
        47.7504         45.5004
 -24511694.88748 -19076090.07047  20811869.3054                   20811865.5824
        48.7504         47.0004
 -19234603.63747 -14953209.29745  21631816.0164                   21631813.2544
        44.7504         34.5004
 25  7  2  0  5  0.0000000  0 10G10G02G08G03G25G28G04G32G31G01
   3870919.03547   2955018.72346  22665597.4304                   22665596.6954
        45.0004         41.0004
 -23953392.14548 -18628449.99646  21221615.8444                   21221610.7384
        48.0004         39.2504
    474096.21145    298280.69144  25126456.0084                   25126463.3284
        34.5004         25.5004
  -9019727.07846  -7009581.03145  23176945.3364                   23176946.1954
        40.5004         35.5004
  -2290036.99246  -1764423.43445  24367646.8674                   24367648.7194
        37.5004         30.0004
 -26052164.12147 -20275761.60246  20729039.3134                   20729035.4344
        46.5004         39.5004
  -2004695.41446  -1543070.20742  24673341.4694                   24673344.7974
        38.5004         17.2504
  -6289973.19547  -5083767.69547  22158493.1334                   22158491.0784
        46.5004         45.5004
 -24587346.93748 -19135039.65647  20797473.3204                   20797469.3984
        49.2504         47.2504
 -19301221.81647 -15005119.52745  21619138.8754                   21619136.3674
        45.2504         35.2504
 25  7  2  0  5 30.0000000  0 10G10G02G08G03G25G28G04G32G31G01
   3924215.46147   2996548.36346  22675739.3754                   22675738.8634
        44.0004         41.2504
 -23955954.43047 -18630446.59046  21221128.7814                   21221123.1054
        47.2504         39.2504
    540090.10246    349704.24244  25139014.0234                   25139021.9924
        37.0004         28.5004
  -9112268.36746  -7081691.00845  23159334.9064                   23159335.5274
        40.0004         35.5004
  -2321707.98446  -1789102.10244  24361619.7344                   24361620.8714
        37.2504         29.5004
 -26060038.43047 -20281897.40646  20727540.9384                   20727537.6604
        47.0004         39.2504
  -2093523.32046  -1612286.57642  24656437.4534                   24656441.4494
        38.0004         17.7504
  -6233241.03147  -5039560.83247  22169288.6884                   22169286.8984
        46.7504         45.5004
 -24662490.48048 -19193593.00847  20783173.9144                   20783170.1484
        48.5004         47.5004
 -19367374.90647 -15056667.35945  21606550.6484                   21606547.8834
        44.7504         34.7504
 25  7  2  0  6  0.0000000  0 11G10G02G08G03G25G28G04G26G32G31G01
   3977766.10947   3038276.09046  22685929.7664                   22685929.6174
        44.2504         41.2504
 -23957995.20747 -18632036.80546  21220740.3444                   21220734.6134
        47.0004         39.0004
    606000.04346    401062.41444  25151555.3914                   25151564.2114
        37.2504         27.5004
  -9204793.59446  -7153788.46145  23141727.6174                   23141728.7894
        39.0004         35.5004
  -2352914.64846  -1813418.95745  24355681.9224                   24355682.9264
        37.5004         30.2504
 -26067316.89847 -20287568.92246  20726155.6954                   20726152.1844
        47.7504         39.0004
  -2182220.87146  -1681401.35242  24639558.3674                   24639562.8714
        37.2504         17.7504
   -126238.46556    -78812.28953  25097535.9144                   25097543.8444
        37.5004         22.0004
  -6176415.16847  -4995280.95747  22180102.2194                   22180100.3754
        47.0004         45.2504
 -24737122.30148 -19251747.60947  20768972.1414                   20768968.0944
        48.5004         47.2504
 -19433060.05147 -15107850.54745  21594050.6804                   21594048.1134
        44.5004         35.0004
 25  7  2  0  6 30.0000000  0 11G10G02G08G03G25G28G04G26G32G31G01
   4031556.05947   3080190.28946  22696165.6954                   22696165.1724
        44.5004         41.0004
 -23959529.66047 -18633232.49646  21220448.6564                   21220442.7234
        47.5004         39.0004
    671808.55546    452341.54344  25164079.5084                   25164087.8324
        38.0004         28.2504
  -9297316.66046  -7225884.23445  23124120.9694                   23124122.0904
        38.5004         35.2504
  -2383670.25046  -1837384.33645  24349829.0704                   24349829.8484
        37.5004         31.5004
 -26074014.75047 -20292788.01246  20724881.6414                   20724877.5004
        47.7504         39.2504
  -2270802.55946  -1750425.80542  24622702.4844                   24622705.9924
        37.7504         16.7504
   -218341.04746   -150580.17644  25080008.5234                   25080017.0164
        37.7504         26.0004
  -6119511.80147  -4950940.69147  22190930.9534                   22190929.3754
        47.0004         45.5004
 -24811255.09048 -19309513.36347  20754865.2274                   20754860.8244
        48.2504         47.0004
 -19498290.14147 -15158679.14545  21581637.9844                   21581634.9414
        44.5004         35.0004
 25  7  2  0  7  0.0000000  0 11G10G02G08G03G25G28G04G26G32G31G01
   4085579.07847   3122286.09446  22706446.0554                   22706445.1054
        44.7504         40.7504
 -23960564.41448 -18634038.79346  21220251.3754                   21220245.4804
        48.0004         39.2504
    737506.53546    503534.56344  25176581.5314                   25176589.3594
        39.2504         29.2504
  -9389842.91046  -7297982.48045  23106513.9144                   23106514.4694
        38.5004         35.2504
  -2413979.30146  -1861001.74245  24344061.3134                   24344062.5044
        37.7504         31.5004
 -26080138.60947 -20297559.82846  20723716.0234                   20723712.4964
        46.0004         38.7504
  -2359274.50446  -1819364.76642  24605865.8444                   24605870.3484
        37.7504         17.2504
   -310623.32046   -222488.16844  25062447.5394                   25062456.3204
        37.5004         27.2504
  -6062538.40647  -4906545.86347  22201772.3984                   22201770.6294
        46.2504         45.5004
 -24884893.08648 -19366893.55947  20740851.7584                   20740847.7704
        48.2504         47.2504
 -19563069.35547 -15209156.42245  21569311.2584                   21569308.0944
        44.7504         34.5004
 25  7  2  0  7 30.0000000  0 11G10G02G08G03G25G28G04G26G32G31G01
   4139838.36347   3164566.00446  22716771.0704                   22716770.9924
        43.5004         41.0004
 -23961096.41048 -18634453.34446  21220150.0944                   21220144.4064
        48.0004         39.0004
    803094.69146    554642.00044  25189063.4224                   25189070.8094
        40.0004         28.2504
  -9482368.11746  -7370079.92645  23088907.3284                   23088907.4844
        39.0004         35.2504
  -2443836.78946  -1884267.29345  24338379.2814                   24338381.2854
        38.2504         30.5004
 -26085685.67647 -20301882.20346  20722660.7114                   20722656.5234
        46.0004         39.0004
  -2447633.17246  -1888215.46143  24589051.7194                   24589055.4494
        37.7504         19.0004
   -403079.64146   -294531.76244  25044853.3984                   25044862.1954
        36.7504         27.0004
  -6005492.97747  -4862094.90247  22212627.5704                   22212625.8054
        46.2504         45.2504
 -24958030.83648 -19423883.96147  20726934.2584                   20726929.9694
        49.2504         47.2504
 -19627392.47747 -15259278.30145  21557070.5704                   21557067.3874
        45.0004         34.7504
 25  7  2  0  8  0.0000000  0 11G10G02G08G03G25G28G04G26G32G31G01
   4194331.86347   3207028.41846  22727140.9384                   22727140.6994
        44.5004         41.0004
 -23961127.93747 -18634477.91046  21220144.2034                   21220138.6954
        47.0004         39.0004
    868568.16446    605660.09044  25201522.6254                   25201530.1954
        39.2504         27.7504
  -9574893.45346  -7442177.48445  23071299.6644                   23071300.5984
        39.2504         34.7504
  -2473243.00446  -1907181.20345  24332783.7664                   24332785.3674
        38.2504         31.2504
 -26090658.50847 -20305757.12546  20721714.0004                   20721710.1414
        46.7504         39.0004
  -2535880.53146  -1956979.41042  24572258.8134                   24572262.8134
        37.0004         17.2504
   -495709.74245   -366710.79344  25027226.7664                   25027235.1484
        35.2504         27.7504
  -5948378.87147  -4817590.43447  22223496.5704                   22223494.8134
        46.5004         45.2504
 -25030668.21148 -19480484.44147  20713112.1484                   20713107.9304
        48.2504         47.2504
 -19691259.52347 -15309044.80145  21544917.3364                   21544914.0124
        45.5004         35.0004
 25  7  2  0  8 30.0000000  0 11G10G02G08G03G25G28G04G26G32G31G01
   4249065.29347   3249677.78546  22737556.1094                   22737556.0354
        43.2504         40.5004
 -23960653.64848 -18634108.34046  21220234.5784                   21220228.8134
        48.0004         39.0004
    933929.96946    656591.17644  25213960.7504                   25213968.4104
        40.0004         25.7504
  -9667412.27046  -7514269.96545  23053694.1094                   23053694.7584
        40.0004         34.7504
  -2502190.73446  -1929737.85244  24327275.3754                   24327276.4844
        37.0004         29.7504
 -26095051.80947 -20309180.45746  20720878.0784                   20720874.3204
        45.5004         39.5004
  -2624010.63346  -2025651.94542  24555487.7344                   24555491.5434
        37.5004         17.2504
   -588505.46946   -439018.85244  25009568.0164                   25009576.1294
        36.2504         28.2504
  -5891191.53547  -4773028.89147  22234378.3834                   22234377.2704
        46.7504         45.2504
 -25102797.45748 -19536688.99247  20699386.4844                   20699382.1024
        49.0004         47.5004
 -19754662.84847 -15358449.94945  21532851.8594                   21532848.8444
        45.2504         35.5004
 25  7  2  0  9  0.0000000  0 11G10G02G08G03G25G28G04G26G32G31G01
   4304037.11347   3292512.91446  22748016.7974                   22748016.7114
        43.5004         40.5004
 -23959675.37948 -18633346.06246  21220420.7894                   21220414.7894
        48.0004         39.0004
    999176.05146    707432.07844  25226376.8054                   25226384.2114
        39.2504         28.5004
  -9759924.99246  -7586357.71946  23036089.7974                   23036089.6414
        41.2504         36.2504
  -2530679.71546  -1951937.01645  24321853.9304                   24321855.4024
        37.0004         30.7504
 -26098867.59847 -20312153.78546  20720151.6334                   20720148.2424
        46.7504         38.7504
  -2712024.76246  -2094234.17243  24538739.2814                   24538742.7464
        38.2504         18.5004
   -681466.17246   -511455.47744  24991878.2274                   24991885.9654
        37.2504         28.5004
  -5833933.73447  -4728412.45747  22245274.2814                   22245272.9414
        47.7504         45.2504
 -25174418.13748 -19592497.26247  20685757.2274                   20685753.5004
        48.5004         47.5004
 -19817601.97347 -15407493.38345  21520874.7584                   21520871.8634
        45.2504         34.7504
 25  7  2  0  9 30.0000000  0 10G10G02G03G25G28G04G26G32G31G01
   4359251.20347   3335536.83246  22758524.1954                   22758523.7854
        43.5004         40.5004
 -23958189.38748 -18632188.14846  21220703.6254                   21220697.8404
        48.7504         39.0004
  -9852426.86746  -7658437.01245  23018487.1804                   23018486.9924
        41.0004         35.7504
  -2558704.41846  -1973774.41845  24316521.8134                   24316522.1644
        38.0004         30.7504
 -26102102.50047 -20314674.46146  20719536.2194                   20719532.4804
        47.0004         39.7504
  -2799919.01646  -2162722.98442  24522012.5394                   24522016.8914
        38.0004         17.7504
   -774585.51246   -584015.71144  24974158.1564                   24974165.7894
        37.0004         28.2504
  -5776602.79747  -4683739.02347  22256183.9454                   22256182.4224
        47.0004         45.0004
 -25245524.03148 -19647904.39147  20672226.0704                   20672221.9144
        48.0004         47.2504
 -19880071.05147 -15456170.55145  21508987.1724                   21508984.2424
        45.5004         34.7504
 25  7  2  0 10  0.0000000  0 10G10G02G03G25G28G04G26G32G31G01
   4414715.29347   3378755.56346  22769078.6644                   22769078.1524
        44.0004         41.0004
 -23956188.33648 -18630628.89846  21221084.3204                   21221078.9184
        48.5004         39.2504
  -9944909.13346  -7730501.02045  23000888.2504                   23000888.3364
        40.5004         35.2504
  -2586255.41446  -1995242.68744  24311278.2504                   24311279.8324
        37.5004         29.5004
 -26104749.24647 -20316736.85246  20719032.8524                   20719028.7114
        46.5004         39.0004
  -2887685.22346  -2231111.99243  24505311.1174                   24505316.1054
        36.5004         18.5004
   -867853.23845   -656691.57844  24956409.5084                   24956416.7544
        35.7504         28.2504
  -5719192.11347  -4639003.44947  22267108.9304                   22267107.4654
        46.7504         44.7504
 -25316105.42248 -19702902.83247  20658794.9844                   20658791.0004
        48.2504         47.2504
 -19942060.33247 -15504473.85245  21497191.3524                   21497188.5514
        45.2504         35.0004
 25  7  2  0 10 30.0000000  0 10G10G02G03G25G28G04G26G32G31G01
   4470438.53147   3422176.21146  22779682.4384                   22779682.3244
        43.7504         40.5004
 -23953663.49248 -18628661.49646  21221564.7504                   21221559.1294
        49.0004         39.2504
 -10037361.51646  -7802541.76645  22983295.1094                   22983295.0984
        41.7504         35.2504
  -2613321.95746  -2016333.45345  24306127.2194                   24306128.3984
        37.5004         30.0004
 -26106799.26647 -20318334.25846  20718642.0394                   20718638.8134
        47.0004         38.7504
  -2975314.08246  -2299393.97343  24488636.5164                   24488640.4184
        37.0004         18.5004
   -961257.87545   -729474.13344  24938635.6024                   24938642.5474
        34.5004         28.5004
  -5661693.68747  -4594199.51247  22278050.4224                   22278048.9964
        47.0004         45.0004
 -25386150.90647 -19757483.67647  20645465.8914                   20645461.3984
        47.5004         47.2504
 -20003558.65247 -15552394.59845  21485488.4454                   21485485.4774
        45.5004         35.0004
 25  7  2  0 11  0.0000000  0 10G10G02G03G25G28G04G26G32G31G01
   4526434.84047   3465809.64546  22790338.2584                   22790338.0744
        43.2504         40.5004
 -23950601.21948 -18626275.32046  21222147.5554                   21222142.2464
        48.5004         39.0004
 -10129769.10246  -7874547.59445  22965710.7814                   22965710.6954
        41.2504         34.7504
  -2639888.38746  -2037034.52744  24301071.9774                   24301073.4654
        37.0004         29.5004
 -26108239.12147 -20319456.21146  20718368.4534                   20718364.4654
        46.7504         38.7504
  -3062791.42646  -2367557.91843  24471989.7584                   24471992.9414
        36.7504         19.0004
  -1054783.00445   -802350.59044  24920836.8444                   24920845.1024
        33.5004         27.0004
  -5604094.68447  -4549317.19947  22289011.6334                   22289010.0904
        46.0004         44.7504
 -25455644.70748 -19811634.62947  20632241.3134                   20632236.9924
        48.0004         47.0004
 -20064550.21147 -15599920.45745  21473882.3444                   21473879.0904
        45.5004         35.0004
 25  7  2  0 11 30.0000000  0 10G10G02G03G25G28G04G26G32G31G01
   4582705.55947   3509656.89846  22801046.1804                   22801046.3164
        43.0004         40.5004
 -23947000.43748 -18623469.53146  21222832.9064                   21222827.2034
        49.0004         39.5004
 -10222129.46546  -7946516.62145  22948135.1484                   22948134.9144
        40.5004         35.2504
  -2665951.92246  -2057343.75045  24296112.0704                   24296113.8874
        37.2504         30.7504
 -26109068.06247 -20320102.11746  20718210.7344                   20718206.8324
        45.7504         38.7504
  -3150115.79745  -2435602.64142  24455371.3524                   24455375.6174
        35.0004         17.7504
  -1148424.88345   -875317.96144  24903017.6094                   24903025.3164
        31.7504         24.5004
  -5546394.92247  -4504356.36747  22299991.2274                   22299990.1174
        46.0004         44.7504
 -25524583.48847 -19865353.10947  20619122.7034                   20619118.3634
        47.7504         47.2504
 -20125031.64147 -15647048.81245  21462372.8984                   21462369.8524
        45.0004         35.0004
 25  7  2  0 12  0.0000000  0 10G10G02G03G25G28G04G26G32G31G01
   4639238.11747   3553708.19146  22811804.5234                   22811803.8984
        42.5004         40.2504
 -23942874.10247 -18620254.20746  21223618.1484                   21223612.0314
        47.7504         38.7504
 -10314453.94146  -8018457.68745  22930565.7344                   22930566.1644
        41.0004         35.2504
  -2691523.30146  -2077269.46145  24291245.9064                   24291247.5274
        37.5004         32.0004
 -26109299.20747 -20320282.22346  20718166.5704                   20718162.8244
        45.7504         39.0004
  -3237299.40645  -2503537.64542  24438781.1024                   24438785.1884
        34.0004         17.2504
  -1242193.49245   -948384.07844  24885174.4454                   24885181.0904
        31.2504         25.2504
  -5488608.11747  -4459327.71547  22310987.9454                   22310986.4614
        46.0004         44.7504
 -25592977.57848 -19918647.15647  20606107.6334                   20606103.3554
        48.2504         47.2504
 -20185013.56247 -15693787.94545  21450958.8524                   21450955.3364
        46.2504         35.0004
 25  7  2  0 12 30.0000000  0 10G10G02G03G25G28G04G26G32G31G01
   4696032.60947   3597963.57446  22822611.4694                   22822611.6604
        43.5004         40.5004
 -23938222.53548 -18616629.62146  21224503.0704                   21224497.1844
        48.5004         38.7504
 -10406741.50446  -8090369.97746  22913003.7034                   22913004.3404
        41.5004         36.0004
  -2716601.02346  -2096810.49645  24286474.5554                   24286475.3594
        36.5004         30.2504
 -26108933.05947 -20319996.89846  20718236.5474                   20718232.1884
        47.0004         39.0004
  -3324342.02345  -2571362.85542  24422217.3984                   24422221.4344
        34.7504         17.7504
  -1336086.27345  -1021546.97344  24867306.8984                   24867313.6994
        32.5004         25.2504
  -5430735.14547  -4414231.91847  22322000.6724                   22321999.0044
        47.0004         44.7504
 -25660824.92648 -19971515.16047  20593196.8364                   20593192.4734
        48.0004         47.5004
 -20244493.96547 -15740136.28145  21439640.0944                   21439636.6374
        45.7504         35.2504
 25  7  2  0 13  0.0000000  0 10G10G02G03G25G28G04G26G32G31G01
   4753091.23447   3642424.79346  22833469.4774                   22833469.2304
        43.7504         40.5004
 -23933043.90648 -18612594.34446  21225488.3204                   21225482.6724
        49.0004         39.0004
 -10498988.78546  -8162250.88346  22895449.9304                   22895450.1524
        41.7504         37.0004
  -2741181.08645  -2115963.75444  24281796.7734                   24281797.5704
        34.7504         29.0004
 -26107968.03947 -20319244.91846  20718419.9614                   20718415.8014
        47.5004         39.0004
  -3411241.17245  -2639076.20743  24405681.5554                   24405684.2704
        35.5004         18.5004
  -1430098.50045  -1094802.90644  24849417.4304                   24849423.9924
        32.0004         26.0004
  -5372774.95347  -4369068.16047  22333030.0554                   22333028.5984
        47.2504         44.5004
 -25728121.18748 -20023953.75847  20580390.6334                   20580386.6844
        48.2504         47.5004
 -20303468.66447 -15786090.57045  21428417.3984                   21428414.6684
        46.0004         35.5004
 25  7  2  0 13 30.0000000  0 10G10G02G03G25G28G04G26G32G31G01
   4810410.13747   3687088.82446  22844376.7814                   22844376.9884
        43.5004         40.5004
 -23927342.71948 -18608151.87146  21226573.5474                   21226567.9224
        48.7504         39.0004
 -10591198.43447  -8234102.45746  22877903.0394                   22877903.2584
        42.7504         37.0004
  -2765266.03545  -2134731.20744  24277213.6954                   24277215.1454
        34.2504         27.7504
 -26106408.63747 -20318029.78546  20718716.7194                   20718712.8324
        47.5004         39.2504
  -3498000.56245  -2706680.71943  24389171.2664                   24389174.9144
        34.5004         19.7504
  -1524231.45745  -1168152.90644  24831503.3364                   24831510.2544
        31.2504         27.2504
  -5314732.42247  -4323840.23847  22344075.1024                   22344073.9964
        46.5004         44.7504
 -25794868.41448 -20075964.53547  20567688.9224                   20567685.0554
        48.2504         47.5004
 -20361939.55147 -15831652.27745  21417290.6174                   21417287.8794
        47.0004         35.5004
 25  7  2  0 14  0.0000000  0 10G10G02G03G25G28G04G26G32G31G01
   4867987.93447   3731954.59846  22855333.7424                   22855333.5314
        44.2504         40.0004
 -23921120.41448 -18603303.33246  21227757.5004                   21227751.8524
        48.7504         39.0004
 -10683370.67647  -8305924.87946  22860363.3914                   22860362.9884
        42.0004         37.5004
  -2788855.47345  -2153112.53544  24272724.1024                   24272725.3444
        34.0004         27.5004
 -26104256.83247 -20316353.03946  20719126.1954                   20719122.1024
        47.0004         39.2504
  -3584621.19545  -2774177.08243  24372686.9774                   24372691.5084
        35.5004         19.2504
  -1618484.07845  -1241596.15644  24813568.7504                   24813574.8594
        32.0004         25.0004
  -5256609.93047  -4278550.00847  22355135.7274                   22355134.3794
        46.7504         45.0004
 -25861065.85547 -20127546.90647  20555092.4534                   20555088.0084
        47.7504         47.5004
 -20419906.10947 -15876820.99246  21406260.2584                   21406257.1054
        46.5004         36.0004
 25  7  2  0 14 30.0000000  0 10G10G02G03G25G28G04G26G32G31G01
   4925822.83247   3777020.69546  22866338.8914                   22866339.5554
        44.2504         40.0004
 -23914379.34848 -18598050.56246  21229040.6334                   21229034.8674
        48.5004         38.7504
 -10775506.15247  -8377718.66046  22842829.9534                   22842830.2424
        42.5004         38.5004
  -2811949.65245  -2171107.96144  24268329.3524                   24268330.6374
        33.7504         28.0004
 -26101515.08248 -20314216.60246  20719648.1334                   20719644.5704
        48.2504         39.0004
  -3671104.75846  -2841566.66443  24356230.1024                   24356233.4614
        36.7504         19.0004
  -1712855.41845  -1315131.92644  24795609.3914                   24795616.0474
        33.0004         26.7504
  -5198410.35947  -4233199.72347  22366210.7424                   22366209.2234
        47.2504         44.5004
 -25926713.29747 -20178700.70347  20542599.8524                   20542595.2974
        47.5004         47.7504
 -20477368.20347 -15921596.63345  21395325.7894                   21395322.1644
        46.5004         35.5004
 25  7  2  0 15  0.0000000  0 10G10G02G03G25G28G04G26G32G31G01
   4983914.25847   3822286.68446  22877394.3754                   22877393.7304
        44.0004         40.2504
 -23907120.57048 -18592394.39146  21230421.7114                   21230415.8954
        48.5004         38.7504
 -10867604.22347  -8449483.28446  22825304.4224                   22825304.8244
        42.2504         38.7504
  -2834547.70355  -2188716.79754  24264029.2814                   24264030.1684
        34.5004         27.5004
 -26098184.69148 -20311621.48446  20720282.2194                   20720278.1684
        48.5004         39.5004
  -3757451.51246  -2908849.63343  24339798.7114                   24339801.5664
        37.5004         18.5004
  -1807343.67245  -1388758.82044  24777627.5164                   24777634.8554
        34.0004         26.5004
  -5140135.16847  -4187790.50047  22377300.1254                   22377298.7974
        47.0004         44.5004
 -25991809.07047 -20229424.62948  20530212.6334                   20530208.5664
        47.0004         48.0004
 -20534324.45347 -15965978.10545  21384487.0634                   21384483.5944
        47.0004         35.5004
 25  7  2  0 15 30.0000000  0 10G10G02G03G25G28G04G26G32G31G01
   5042263.09047   3867753.25846  22888497.3284                   22888497.4384
        44.2504         40.0004
 -23899343.54748 -18586334.37946  21231901.6564                   21231895.8714
        48.7504         39.0004
 -10959662.62947  -8521217.00046  22807786.3594                   22807786.5394
        42.0004         37.5004
  -2856647.17655  -2205937.12154  24259823.6644                   24259825.5904
        33.5004         27.2504
 -26094265.35948 -20308567.44946  20721027.8834                   20721023.5044
        48.0004         39.5004
  -3843660.28946  -2976025.12943  24323393.9454                   24323396.4654
        38.2504         19.7504
  -1901945.06645  -1462473.89144  24759625.6024                   24759632.5044
        34.0004         26.2504
  -5081784.53947  -4142322.50847  22388403.8674                   22388402.6454
        46.5004         44.5004
 -26056350.67647 -20279716.73848  20517930.4384                   20517926.0784
        46.7504         48.0004
 -20590772.09047 -16009963.26645  21373745.0634                   21373741.8754
        47.2504         35.5004
 25  7  2  0 16  0.0000000  0 10G10G02G03G25G28G04G26G32G31G01
   5100868.87147   3913420.05546  22899649.2814                   22899649.7664
        44.5004         39.7504
 -23891049.25048 -18579871.30946  21233479.9454                   21233474.4694
        48.5004         39.0004
 -11051680.72747  -8592919.30546  22790275.2584                   22790275.8674
        42.5004         37.7504
  -2878246.98055  -2222768.08654  24255713.0394                   24255714.3954
        34.7504         27.2504
 -26089758.28547 -20305055.43446  20721885.4144                   20721881.4774
        47.5004         39.0004
  -3929731.27346  -3043093.21543  24307014.8134                   24307017.8444
        38.7504         20.2504
  -1996657.52345  -1536275.48444  24741602.2034                   24741609.3554
        34.7504         26.7504
  -5023359.81647  -4096796.77047  22399521.7034                   22399520.3364
        46.5004         44.0004
 -26120336.91847 -20329576.09448  20505754.3594                   20505750.2704
        47.0004         48.0004
 -20646709.59847 -16053550.91846  21363100.7734                   21363097.5784
        46.5004         36.0004
 25  7  2  0 16 30.0000000  0 10G10G02G03G25G28G04G26G32G31G01
   5159733.35947   3959288.43846  22910851.3054                   22910851.6334
        44.2504         39.5004
 -23882236.59448 -18573004.31246  21235156.9844                   21235151.6134
        49.0004         39.0004
 -11143655.57847  -8664587.90246  22772773.6644                   22772773.2274
        43.0004         38.0004
  -2899343.97345  -2239207.26244  24251699.0084                   24251699.9574
        33.7504         27.7504
 -26084662.44948 -20301084.64146  20722854.7424                   20722851.0744
        48.0004         39.0004
  -4015662.68046  -3110052.57043  24290662.4064                   24290665.0394
        38.0004         20.2504
  -2091476.75045  -1610160.28944  24723559.2584                   24723565.3954
        34.2504         25.5004
  -4964860.25847  -4051212.71947  22410653.7114                   22410652.6334
        46.2504         44.0004
 -26183763.72347 -20378999.53148  20493684.6414                   20493680.3594
        47.0004         48.0004
 -20702133.42647 -16096738.30945  21352554.1724                   21352550.8014
        47.0004         34.7504
 25  7  2  0 17  0.0000000  0 10G10G02G03G25G28G04G26G32G31G01
   5218851.77347   4005354.67646  22922100.9534                   22922100.9924
        43.7504         39.2504
 -23872910.62548 -18565737.34046  21236931.6094                   21236926.0664
        48.5004         39.2504
 -11235590.53147  -8736225.43446  22755278.9534                   22755278.1054
        43.0004         36.7504
  -2919941.34445  -2255257.11344  24247778.3984                   24247779.9694
        33.5004         27.5004
 -26078983.39147 -20296659.37946  20723935.5944                   20723931.6054
        47.7504         39.0004
  -4101458.82446  -3176906.52343  24274335.4224                   24274338.2234
        38.0004         21.5004
  -2186404.79745  -1684129.87944  24705494.6254                   24705500.5474
        34.7504         27.7504
  -4906291.60247  -4005574.82447  22421798.8284                   22421798.0514
        46.2504         43.5004
 -26246634.00447 -20427989.30948  20481720.9534                   20481715.8324
        47.5004         48.2504
 -20757046.49647 -16139527.69145  21342104.3364                   21342101.0824
        47.0004         35.2504
 25  7  2  0 17 30.0000000  0 10G10G02G03G25G28G04G26G32G31G01
   5278224.75047   4051619.27346  22933399.4454                   22933399.7274
        44.0004         39.5004
 -23863071.47348 -18558070.46946  21238803.9454                   21238798.3324
        48.2504         39.0004
 -11327483.80147  -8807830.47346  22737791.0864                   22737791.8754
        42.5004         37.5004
  -2940037.05945  -2270916.06244  24243955.4774                   24243956.1954
        34.0004         26.0004
 -26072721.17247 -20291779.71946  20725126.9454                   20725123.4844
        47.0004         39.2504
  -4187118.84446  -3243654.41443  24258035.4304                   24258038.2034
        39.5004         21.7504
  -2281438.30945  -1758181.61744  24687409.3284                   24687416.0274
        34.7504         26.0004
  -4847654.07847  -3959883.27747  22432957.6174                   22432955.9574
        46.2504         43.5004
 -26308945.11348 -20476543.37148  20469863.3444                   20469859.0554
        48.0004         48.0004
 -20811446.21947 -16181917.06645  21331752.5704                   21331749.0984
        47.5004         34.7504
 25  7  2  0 18  0.0000000  0 10G10G02G03G25G28G04G26G32G31G01
   5337850.51647   4098080.84846  22944746.3284                   22944746.2194
        45.0004         40.2504
 -23852721.27748 -18550005.39846  21240773.4694                   21240768.0744
        48.7504         39.0004
 -11419335.70347  -8879403.28146  22720312.7584                   22720312.9534
        42.5004         37.0004
  -2959631.42245  -2286184.34844  24240227.0784                   24240227.2664
        33.5004         25.7504
 -26065878.35547 -20286447.63746  20726429.2974                   20726425.3874
        47.7504         38.5004
  -4272644.27346  -3310297.43043  24241760.1254                   24241762.3244
        38.2504         20.5004
  -2376576.31645  -1832314.80544  24669304.8834                   24669311.4884
        35.2504         25.2504
  -4788950.32447  -3914140.10947  22444128.4064                   22444127.0274
        46.7504         43.5004
 -26370697.01248 -20524661.68448  20458112.3054                   20458107.6254
        48.5004         48.2504
 -20865332.46147 -16223906.34045  21321498.2274                   21321494.9574
        46.7504         35.5004
 25  7  2  0 18 30.0000000  0 10G10G02G03G25G28G04G26G32G31G01
   5397730.56647   4144740.57046  22956141.2734                   22956141.2544
        43.5004         40.5004
 -23841859.12548 -18541541.39846  21242840.5634                   21242834.9734
        49.0004         38.5004
 -11511143.48446  -8950941.69546  22702842.2034                   22702842.3054
        41.2504         37.5004
  -2978721.36345  -2301059.58644  24236594.2194                   24236595.2114
        33.2504         26.7504
 -26058454.25847 -20280662.61346  20727842.2734                   20727838.0434
        47.7504         39.0004
  -4358033.35946  -3376834.19943  24225510.9534                   24225513.8204
        38.7504         21.5004
  -2471814.70745  -1906526.24244  24651181.1334                   24651187.7664
        35.2504         24.5004
  -4730179.78947  -3868344.90647  22455311.9304                   22455310.7424
        46.0004         43.5004
 -26431886.34448 -20572341.63348  20446468.3284                   20446463.9264
        48.5004         48.2504
 -20918701.93447 -16265492.92645  21311342.6094                   21311339.1524
        46.7504         35.2504
 25  7  2  0 19  0.0000000  0 10G10G02G03G25G28G04G26G32G31G01
   5457865.09047   4191598.57046  22967584.4694                   22967584.2234
        44.5004         40.0004
 -23830485.05948 -18532678.49646  21245004.9844                   21244999.0234
        48.5004         39.2504
 -11602905.58246  -9022444.51246  22685380.3754                   22685380.3954
        40.7504         38.0004
  -2997305.43745  -2315540.64144  24233057.3134                   24233058.1054
        33.5004         26.5004
 -26050449.44147 -20274425.08246  20729365.1954                   20729361.5514
        47.2504         39.0004
  -4443285.66446  -3443264.37543  24209287.6804                   24209290.8554
        39.0004         21.5004
  -2567150.52045  -1980813.56644  24633038.8594                   24633046.0474
        35.0004         24.5004
  -4671343.11347  -3822498.17247  22466508.6254                   22466507.0434
        46.7504         43.7504
 -26492511.13748 -20619581.69148  20434931.5784                   20434927.3444
        48.2504         48.2504
 -20971552.57447 -16306675.22746  21301285.3754                   21301282.2464
        46.7504         36.0004
 25  7  2  0 19 30.0000000  0 10G10G02G03G25G28G04G26G32G31G01
   5518252.18447   4238653.38746  22979075.5944                   22979075.3524
        43.0004         39.2504
 -23818601.89148 -18523418.90246  21247266.2974                   21247260.1724
        48.2504         39.2504
 -11694622.57846  -9093912.17646  22667926.9224                   22667927.3984
        41.2504         37.7504
  -3015384.05945  -2329627.84444  24229616.6484                   24229617.8954
        32.0004         27.5004
 -26041866.66847 -20267737.19546  20730998.4144                   20730994.6094
        47.5004         39.0004
  -4528402.78946  -3509589.21543  24193089.7814                   24193092.8984
        38.2504         21.5004
  -2662582.84045  -2055176.10244  24614880.4384                   24614885.5824
        35.5004         24.7504
  -4612443.05147  -3776602.03547  22477716.6024                   22477715.1484
        45.2504         43.5004
 -26552571.30548 -20666381.76248  20423502.2114                   20423498.5354
        48.0004         48.2504
 -21023884.45347 -16347453.30145  21291326.9224                   21291323.5044
        46.5004         35.7504
 25  7  2  0 20  0.0000000  0 10G10G02G03G25G28G04G26G32G31G01
   5578895.40647   4285907.78146  22990615.3594                   22990615.6414
        44.0004         39.0004
 -23806206.51648 -18513760.18746  21249624.7344                   21249619.1994
        48.5004         38.5004
 -11786289.52346  -9165340.84846  22650483.7034                   22650483.4614
        40.7504         37.5004
  -3032952.30945  -2343317.34844  24226275.4534                   24226275.2114
        33.5004         26.7504
 -26032703.14847 -20260596.78546  20732742.2274                   20732738.1684
        47.7504         38.5004
  -4613380.90646  -3575805.77343  24176919.8674                   24176921.8364
        39.5004         21.2504
  -2758105.39546  -2129608.93444  24596701.8674                   24596707.7154
        36.5004         27.5004
  -4553476.84847  -3730654.36747  22488937.8134                   22488936.3634
        46.7504         43.7504
 -26612061.52348 -20712737.72748  20412181.9224                   20412177.6764
        48.0004         48.2504
 -21075692.07847 -16387822.85545  21281468.0004                   21281464.7974
        47.5004         35.5004
 25  7  2  0 20 30.0000000  0 10G10G02G03G25G28G04G26G32G31G01
   5639799.98047   4333365.83246  23002205.3134                   23002204.9884
        44.0004         38.7504
 -23793294.28948 -18503698.72746  21252082.0634                   21252076.7974
        48.5004         39.0004
 -11877899.69546  -9236725.28546  22633049.9304                   22633050.5864
        40.2504         37.7504
  -3050003.52055  -2356603.94954  24223029.8204                   24223029.9964
        33.0004         27.5004
 -26022954.50847 -20253000.43046  20734597.7114                   20734593.6914
        47.5004         39.0004
  -4698214.59446  -3641909.75043  24160776.0784                   24160778.2934
        40.2504         21.7504
  -2853710.03146  -2204105.72744  24578508.1954                   24578514.8524
        36.7504         28.5004
  -4494440.12947  -3684651.74247  22500172.0784                   22500170.6764
        46.5004         43.5004
 -26670974.69147 -20758644.04748  20400971.0164                   20400966.6804
        47.5004         48.0004
 -21126968.47747 -16427778.46945  21271710.3984                   21271707.1804
        46.2504         35.5004
 25  7  2  0 21  0.0000000  0 10G10G02G03G25G28G04G26G32G31G01
   5700960.78547   4381023.53146  23013843.5164                   23013844.1724
        42.5004         39.0004
 -23779870.85248 -18493238.91846  21254636.8054                   21254631.1174
        48.5004         39.0004
 -11969456.88347  -9308068.44946  22615627.6254                   22615627.9104
        42.0004         38.7504
  -3066541.38345  -2369490.55944  24219882.5864                   24219882.9694
        34.0004         27.0004
 -26012626.71948 -20244952.79346  20736562.5704                   20736559.0664
        48.0004         38.5004
  -4782908.59046  -3707904.90643  24144659.9844                   24144661.8954
        39.2504         20.7504
  -2949399.22746  -2278668.43744  24560299.2424                   24560305.4384
        38.5004         28.2504
  -4435338.82047  -3638598.79747  22511418.4304                   22511416.9734
        46.5004         43.5004
 -26729314.17247 -20804103.34048  20389869.2584                   20389864.7544
        47.0004         48.0004
 -21177716.93047 -16467322.70345  21262053.1024                   21262050.1764
        47.0004         35.5004
 25  7  2  0 21 30.0000000  0 10G10G02G03G25G28G04G26G32G31G01
   5762373.45747   4428877.48446  23025530.0084                   23025530.5434
        43.2504         38.0004
 -23765941.32448 -18482384.75846  21257287.2034                   21257281.7304
        48.5004         39.0004
 -12060963.97347  -9379372.58646  22598214.7894                   22598214.4734
        42.5004         39.5004
  -3082568.91445  -2381979.50844  24216832.0314                   24216833.3554
        32.5004         26.7504
 -26001725.06647 -20236457.97746  20738637.3204                   20738633.7234
        47.2504         38.5004
  -4867466.95346  -3773794.39143  24128568.4454                   24128570.7384
        39.5004         20.5004
  -3045174.39146  -2353298.13344  24542073.9384                   24542080.0394
        38.0004         28.7504
  -4376178.01247  -3592499.49247  22522676.5234                   22522675.3014
        46.2504         43.7504
 -26787082.50047 -20849117.58248  20378876.3134                   20378872.0044
        47.5004         48.2504
 -21227940.01647 -16506457.55145  21252496.1254                   21252493.2114
        46.5004         35.5004
 25  7  2  0 22  0.0000000  0 10G10G02G03G25G28G04G26G32G31G01
   5824037.50847   4476927.32446  23037264.7274                   23037264.9224
        43.5004         37.5004
 -23751506.97348 -18471137.23046  21260033.9454                   21260028.1684
        48.2504         38.7504
 -12152419.94547  -9450636.89146  22580811.2034                   22580811.2344
        43.0004         39.5004
  -3098085.34845  -2394070.21144  24213879.5084                   24213880.0634
        33.0004         25.5004
 -25990250.87147 -20227517.03546  20740820.5944                   20740816.9844
        47.5004         38.2504
  -4951889.91046  -3839578.34443  24112502.9384                   24112504.6764
        39.7504         19.7504
  -3141033.25046  -2427993.03544  24523832.1954                   24523837.9924
        38.7504         29.0004
  -4316958.94547  -3546354.78147  22533946.0554                   22533944.4384
        47.5004         43.7504
 -26844278.34848 -20893685.72348  20367992.3444                   20367987.8794
        48.5004         48.2504
 -21277636.38347 -16545181.96546  21243039.5164                   21243036.1644
        47.0004         36.0004
 25  7  2  0 22 30.0000000  0 10G10G02G03G25G28G04G26G32G31G01
   7461378.12947   5752777.10246  23348840.5864                   23348840.5984
        43.0004         38.2504
 -22161141.49247 -17231891.41846  21562670.5634                   21562664.8674
        46.5004         39.0004
 -10668393.09047  -8294252.23446  22863211.4694                   22863211.4694
        43.7504         38.7504
  -1537661.58245  -1178155.55144  24510818.4304                   24510819.1174
        34.5004         26.2504
 -24402778.21547 -18990525.35246  21042907.1254                   21042903.2114
        45.5004         39.0004
  -3460747.21146  -2677648.78543  24396258.0784                   24396259.8954
        38.7504         19.7504
  -1661542.37546  -1275142.69544  24805369.9844                   24805375.1884
        38.5004         29.2504
  -2682257.16847  -2272561.21547  22845019.0474                   22845017.5274
        47.0004         43.0004
 -25325470.65648 -19710199.16848  20657011.9534                   20657007.5784
        48.2504         48.5004
 -19751375.38347 -15355887.63345  21533477.0784                   21533473.8284
        46.2504         35.5004
 25  7  2  0 23  0.0000000  0 10G10G02G03G25G28G04G26G32G31G01
   7523556.43047   5801227.66446  23360672.8204                   23360672.5664
        42.7504         37.7504
 -22145687.28948 -17219849.20346  21565611.1804                   21565605.9224
        48.5004         39.2504
 -10759730.91847  -8365424.47746  22845830.4454                   22845830.8244
        43.2504         39.5004
  -1552140.19945  -1189437.55544  24508062.2114                   24508064.0944
        33.5004         26.5004
 -24390150.16847 -18980685.29746  21045309.9064                   21045305.5554
        47.2504         39.0004
  -3544887.03546  -2743212.11743  24380246.2034                   24380248.4414
        38.0004         19.0004
  -1757548.35546  -1349952.23044  24787100.5084                   24787105.4734
        38.2504         27.7504
  -2622912.37547  -2226318.53947  22856311.7274                   22856310.5744
        47.0004         43.0004
 -25381504.71948 -19753862.03548  20646348.8364                   20646344.3284
        48.0004         48.2504
 -19800001.47747 -15393778.07045  21524223.5474                   21524220.4804
        46.7504         35.7504
 25  7  2  0 23 30.0000000  0 10G10G02G03G25G28G04G26G32G31G01
   7585991.62547   5849878.39846  23372554.1884                   23372553.5744
        43.7504         38.0004
 -22129724.55547 -17207410.72746  21568648.9384                   21568643.5164
        46.2504         39.0004
 -10851007.69147  -8436549.15246  22828461.6564                   22828460.9924
        43.5004         39.2504
  -1566098.33645  -1200314.00044  24505407.3364                   24505407.9964
        34.5004         26.5004
 -24376946.82447 -18970396.97346  21047821.9144                   21047817.9804
        45.5004         38.7504
  -3628885.10546  -2808664.97743  24364262.2664                   24364264.2304
        37.5004         19.2504
  -1853623.80546  -1424815.90244  24768817.6024                   24768822.7894
        38.5004         27.7504
  -2563506.05547  -2180027.92247  22867616.4064                   22867615.1804
        47.5004         43.0004
 -25436955.69548 -19797070.54348  20635796.7504                   20635792.4574
        48.7504         48.2504
 -19848090.03947 -15431249.64145  21515072.6174                   21515069.1684
        46.7504         35.5004
 25  7  2  0 24  0.0000000  0 10G10G02G03G25G28G04G26G32G31G01
   7648681.76647   5898727.78946  23384483.1644                   23384482.9494
        42.5004         39.2504
 -22113255.66848 -17194577.84846  21571782.9304                   21571777.5314
        48.2504         38.2504
 -10942223.75847  -8507626.52346  22811103.1254                   22811102.7814
        43.5004         39.5004
  -1579536.48445  -1210785.26644  24502850.0234                   24502850.5314
        34.7504         26.7504
 -24363171.05547 -18959662.60546  21050444.0634                   21050439.9024
        46.7504         38.7504
  -3712743.06246  -2874008.65242  24348304.3754                   24348306.3054
        37.7504         17.7504
  -1949767.77046  -1499732.97744  24750521.1644                   24750526.8014
        38.5004         26.0004
  -2504040.78947  -2133691.37547  22878932.9924                   22878931.5514
        46.2504         42.7504
 -25491823.66048 -19839824.75848  20625355.5554                   20625351.4654
        48.5004         48.5004
 -19895641.23847 -15468302.49645  21506024.1804                   21506020.9734
        46.7504         35.5004
 25  7  2  0 24 30.0000000  0 10G10G02G03G25G28G04G26G32G31G01
   7711623.27747   5947773.05946  23396460.5944                   23396460.5354
        43.5004         38.7504
 -22096285.28948 -17181354.19546  21575012.1094                   21575006.8674
        48.0004         38.7504
 -11033381.19547  -8578658.21546  22793756.5474                   22793755.9694
        43.2504         39.2504
  -1592456.89845  -1220853.10944  24500390.2034                   24500392.1214
        33.5004         24.7504
 -24348827.43747 -18948485.75446  21053172.9384                   21053169.5744
        47.7504         38.7504
  -3796464.20746  -2939245.73442  24332372.4774                   24332375.0314
        37.5004         17.2504
  -2045980.94146  -1574704.01244  24732212.2504                   24732217.8634
        38.0004         26.0004
  -2444520.86347  -2087312.23447  22890259.0704                   22890257.4144
        46.5004         43.0004
 -25546110.57848 -19882126.21148  20615025.3204                   20615020.9384
        48.5004         48.5004
 -19942656.89547 -15504938.04746  21497077.3054                   21497074.1454
        46.7504         36.0004
 25  7  2  0 25  0.0000000  0 10G10G02G03G25G28G04G26G32G31G01
   7774817.18447   5997015.01246  23408486.1724                   23408486.4574
        44.5004         39.0004
 -22078812.79747 -17167739.28946  21578337.2894                   21578331.6724
        46.2504         38.2504
 -11124477.31647  -8649642.12946  22776421.7114                   22776421.1254
        44.5004         39.0004
  -1604857.36745  -1230515.79344  24498031.3984                   24498032.0984
        33.0004         26.5004
 -24333915.78947 -18936866.27746  21056010.7734                   21056006.6484
        45.7504         39.0004
  -3880047.08246  -3004375.04743  24316466.7344                   24316468.9694
        37.2504         19.0004
  -2142259.16846  -1649725.74644  24713890.9304                   24713896.5124
        37.7504         27.5004
  -2384945.84447  -2040890.16847  22901595.4774                   22901593.9884
        46.5004         42.5004
 -25599813.65248 -19923972.72748  20604805.6954                   20604801.5314
        48.7504         48.5004
 -19989134.16847 -15541154.06646  21488233.0234                   21488229.8324
        46.5004         36.5004
 25  7  2  0 25 30.0000000  0 10G10G02G03G25G28G04G26G32G31G01
   7838271.01247   6046459.49646  23420561.2274                   23420561.3324
        44.0004         38.5004
 -22060831.35547 -17153727.79746  21581758.7894                   21581753.4064
        46.5004         39.0004
 -11215503.02347  -8720571.17646  22759099.7274                   22759099.2384
        43.2504         39.0004
  -1616729.14155  -1239766.48454  24495771.5004                   24495772.8834
        31.5004         26.5004
 -24318429.67247 -18924799.17246  21058957.8284                   21058953.6804
        45.7504         39.0004
  -3963483.92246  -3069390.60242  24300588.7734                   24300591.0124
        37.5004         17.7504
  -2238592.03546  -1724790.03944  24695559.5944                   24695564.6524
        37.5004         28.2504
  -2325308.88747  -1994419.83247  22912944.4144                   22912942.5124
        46.5004         42.2504
 -25652923.62148 -19965357.07848  20594699.5164                   20594695.1254
        48.5004         48.5004
 -20035063.87147 -15576943.42246  21479492.8444                   21479489.8484
        46.2504         36.2504
 25  7  2  0 26  0.0000000  0 10G10G02G03G25G28G04G26G32G31G01
   7901979.48047   6096102.39546  23432683.7034                   23432684.3794
        43.0004         37.2504
 -22042347.07847 -17139324.47746  21585276.2894                   21585271.0744
        47.5004         38.5004
 -11306462.05547  -8791448.27346  22741790.5394                   22741790.2234
        43.0004         38.5004
  -1628076.25055  -1248608.38754  24493612.9614                   24493613.8244
        33.7504         28.0004
 -24302375.30547 -18912289.27346  21062012.3524                   21062008.9654
        47.5004         39.2504
  -4046779.73846  -3134296.23843  24284738.4774                   24284740.3714
        38.0004         18.5004
  -2334981.82046  -1799898.63744  24677216.0864                   24677221.7464
        36.7504         27.0004
  -2265615.93747  -1947905.85947  22924303.0474                   22924302.1174
        46.5004         42.5004
 -25705443.93748 -20006281.95748  20584705.2974                   20584700.6374
        48.5004         48.5004
 -20080449.59447 -15612308.88746  21470856.1094                   21470852.9264
        46.5004         36.5004
 25  7  2  0 26 30.0000000  0 10G10G02G03G25G28G04G26G32G31G01
   7965944.36747   6145945.09046  23444857.2424                   23444856.6724
        43.2504         36.5004
 -22023358.64848 -17124528.32046  21588889.9454                   21588884.2114
        48.5004         39.0004
 -11397350.90247  -8862270.67246  22724495.6724                   22724494.6054
        43.5004         38.2504
  -1638895.65245  -1257039.07844  24491553.6174                   24491554.3794
        34.0004         27.2504
 -24285751.95747 -18899336.01646  21065175.9454                   21065172.1484
        47.2504         39.5004
  -4129932.35546  -3199090.28543  24268915.1414                   24268916.9024
        37.7504         18.5004
  -2431423.73045  -1875047.86344  24658863.2344                   24658869.2424
        35.5004         27.0004
  -2205865.75447  -1901347.30147  22935673.1414                   22935672.0474
        46.7504         42.5004
 -25757371.56248 -20046745.00448  20574823.6334                   20574819.0984
        48.5004         48.5004
 -20125287.80547 -15647247.71946  21462323.6334                   21462320.1764
        46.7504         36.5004
 25  7  2  0 27  0.0000000  0 10G10G02G03G25G28G04G26G32G31G01
   8030168.61747   6195989.89546  23457077.6094                   23457078.4494
        43.0004         37.2504
 -22003864.20348 -17109337.86746  21592599.6254                   21592593.9534
        48.0004         38.5004
 -11488164.98047  -8933034.80546  22707213.5784                   22707213.0354
        43.7504         38.2504
  -1649183.15245  -1265055.32044  24489595.7664                   24489597.0704
        35.2504         28.5004
 -24268557.63747 -18885937.84446  21068447.9844                   21068444.1604
        47.0004         38.5004
  -4212938.48046  -3263770.18743  24253119.1954                   24253121.4344
        37.2504         18.5004
  -2527911.78945  -1950233.04344  24640502.6414                   24640508.2234
        35.0004         27.2504
  -2146055.98847  -1854742.30547  22947055.0164                   22947053.4774
        47.0004         42.5004
 -25808701.64148 -20086742.42648  20565055.6024                   20565051.1604
        49.0004         48.5004
 -20169573.79347 -15681756.26246  21453896.2814                   21453893.3984
        46.2504         36.0004
 25  7  2  0 27 30.0000000  0 10G10G02G03G25G28G04G26G32G31G01
   8094651.89147   6246236.54346  23469349.3204                   23469348.6644
        43.5004         36.7504
 -21983864.71547 -17093753.87146  21596405.5784                   21596399.8714
        46.5004         39.0004
 -11578903.00847  -9003739.68046  22689946.8914                   22689946.3164
        43.2504         38.7504
  -1658938.02745  -1272656.51644  24487740.0004                   24487740.9774
        34.0004         27.2504
 -24250793.73847 -18872095.83646  21071828.5474                   21071824.4804
        45.5004         38.7504
  -4295798.18446  -3328336.01643  24237351.2734                   24237353.6374
        37.7504         19.7504
  -2624443.24645  -2025452.03944  24622132.2814                   24622138.0784
        34.5004         25.2504
  -2086187.57047  -1808091.61747  22958447.6414                   22958446.4024
        46.5004         42.2504
 -25859433.02348 -20126273.33248  20555401.6804                   20555397.1764
        49.0004         48.5004
 -20213306.31247 -15715833.53145  21445574.3284                   21445571.3204
        46.5004         35.5004
 25  7  2  0 28  0.0000000  0 10G10G02G03G25G28G04G26G32G31G01
   8159395.87947   6296686.34046  23481669.6254                   23481669.5234
        44.0004         36.5004
 -21963359.43447 -17077775.74646  21600307.5634                   21600301.8874
        46.2504         38.7504
 -11669561.64147  -9074382.67646  22672695.1024                   22672694.6054
        43.7504         39.0004
  -1668157.38745  -1279840.44544  24485985.6094                   24485986.2584
        34.5004         28.5004
 -24232459.65647 -18857809.53946  21075317.0554                   21075313.1564
        46.2504         38.5004
  -4378509.51646  -3392786.18743  24221611.2274                   24221613.6564
        37.7504         19.7504
  -2721013.52745  -2100701.31244  24603755.9144                   24603761.1844
        34.0004         27.0004
  -2026259.39847  -1761394.37547  22969850.9774                   22969850.4224
        47.0004         42.2504
 -25909562.55148 -20165335.25848  20545862.6414                   20545858.2974
        48.7504         48.7504
 -20256481.98847 -15749476.88746  21437358.0864                   21437354.6604
        46.2504         36.2504
 25  7  2  0 28 30.0000000  0 10G10G02G03G25G28G04G26G32G31G01
   8224393.60247   6347333.85546  23494038.0164                   23494038.0514
        43.5004         37.0004
 -21942355.67647 -17061409.19946  21604304.0944                   21604298.3754
        46.2504         38.5004
 -11760146.03947  -9144967.83246  22655457.2974                   22655457.0164
        44.0004         39.5004
  -1676846.90245  -1286611.49644  24484332.0084                   24484333.1954
        32.7504         27.2504
 -24213563.34047 -18843085.13346  21078913.0784                   21078909.0864
        45.5004         38.2504
  -4461078.96946  -3457125.82843  24205898.9694                   24205901.3634
        38.2504         21.2504
  -2817626.33245  -2175983.71144  24585370.9844                   24585376.2274
        33.7504         27.0004
  -1966278.89147  -1714656.34447  22981265.3754                   22981263.7664
        46.5004         42.2504
 -25959095.40248 -20203932.24648  20536436.6484                   20536431.9574
        48.7504         48.5004
 -20299106.06647 -15782690.43746  21429247.6484                   21429243.8054
        46.7504         36.5004
 25  7  2  0 29  0.0000000  0 10G10G02G03G25G28G04G26G32G31G01
   8289653.12147   6398185.36746  23506456.2034                   23506456.6024
        43.2504         37.0004
 -21920846.43047 -17044648.77746  21608397.5314                   21608392.1214
        46.2504         38.5004
 -11850646.47747  -9215487.56246  22638235.5554                   22638235.5004
        44.0004         39.0004
  -1684997.65245  -1292962.71944  24482781.5554                   24482782.0394
        32.0004         26.0004
 -24194097.86347 -18827917.21546  21082617.4304                   21082613.3954
        45.7504         38.5004
  -4543498.21946  -3521348.43043  24190215.3134                   24190217.5084
        39.0004         22.2504
  -2914270.55545  -2251290.59444  24566979.7734                   24566985.0314
        35.5004         28.5004
  -1906238.58247  -1667871.71547  22992690.4454                   22992689.5434
        46.7504         42.2504
 -26008022.14848 -20242056.94148  20527125.9694                   20527121.6564
        48.5004         48.5004
 -20341168.87147 -15815466.62546  21421242.6254                   21421239.6804
        46.5004         36.2504
 25  7  2  0 29 30.0000000  0 10G10G02G03G25G28G04G26G32G31G01
   8355167.71147   6449235.64146  23518923.1174                   23518923.5434
        43.2504         37.0004
 -21898839.05547 -17027500.19146  21612585.3054                   21612580.1054
        47.0004         39.0004
 -11941067.89147  -9285945.71546  22621028.7894                   22621028.4184
        43.5004         39.5004
  -1692614.85545  -1298898.21544  24481332.7894                   24481332.5664
        31.5004         25.0004
 -24174070.94947 -18812311.82846  21086428.0004                   21086424.2464
        47.2504         38.5004
  -4625773.59846  -3585458.95743  24174558.4614                   24174560.2704
        40.0004         22.5004
  -3010949.69945  -2326624.69145  24548582.8594                   24548587.9264
        35.7504         30.0004
  -1846145.60947  -1621046.05947  23004126.0314                   23004124.5314
        46.2504         42.2504
 -26056347.67248 -20279713.15648  20517930.0784                   20517925.2584
        48.7504         48.7504
 -20382675.41047 -15847809.36346  21413344.2194                   21413341.0784
        46.7504         36.0004
 25  7  2  0 30  0.0000000  0 10G10G02G03G25G28G04G26G32G31G01
   8420930.31647   6500479.14846  23531437.5554                   23531437.9144
        43.5004         37.5004
 -21876341.70747 -17009969.80946  21616866.3674                   21616860.4224
        47.2504         39.0004
 -12031415.63747  -9356346.47346  22603836.2034                   22603835.7894
        43.2504         39.5004
                                  24479982.8284                   24479983.0664
        32.0004         25.2504
 -24153490.78147 -18796275.33246  21090344.6644                   21090340.6644
        45.5004         39.0004
  -4707911.80546  -3649462.55144  24158928.0314                   24158930.0864
        40.2504         24.0004
  -3107667.76246  -2401989.12144  24530177.5394                   24530182.5204
        36.5004         29.2504
  -1786007.58647  -1574185.28947  23015569.8754                   23015568.3594
        47.0004         42.2504
 -26104077.70348 -20316905.35248  20508847.4144                   20508843.0164
        49.0004         48.7504
 -20423631.20347 -15879722.94946  21405550.9844                   21405547.6914
        45.7504         36.2504
 25  7  2  0 30 30.0000000  0 10G10G02G03G25G28G04G26G32G31G01
   8486950.33247   6551923.24246  23544000.8984                   23544001.6764
        43.7504         38.2504
 -21853345.59847 -16992050.78146  21621242.4384                   21621236.8594
        47.2504         39.2504
 -12121678.49647  -9426681.09046  22586659.8054                   22586659.6174
        43.2504         39.7504
  -1706256.57055  -1309528.12954  24478734.8834                   24478736.7384
        30.7504         24.2504
 -24132349.05947 -18779801.26246  21094367.4844                   21094363.9734
        47.2504         38.5004
  -4789903.18746  -3713351.78143  24143326.0864                   24143327.1954
        40.2504         23.0004
  -3204412.20346  -2477374.10545  24511767.7274                   24511772.1684
        37.2504         30.5004
  -1725815.50847  -1527282.39147  23027024.0234                   23027022.7974
        46.0004         42.5004
 -26151201.28948 -20353624.99248  20499879.8134                   20499875.5474
        48.7504         48.7504
 -20464025.19547 -15911198.77346  21397863.8594                   21397860.9924
        47.0004         36.5004
 25  7  2  0 31  0.0000000  0 10G10G02G03G25G28G04G26G32G31G01
   8553222.96547   6603564.17646  23556612.7194                   23556612.8324
        44.0004         38.5004
 -21829856.23047 -16973747.40246  21625712.0634                   21625706.8444
        46.5004         38.5004
 -12211859.45347  -9496951.87146  22569499.0554                   22569497.9844
        43.7504         40.7504
  -1712274.23855  -1314217.24654  24477590.5944                   24477591.6884
        31.2504         24.7504
 -24110651.70347 -18762894.23046  21098496.5084                   21098492.8594
        46.0004         38.2504
  -4871752.09046  -3777129.94943  24127749.9614                   24127751.4734
        40.5004         22.7504
  -3301184.73846  -2552780.98845  24493352.0234                   24493357.1804
        36.7504         31.0004
  -1665574.74247  -1480341.57046  23038487.2894                   23038485.9494
        46.5004         41.7504
 -26197721.73448 -20389874.65648  20491027.2894                   20491022.8594
        49.5004         48.7504
 -20503860.53147 -15942239.28146  21390283.2274                   21390280.3444
        45.2504         36.5004
 25  7  2  0 31 30.0000000  0 10G10G02G03G25G28G04G26G32G31G01
   8619747.96947   6655401.76646  23569271.7194                   23569272.2734
        44.0004         38.5004
 -21805874.92247 -16955060.68746  21630275.7814                   21630270.2734
        46.0004         38.5004
 -12301956.98847  -9567157.66046  22552353.6564                   22552353.1174
        44.0004         41.2504
  -1717756.89545  -1318489.45344  24476547.5784                   24476547.9884
        32.5004         25.5004
 -24088400.11747 -18745555.32446  21102730.7344                   21102726.9224
        45.5004         38.5004
  -4953458.42646  -3840797.06643  24112201.9924                   24112203.1214
        41.2504         23.2504
  -3397982.23446  -2628207.31245  24474932.1724                   24474936.3834
        37.5004         30.0004
  -1605285.86347  -1433363.25847  23049960.1884                   23049958.9304
        46.5004         42.0004
 -26243637.81648 -20425653.38348  20482289.8834                   20482285.5274
        48.7504         48.7504
 -20543135.91047 -15972843.45346  21382809.7814                   21382806.5314
        45.2504         36.5004
 25  7  2  0 32  0.0000000  0 10G10G02G03G25G28G04G26G32G31G01
   8686525.74247   6707436.30546  23581979.5004                   23581979.9384
        43.0004         38.0004
 -21781401.98447 -16935990.88346  21634932.7814                   21634927.1644
        46.5004         38.5004
 -12391968.73847  -9637296.60246  22535224.7974                   22535224.7734
        44.2504         40.7504
  -1722702.97745  -1322343.55544  24475605.1254                   24475606.5004
        34.0004         27.0004
 -24065594.93047 -18727785.04746  21107070.7274                   21107066.6914
        47.5004         38.7504
  -5035021.38346  -3904352.45343  24096681.7664                   24096682.1414
        40.5004         23.0004
  -3494801.20746  -2703650.37145  24456507.6254                   24456512.3324
        37.0004         31.0004
  -1544948.87547  -1386347.46147  23061442.1174                   23061440.5234
        46.2504         42.0004
 -26288947.45348 -20460959.55948  20473667.6564                   20473663.0234
        48.5004         49.0004
 -20581849.28947 -16003009.71146  21375443.0554                   21375439.3404
        45.7504         36.7504
 25  7  2  0 32 30.0000000  0 10G10G02G03G25G28G04G26G32G31G01
   8753558.18047   6759669.28546  23594735.3834                   23594735.1764
        43.5004         38.0004
 -21756436.47347 -16916537.25846  21639683.5784                   21639678.1564
        46.5004         38.0004
 -12481891.02347  -9707365.84046  22518112.6884                   22518112.8054
        43.5004         41.2504
  -1727109.76645  -1325777.40644  24474767.3754                   24474767.8054
        34.0004         27.2504
 -24042235.46147 -18709582.85946  21111515.4384                   21111511.6724
        46.5004         38.7504
  -5116438.73046  -3967794.35543  24081187.0004                   24081189.0704
        40.2504         23.7504
  -3591636.48846  -2779106.16045  24438080.2424                   24438084.9494
        37.5004         32.2504
  -1484562.34847  -1339293.07046  23072933.1334                   23072931.9184
        46.0004         41.7504
 -26333647.63748 -20495790.84048  20465161.3524                   20465157.1334
        49.0004         49.0004
 -20619997.23847 -16032735.37146  21368183.7734                   21368180.4384
        45.5004         36.0004
 25  7  2  0 33  0.0000000  0 10G10G02G03G25G28G04G26G32G31G01
   8820847.23847   6812102.22746  23607540.7274                   23607540.4024
        43.7504         38.0004
 -21730977.42247 -16896699.06246  21644528.4384                   21644522.8244
        47.2504         38.2504
 -12571720.05147  -9777362.40246  22501019.0394                   22501019.0124
        44.0004         41.5004
  -1730973.95745  -1328788.47744  24474032.6024                   24474032.8094
        32.7504         25.7504
 -24018320.85247 -18690948.09846  21116066.3524                   21116062.7894
        46.2504         38.7504
  -5197708.11546  -4031120.98344  24065722.7664                   24065723.5124
        41.0004         24.5004
  -3688482.84846  -2854570.57445  24419651.2504                   24419655.2274
        38.5004         31.7504
  -1424124.62947  -1292198.78946  23084433.3984                   23084432.8754
        46.5004         41.5004
 -26377734.73448 -20530144.39148  20456771.8444                   20456767.2274
        48.2504         49.0004
 -20657576.27747 -16062017.72746  21361032.6644                   21361029.1524
        46.2504         36.2504
 25  7  2  0 33 30.0000000  0 10G10G02G03G25G28G04G26G32G31G01
   8888388.28147   6864731.53946  23620392.4924                   23620392.9184
        43.2504         37.5004
 -21705030.09047 -16876480.38746  21649466.5004                   21649460.3094
        46.2504         37.5004
 -12661458.50047  -9847288.38746  22483942.5474                   22483942.1484
        44.5004         41.5004
  -1734299.53545  -1331379.84044  24473399.3984                   24473399.7194
        32.7504         27.5004
 -23993856.95747 -18671885.31646  21120721.6484                   21120718.0514
        45.7504         38.7504
  -5278833.84446  -4094335.69543  24050284.5784                   24050285.4344
        41.0004         23.2504
  -3785341.72346  -2930044.75045  24401218.7734                   24401223.3014
        38.5004         31.2504
  -1363640.77047  -1245068.55546  23095943.6954                   23095943.1604
        45.7504         41.5004
 -26421211.88348 -20564022.65248  20448498.4224                   20448494.0044
        48.5004         49.0004
 -20694589.41847 -16090859.12546  21353989.0314                   21353985.4774
        47.0004         36.5004
 25  7  2  0 34  0.0000000  0 10G10G02G03G25G28G04G26G32G31G01
   8956180.77047   6917556.78546  23633293.0554                   23633293.7894
        42.5004         37.2504
 -21678596.09847 -16855882.48846  21654496.1804                   21654490.9884
        47.0004         37.5004
 -12751105.01647  -9917142.74247  22466882.9614                   22466882.9804
        44.5004         42.0004
  -1737085.78545  -1333550.93044  24472868.9224                   24472870.0204
        32.7504         27.2504
 -23968845.52047 -18652395.87946  21125481.4614                   21125477.5084
        46.0004         39.0004
  -5359816.01646  -4157438.54343  24034873.9144                   24034874.8954
        40.5004         23.7504
  -3882210.35946  -3005526.55544  24382785.2114                   24382789.5474
        37.7504         29.7504
  -1303111.68447  -1197903.07846  23107462.3594                   23107461.0864
        46.0004         41.5004
 -26464078.45748 -20597425.14848  20440340.9304                   20440336.7544
        48.7504         49.0004
 -20731035.70347 -16119258.81646  21347053.6414                   21347050.3754
        46.2504         37.0004
 25  7  2  0 34 30.0000000  0 10G10G02G03G25G28G04G26G32G31G01
   9024225.73847   6970578.75046  23646241.6884                   23646242.1994
        42.7504         37.0004
 -21651675.12147 -16834905.12546  21659619.0864                   21659613.7344
        46.2504         38.0004
 -12840656.64547  -9986923.16446  22449842.3984                   22449841.7624
        44.5004         41.7504
  -1739330.76645  -1335300.25844  24472442.2734                   24472442.8634
        33.5004         28.2504
 -23943286.65247 -18632479.87146  21130344.8674                   21130340.9654
        46.5004         38.7504
  -5440653.23846  -4220428.40243  24019490.9224                   24019491.7584
        39.7504         22.7504
  -3979084.52346  -3081012.66445  24364350.3054                   24364354.4734
        38.2504         30.0004
  -1242536.57847  -1150701.73846  23118989.2034                   23118987.9024
        45.5004         41.0004
 -26506331.94148 -20630349.90648  20432300.5004                   20432296.0744
        48.0004         49.0004
 -20766912.58247 -16147214.81246  21340226.2344                   21340223.1094
        46.0004         36.2504
 25  7  2  0 35  0.0000000  0 10G10G02G03G25G28G04G26G32G31G01
   9092521.30947   7023795.97746  23659237.4224                   23659238.8054
        42.7504         37.7504
 -21624270.10947 -16813550.59846  21664833.9614                   21664828.4774
        47.2504         38.0004
 -12930113.32047 -10056629.60246  22432819.5394                   22432818.7034
        44.5004         41.5004
  -1741035.45745  -1336628.57444  24472118.1334                   24472118.0744
        33.0004         27.5004
 -23917183.46947 -18612139.71946  21135312.1954                   21135308.0904
        46.2504         38.5004
  -5521346.98446  -4283306.48043  24004135.4454                   24004136.4224
        39.2504         22.5004
  -4075962.67646  -3156501.88744  24345915.1644                   24345919.3634
        38.0004         29.7504
  -1181917.68447  -1103466.28946  23130524.7424                   23130523.7274
        45.2504         41.7504
 -26547972.93748 -20662797.40248  20424376.6564                   20424372.0984
        48.2504         49.2504
 -20802220.43447 -16174727.41846  21333507.5314                   21333504.4144
        46.2504         36.7504
 25  7  2  0 35 30.0000000  0 10G10G02G03G25G28G04G26G32G31G01
   9161067.64147   7077208.60246  23672281.9774                   23672283.0474
        43.0004         37.5004
 -21596381.35247 -16791819.12146  21670140.7894                   21670135.6954
        46.0004         37.5004
 -13019472.85247 -10126260.34847  22415814.6094                   22415813.9104
        44.0004         42.0004
  -1742198.48445  -1337534.83644  24471896.4694                   24471896.8094
        32.2504         27.5004
 -23890536.90647 -18591376.15646  21140382.7584                   21140378.9694
        45.5004         38.7504
  -5601896.68046  -4346072.29343  23988807.2974                   23988807.3914
        39.0004         22.0004
  -4172841.31246  -3231991.46545  24327479.8754                   24327483.5664
        39.0004         30.2504
  -1121255.07847  -1056196.77346  23142068.3134                   23142067.2544
        45.0004         41.2504
 -26588999.85248 -20694766.39148  20416569.4304                   20416564.6174
        48.2504         49.2504
 -20836957.57047 -16201795.30546  21326897.3204                   21326893.6134
        45.5004         36.7504
 25  7  2  0 36  0.0000000  0 10G10G02G03G25G28G04G26G32G31G01
   9229862.59847   7130814.98446  23685372.9614                   23685373.7624
        44.0004         37.7504
 -21568012.52047 -16769713.57046  21675539.9384                   21675534.3794
        46.2504         38.0004
 -13108735.40247 -10195815.52046  22398828.2194                   22398828.0004
        44.0004         41.7504
  -1742821.46145  -1338020.27344  24471777.0864                   24471778.1994
        32.2504         28.0004
 -23863350.35247 -18570191.82846  21145556.2034                   21145552.5434
        45.5004         38.5004
  -5682304.02746  -4408727.22343  23973506.4144                   23973507.0234
        39.0004         22.2504
  -4269719.18046  -3307480.46145  24309044.1414                   24309047.5204
        38.7504         30.5004
  -1060551.21947  -1008895.11346  23153620.1024                   23153618.5274
        45.5004         41.0004
 -26629413.65248 -20726257.63348  20408879.0084                   20408874.0394
        48.5004         49.2504
 -20871124.65247 -16228418.99646  21320395.3284                   21320392.0864
        45.7504         36.7504
 25  7  2  0 36 30.0000000  0 10G10G02G03G25G28G04G26G32G31G01
   9298914.43047   7184621.53946  23698513.5784                   23698514.2664
        43.7504         36.7504
 -21539156.19547 -16747228.14846  21681031.2814                   21681025.3324
        46.5004         37.5004
 -13197890.75447 -10265287.16446  22381862.8524                   22381861.8714
        43.5004         41.2504
  -1742894.88345  -1338077.49244  24471763.3754                   24471764.0084
        32.0004         27.7504
 -23835616.81247 -18548581.27046  21150833.7504                   21150829.8874
        46.0004         38.2504
  -5762560.41846  -4471264.50443  23958233.4304                   23958234.6564
        38.7504         21.5004
  -4366584.70746  -3382959.82444  24290611.2664                   24290614.3674
        39.0004         29.7504
   -999798.05547   -961555.03146  23165181.0864                   23165180.1724
        45.0004         41.2504
 -26669204.43747 -20757263.40648  20401307.3834                   20401302.1254
        47.2504         49.2504
 -20904711.91047 -16254590.86746  21314004.1644                   21314000.7464
        46.0004         36.7504
 25  7  2  0 37  0.0000000  0 10G10G02G03G25G28G04G26G32G31G01
   9368218.57447   7238624.70346  23711701.3674                   23711701.9654
        43.2504         36.5004
 -21509817.88347 -16724367.14146  21686613.8284                   21686608.2304
        47.5004         37.7504
 -13286941.34047 -10334677.17647  22364917.1094                   22364916.2974
        43.0004         42.0004
  -1742422.46945  -1337709.37944  24471853.0084                   24471854.4654
        32.2504         25.7504
 -23807342.08247 -18526549.01246  21156214.1564                   21156210.9734
        46.7504         38.7504
  -5842669.89546  -4533687.34043  23942989.1954                   23942990.2074
        38.2504         21.2504
  -4463439.14846  -3458430.57044  24272180.0084                   24272183.6374
        39.0004         29.2504
   -939000.44947   -914180.32846  23176750.3834                   23176749.4534
        44.7504         41.5004
 -26708375.37547 -20787786.18448  20393853.1024                   20393848.3714
        47.0004         49.2504
 -20937722.44147 -16280313.35246  21307722.4144                   21307719.1374
        46.0004         36.7504
 25  7  2  0 37 30.0000000  0 10G10G02G03G25G28G04G26G32G31G01
   9437777.93447   7292826.73845  23724938.6334                   23724938.5664
        43.2504         35.5004
 -21479995.59047 -16701129.01646  21692288.6724                   21692283.1914
        46.7504         37.7504
 -13375882.34447 -10403981.79346  22347991.6884                   22347991.3554
        44.0004         41.7504
  -1741400.65645  -1336913.16044  24472047.6414                   24472048.8594
        31.7504         26.5004
 -23778524.51247 -18504093.75046  21161698.4774                   21161694.3054
        47.0004         38.7504
  -5922629.24246  -4595993.16843  23927772.6564                   23927774.3404
        38.2504         21.0004
  -4560276.16446  -3533887.72744  24253751.6804                   24253755.8554
        38.7504         29.2504
   -878155.69547   -866768.87946  23188328.7814                   23188327.6174
        43.7504         40.5004
 -26746922.65648 -20817822.99648  20386517.5864                   20386513.0234
        48.2504         49.2504
 -20970151.99247 -16305583.11346  21301551.0164                   21301547.5314
        45.7504         37.0004
 25  7  2  0 38  0.0000000  0 10G10G02G03G25G28G04G26G32G31G01
   9507587.53947   7347223.76645  23738222.5554                   23738222.8204
        42.5004         34.2504
 -21449695.10247 -16677518.27346  21698054.8524                   21698049.4024
        47.2504         38.0004
 -13464716.56247 -10473203.21146  22331087.5704                   22331086.5514
        43.2504         41.5004
  -1739833.23445  -1335691.81644  24472345.3674                   24472347.5124
        31.5004         25.7504
 -23749170.27347 -18481220.31646  21167284.0634                   21167280.0204
        46.2504         38.2504
  -6002442.98046  -4658185.52343  23912585.0234                   23912585.7704
        38.5004         21.0004
  -4657097.29446  -3609332.53844  24235327.5314                   24235331.3674
        38.5004         29.5004
   -817268.98447   -819324.74646  23199915.2734                   23199914.0164
        44.0004         40.0004
 -26784850.11748 -20847376.83248  20379300.5474                   20379295.9574
        48.7504         49.5004
 -21002004.06247 -16330402.89846  21295489.6804                   21295486.7774
        45.7504         37.0004
 25  7  2  0 38 30.0000000  0 10G10G02G03G25G28G04G26G32G31G01
   9577648.07047   7401816.29745  23751554.3134                   23751555.2774
        42.0004         33.5004
 -21418916.69547 -16653535.12546  21703912.0164                   21703906.5634
        47.0004         38.0004
 -13553441.28947 -10542339.30146  22314203.8364                   22314203.0274
        43.5004         41.5004
  -1737718.83245  -1334044.24644  24472748.4924                   24472749.7624
        31.5004         26.0004
 -23719279.97747 -18457929.17246  21172972.0164                   21172968.3754
        47.0004         38.2504
  -6082109.98846  -4720263.56643  23897424.8134                   23897425.8714
        38.5004         20.5004
  -4753898.51246  -3684761.79744  24216906.3134                   24216909.8324
        36.7504         27.0004
   -756339.77347   -771847.48446  23211509.9454                   23211508.6564
        44.5004         40.2504
 -26822155.43048 -20876445.87548  20372201.4844                   20372196.6294
        48.5004         49.5004
 -21033276.54347 -16354771.05146  21289538.8914                   21289535.5984
        45.5004         37.0004
 25  7  2  0 39  0.0000000  0 10G10G02G03G25G28G04G26G32G31G01
   9647962.69146   7456606.82045  23764934.5164                   23764936.1484
        41.5004         33.5004
 -21387658.42247 -16629178.05946  21709860.0474                   21709854.5634
        47.5004         38.2504
 -13642051.19547 -10611385.92246  22297341.3834                   22297340.5274
        44.5004         41.5004
  -1735053.40255  -1331967.30554  24473255.7034                   24473256.8554
        31.2504         26.5004
 -23688851.69947 -18434218.82446  21178762.6724                   21178758.1914
        47.0004         38.7504
  -6161626.64546  -4782224.44543  23882292.5004                   23882294.2584
        38.5004         20.5004
  -4850673.11345  -3760170.30544  24198490.7894                   24198494.6294
        35.0004         25.5004
   -695365.14847   -724334.82446  23223112.5704                   23223111.6564
        44.5004         40.2504
 -26858834.61748 -20905027.02748  20365221.6644                   20365216.8164
        48.5004         49.5004
 -21063964.84047 -16378683.99646  21283699.2974                   21283696.0394
        46.0004         37.0004
 25  7  2  0 39 30.0000000  0 10G10G02G03G25G28G04G26G32G31G01
   9718527.77046   7511592.50045  23778363.7504                   23778364.0824
        41.5004         33.0004
 -21355924.79347 -16604450.57846  21715898.8364                   21715893.2384
        47.5004         37.5004
 -13730547.85547 -10680344.29746  22280500.8674                   22280500.8164
        43.7504         41.5004
  -1731839.80155  -1329463.18754  24473867.0314                   24473868.4774
        30.5004         24.7504
 -23657890.36747 -18410093.10546  21184654.0634                   21184649.9344
        47.2504         38.2504
  -6240996.18046  -4844070.67243  23867189.9694                   23867190.0164
        39.5004         21.5004
  -4947421.29745  -3835558.19544  24180079.5864                   24180083.7274
        34.2504         26.5004
   -634348.75847   -676789.62146  23234724.1334                   23234723.2034
        44.5004         40.0004
 -26894889.78148 -20933121.93748  20358360.3674                   20358355.6914
        48.0004         49.5004
 -21094071.23847 -16402143.52046  21277970.3834                   21277966.7624
        45.7504         37.0004
 25  7  2  0 40  0.0000000  0 10G10G02G03G25G28G04G26G32G31G01
   9789341.31646   7566771.80945  23791838.8284                   23791839.2034
        41.7504         33.7504
 -21323718.76647 -16579355.00046  21722027.3914                   21722021.8954
        47.5004         37.5004
 -13818931.03947 -10749214.25446  22263682.3674                   22263681.5474
        44.5004         41.2504
  -1728078.99245  -1326532.69544  24474583.6254                   24474583.4884
        31.2504         26.7504
 -23626399.19147 -18385554.53146  21190646.4304                   21190642.6804
        47.2504         37.7504
  -6320220.00446  -4905803.40243  23852114.2584                   23852114.3524
        39.2504         21.2504
  -5044141.50845  -3910924.32044  24161673.8134                   24161678.3094
        34.2504         27.0004
   -573292.73847   -629213.53946  23246342.3364                   23246341.2584
        44.5004         40.0004
 -26930321.62948 -20960731.14148  20351617.6024                   20351613.0354
        48.0004         49.5004
 -21123596.26647 -16425150.02046  21272351.5394                   21272348.4414
        46.7504         37.0004
 25  7  2  0 40 30.0000000  0 10G10G02G03G25G28G04G26G32G31G01
   9860406.78946   7622147.44545  23805362.3674                   23805362.5434
        41.2504         32.7504
 -21291037.66847 -16553889.23446  21728246.5084                   21728241.0044
        46.5004         38.0004
 -13907195.18447 -10817991.44947  22246886.0634                   22246885.4694
        44.2504         42.2504
  -1723766.88745  -1323172.63744  24475404.4454                   24475404.2774
        31.7504         25.2504
 -23594376.09447 -18360601.45746  21196740.2274                   21196737.1604
        47.0004         38.5004
  -6399294.34846  -4967419.65643  23837066.0314                   23837066.4734
        39.2504         22.0004
  -5140826.88345  -3986263.30944  24143275.4924                   24143279.1134
        35.5004         28.2504
   -512193.84447   -581604.04346  23257969.1094                   23257967.4264
        43.5004         40.0004
 -26965125.82447 -20987851.25848  20344994.8594                   20344990.2704
        47.7504         49.5004
 -21152535.20347 -16447699.83646  21266844.7734                   21266841.4024
        47.0004         37.2504
 25  7  2  0 41  0.0000000  0 10G10G02G03G25G28G04G26G32G31G01
   9931719.10546   7677715.40245  23818932.3134                   23818932.9224
        40.2504         32.0004
 -21257888.25447 -16528058.54746  21734554.6174                   21734548.9804
        47.5004         37.5004
 -13995343.20347 -10886678.16846  22230111.4304                   22230111.5164
        43.7504         41.5004
  -1718907.89545  -1319386.39144  24476327.9844                   24476329.3634
        33.2504         27.2504
 -23561827.38347 -18335238.82446  21202934.2734                   21202930.2704
        47.5004         38.2504
  -6478223.71946  -5028922.91843  23822046.3284                   23822047.1254
        40.0004         22.2504
  -5237478.96546  -4061576.36344  24124883.0394                   24124887.2424
        36.5004         28.5004
   -451057.18447   -533965.11746  23269603.3444                   23269601.8594
        44.7504         40.2504
 -26999306.06247 -21014485.18048  20338490.5554                   20338485.8204
        47.7504         49.5004
 -21180891.71547 -16469795.79746  21261448.8914                   21261445.5784
        46.7504         37.0004
 25  7  2  0 41 30.0000000  0 10G10G02G03G25G28G04G26G32G31G01
  10003280.07046   7733477.08645  23832550.4384                   23832551.0124
        40.2504         31.2504
 -21224269.27347 -16501861.96946  21740951.8134                   21740946.4494
        47.5004         38.0004
 -14083371.02047 -10955271.21147  22213360.9304                   22213360.3954
        43.5004         42.0004
  -1713499.27745  -1315171.87544  24477357.1334                   24477358.4804
        32.7504         27.2504
 -23528752.62547 -18309466.27746  21209228.3524                   21209224.3444
        46.7504         38.0004
  -6557005.93046  -5090311.51244  23807054.9454                   23807055.3714
        41.0004         24.2504
  -5334092.47846  -4136859.38144  24106498.6174                   24106501.1994
        38.2504         29.5004
   -389881.13747   -486295.50446  23281244.6414                   23281243.0234
        44.0004         40.2504
 -27032859.56248 -21040630.73848  20332105.1414                   20332100.8794
        48.2504         49.5004
 -21208662.72747 -16491435.54746  21256163.7734                   21256160.6844
        46.5004         37.0004
 25  7  2  0 42  0.0000000  0 10G10G02G03G25G28G04G26G32G31G01
  10075087.18846   7789430.56645  23846215.1334                   23846215.2464
        40.5004         32.2504
 -21190184.53147 -16475302.44946  21747438.3444                   21747432.5944
        47.0004         37.5004
 -14171278.98047 -11023770.85947  22196632.6484                   22196631.9144
        44.0004         42.5004
  -1707542.92645  -1310530.57444  24478490.5004                   24478491.6484
        31.5004         27.0004
 -23495155.57447 -18283286.76246  21215621.1334                   21215617.3094
        47.0004         38.5004
  -6635642.99246  -5151587.01643  23792090.4304                   23792090.5704
        40.7504         22.5004
  -5430666.20746  -4212111.40645  24088120.1954                   24088123.8794
        38.7504         31.0004
   -328668.14547   -438597.09846  23292893.1954                   23292892.1524
        44.0004         40.0004
 -27065787.46547 -21066288.81248  20325839.0314                   20325834.6914
        47.5004         49.5004
 -21235849.34447 -16512619.91446  21250990.3914                   21250986.8554
        46.7504         37.0004
 25  7  2  0 42 30.0000000  0 10G10G02G03G25G28G04G26G32G31G01
  10147141.33646   7845576.55945  23859926.0474                   23859927.1884
        40.2504         33.5004
 -21155633.78947 -16448379.82846  21754013.2894                   21754007.8754
        47.0004         37.7504
 -14259063.93447 -11092174.66047  22179927.2504                   22179926.6214
        43.7504         42.5004
  -1701037.05545  -1305461.06644  24479729.7584                   24479729.7544
        33.2504         27.5004
 -23461036.70347 -18256700.62546  21222113.8364                   21222110.2194
        46.7504         38.5004
  -6714133.54346  -5212748.36744  23777153.8674                   23777154.5314
        41.5004         24.0004
  -5527195.87546  -4287329.09845  24069751.2504                   24069754.7154
        39.5004         33.2504
   -267417.39547   -390869.28146  23304548.7664                   23304547.8634
        43.5004         39.7504
 -27098088.00848 -21091458.04748  20319692.9454                   20319688.4654
        48.7504         49.5004
 -21262449.44547 -16533347.25846  21245928.8834                   21245925.6914
        46.2504         37.0004
 25  7  2  0 43  0.0000000  0 10G10G02G03G25G28G04G26G32G31G01
  10219440.22746   7901913.25045  23873684.3984                   23873685.2114
        41.2504         34.7504
 -21120620.48847 -16421096.76646  21760675.9064                   21760670.6294
        47.5004         38.0004
 -14346725.92647 -11160482.64547  22163246.0474                   22163245.0904
        44.0004         43.0004
  -1693983.29745  -1299964.63744  24481070.1174                   24481072.2344
        32.5004         27.7504
 -23426399.55947 -18229710.64846  21228705.1024                   21228701.5744
        47.0004         37.7504
  -6792479.30146  -5273796.85944  23762245.4614                   23762245.5164
        41.5004         24.7504
  -5623680.08246  -4362511.35545  24051391.4774                   24051394.3284
        40.5004         33.5004
   -206131.20747   -343113.85246  23316211.0554                   23316209.8404
        43.5004         39.7504
 -27129762.32048 -21116139.29748  20313665.6024                   20313660.9414
        48.0004         49.5004
 -21288463.97747 -16553618.32046  21240978.3754                   21240974.7154
        46.7504         36.7504
 25  7  2  0 43 30.0000000  0 10G10G02G03G25G28G04G26G32G31G01
  10291985.10947   7958441.63345  23887489.9144                   23887490.0634
        42.0004         35.2504
 -21085144.60248 -16393453.24246  21767426.4304                   21767421.3594
        48.0004         37.5004
 -14434261.37147 -11228692.00847  22146588.5864                   22146587.8244
        43.7504         43.0004
  -1686379.68745  -1294039.71944  24482518.5004                   24482519.3204
        33.2504         27.7504
 -23391244.28947 -18202316.93046  21235395.3134                   21235391.0234
        47.0004         38.0004
  -6870678.60946  -5334731.25044  23747364.5314                   23747365.2934
        41.5004         26.2504
  -5720114.07846  -4437654.48845  24033040.3674                   24033043.5164
        41.0004         34.0004
   -144808.31247   -295329.81246  23327880.6804                   23327879.5084
        44.5004         40.5004
 -27160808.20748 -21140330.87148  20307757.4534                   20307752.7664
        48.0004         49.5004
 -21313890.40247 -16573431.10946  21236139.6484                   21236136.5084
        47.5004         37.0004
 25  7  2  0 44  0.0000000  0 10G10G02G03G25G28G04G26G32G31G01
  10364775.68847   8015161.45746  23901340.8444                   23901342.3554
        42.5004         36.0004
 -21049207.46147 -16365450.30946  21774265.4694                   21774259.9614
        47.7504         37.2504
 -14521668.41847 -11296801.33247  22129955.6954                   22129954.4224
        44.0004         43.0004
  -1678225.89545  -1287686.10244  24484069.9614                   24484070.5704
        33.0004         26.0004
 -23355572.51647 -18174520.74646  21242183.4614                   21242179.8484
        47.5004         38.0004
  -6948731.34846  -5395551.42244  23732511.6414                   23732511.8834
        41.2504         26.0004
  -5816494.51646  -4512755.91045  24014699.8134                   24014702.6844
        41.2504         34.7504
    -83449.16447   -247517.52046  23339556.8284                   23339555.9654
        44.0004         40.0004
 -27191224.81247 -21164032.09448  20301969.3984                   20301964.9774
        47.5004         49.5004
 -21338727.85247 -16592784.96946  21231413.3674                   21231410.1764
        47.0004         36.7504
 25  7  2  0 44 30.0000000  0 10G10G02G03G25G28G04G26G32G31G01
  10437809.79346   8072071.03545  23915238.8364                   23915239.7664
        41.2504         35.0004
 -21012812.50047 -16337090.62946  21781190.7274                   21781185.7384
        47.5004         37.5004
 -14608946.80547 -11364810.39547  22113346.7194                   22113346.3404
        43.5004         42.7504
  -1669523.33245  -1280904.87144  24485725.5084                   24485726.8524
        33.0004         27.0004
 -23319387.71547 -18146324.80546  21249068.6254                   21249064.9734
        47.2504         37.5004
  -7026639.04746  -5456258.59044  23717685.9064                   23717686.6414
        41.5004         26.2504
  -5912819.94946  -4587814.47345  23996370.0784                   23996372.1454
        41.5004         35.2504
    -22055.69947   -199678.50846  23351240.3054                   23351238.5124
        44.7504         40.0004
 -27221012.97748 -21187243.62148  20296300.7504                   20296296.3594
        48.2504         49.5004
 -21362977.13747 -16611680.50846  21226798.6804                   21226795.3834
        46.2504         37.0004
 25  7  2  0 45  0.0000000  0 10G10G02G03G25G28G04G26G32G31G01
  10511086.05946   8129169.31346  23929182.9694                   23929184.3204
        41.7504         36.0004
 -20975961.71148 -16308375.76246  21788203.5084                   21788198.2814
        48.2504         37.5004
 -14696095.62147 -11432718.49247  22096762.7974                   22096762.2584
        44.5004         43.0004
  -1660272.67645  -1273696.58644  24487485.4774                   24487487.0394
        30.7504         26.2504
 -23282692.68047 -18117731.27046  21256051.9304                   21256048.1174
        47.2504         38.0004
  -7104402.62946  -5516853.44944  23702887.8054                   23702888.0514
        41.5004         26.2504
  -6009088.07046  -4662828.38345  23978050.1174                   23978052.4384
        41.2504         34.7504
     39370.63347   -151813.87946  23362929.0164                   23362928.1134
        44.5004         40.0004
 -27250173.69547 -21209966.23848  20290752.0474                   20290747.5314
        47.5004         49.5004
 -21386638.41447 -16630117.85546  21222296.2974                   21222293.0554
        47.5004         37.0004
 25  7  2  0 45 30.0000000  0 10G10G02G03G25G28G04G26G32G31G01
  10584606.71147   8186458.02346  23943173.7034                   23943174.7114
        43.0004         37.0004
 -20938654.21148 -16279305.02046  21795303.0944                   21795297.7424
        48.2504         37.5004
 -14783110.32847 -11500522.09847  22080204.6414                   22080203.9534
        44.0004         43.5004
  -1650471.23445  -1266059.12144  24489350.2664                   24489352.5704
        32.2504         25.5004
 -23245486.52047 -18088739.46146  21263131.9614                   21263128.2624
        47.7504         38.2504
  -7182019.36346  -5577333.88744  23688117.6334                   23688117.9804
        40.7504         25.7504
  -6105293.10246  -4737793.14545  23959742.9384                   23959745.2624
        40.7504         35.0004
    100832.14147   -103921.84446  23374624.5004                   23374623.3954
        45.0004         40.0004
 -27278703.32048 -21232197.08648  20285322.8054                   20285318.1804
        48.0004         49.5004
 -21409708.31648 -16648094.40646  21217906.3914                   21217902.9414
        48.0004         37.0004
 25  7  2  0 46  0.0000000  0 10G10G02G03G25G28G04G26G32G31G01
  10658365.98847   8243932.68446  23957210.3204                   23957210.8364
        43.5004         37.2504
 -20900896.94148 -16249883.80146  21802487.7114                   21802482.4654
        48.0004         37.5004
 -14869994.27047 -11568223.79747  22063671.1954                   22063670.2544
        44.5004         43.5004
  -1640124.06245  -1257996.41044  24491320.3984                   24491320.8284
        33.2504         27.2504
 -23207776.34847 -18059354.91846  21270307.5474                   21270304.0314
        47.7504         37.7504
  -7259494.49646  -5637703.98044  23673374.6174                   23673374.9574
        40.5004         26.0004
  -6201437.09446  -4812710.32845  23941447.3284                   23941449.4774
        40.2504         34.2504
    162323.11747    -56006.85946  23386325.9614                   23386325.4304
        44.2504         39.7504
 -27306606.50047 -21253939.79748  20280012.7584                   20280008.2504
        47.7504         49.7504
 -21432191.34447 -16665613.63746  21213627.8444                   21213624.7114
        47.2504         37.0004
 25  7  2  0 46 30.0000000  0 10G10G02G03G25G28G04G26G32G31G01
  10732370.95347   8301598.79346  23971292.9224                   23971294.0864
        44.2504         38.0004
 -20862683.94948 -16220107.47346  21809759.7034                   21809754.2854
        48.0004         37.5004
 -14956738.02747 -11635816.26247  22047164.2734                   22047163.3524
        45.0004         43.5004
  -1629223.44945  -1249502.43444  24493394.3754                   24493395.8094
        32.7504         28.0004
 -23169556.40647 -18029573.15646  21277580.6954                   21277576.6484
        47.5004         37.7504
  -7336820.39146  -5697957.78544  23658659.8594                   23658660.0354
        39.7504         25.2504
  -6297509.26646  -4887571.55545  23923164.1884                   23923166.9614
        39.5004         33.5004
    223850.78147     -8063.28146  23398034.4614                   23398033.2344
        43.0004         39.2504
 -27333875.63748 -21275188.44148  20274823.9304                   20274819.3834
        48.5004         49.5004
 -21454079.23848 -16682669.14146  21209462.9694                   21209459.5394
        48.0004         37.0004
 25  7  2  0 47  0.0000000  0 10G10G02G03G25G28G04G26G32G31G01
  10806614.80547   8359451.03946  23985420.8204                   23985422.1524
        43.0004         37.5004
 -20824023.12148 -16189982.19146  21817116.6564                   21817111.5984
        48.0004         37.0004
 -15043345.98447 -11703302.91047  22030683.3444                   22030682.0784
        44.5004         43.5004
  -1617775.55945  -1240582.00444  24495573.0164                   24495573.8284
        33.2504         27.5004
 -23130835.00047 -17999400.63346  21284949.4694                   21284945.5634
        47.7504         37.2504
  -7414003.35946  -5758100.22344  23643972.3834                   23643972.2464
        39.7504         25.2504
  -6393512.68746  -4962379.22345  23904894.9614                   23904898.2074
        39.7504         33.2504
    285408.39847     39903.63746  23409748.3594                   23409747.5744
        43.0004         39.2504
 -27360516.35248 -21295947.42248  20269754.3054                   20269749.3634
        48.0004         49.5004
 -21475377.70747 -16699265.34446  21205409.5314                   21205406.4884
        47.5004         37.2504
 25  7  2  0 47 30.0000000  0 10G10G02G03G25G28G04G26G32G31G01
  10881100.81347   8417491.98446  23999594.6724                   23999596.1844
        42.0004         36.5004
 -20784912.27048 -16159506.23046  21824559.2974                   21824553.9454
        48.0004         36.5004
 -15129812.48447 -11770679.33647  22014229.1644                   22014228.6254
        45.5004         43.7504
  -1605776.64845  -1231232.18444  24497855.9694                   24497856.9694
        34.5004         28.2504
 -23091610.13747 -17968835.80546  21292413.6024                   21292409.5234
        47.2504         37.7504
  -7491039.60246  -5818128.31644  23629312.5704                   23629313.1884
        39.2504         26.2504
  -6489440.43046  -5037127.92245  23886641.0704                   23886643.6214
        38.5004         33.5004
    346999.37147     87896.54346  23421468.5864                   23421468.1884
        43.0004         39.2504
 -27386524.50448 -21316213.48448  20264805.0004                   20264800.1764
        48.5004         49.7504
 -21496082.22747 -16715398.73046  21201469.6254                   21201466.5634
        47.7504         37.0004
 25  7  2  0 48  0.0000000  0 10G10G02G03G25G28G04G26G32G31G01
  10955826.35247   8475719.57046  24013815.1094                   24013816.1684
        42.5004         36.7504
 -20745355.19548 -16128682.57446  21832086.6644                   21832081.3164
        48.5004         36.7504
 -15216137.71147 -11837945.67647  21997801.9924                   21997801.2344
        45.5004         44.0004
  -1593228.68745  -1221454.53544  24500243.5704                   24500245.1414
        34.0004         28.5004
 -23051885.88747 -17937881.84446  21299972.6644                   21299968.9494
        47.5004         37.5004
  -7567931.21146  -5878043.70344  23614680.4144                   23614680.7274
        38.5004         24.5004
  -6585291.36346  -5111816.76445  23868401.4144                   23868403.8244
        38.7504         32.5004
    408621.21947    135913.50446  23433194.9064                   23433194.4304
        43.2504         39.2504
 -27411901.97348 -21335988.11348  20259975.8054                   20259971.1764
        48.5004         49.7504
 -21516194.33248 -16731070.49246  21197642.6254                   21197639.0984
        48.0004         37.0004
 25  7  2  0 48 30.0000000  0 10G10G02G03G25G28G04G26G32G31G01
  11030792.26247   8534134.45746  24028080.6334                   24028081.6644
        42.2504         36.5004
 -20705352.18748 -16097511.43046  21839699.0164                   21839693.8444
        48.0004         37.0004
 -15302318.29347 -11905099.31647  21981402.4384                   21981401.6454
        44.5004         43.7504
  -1580130.27045  -1211247.95744  24502736.6414                   24502737.6524
        34.2504         28.0004
 -23011662.76247 -17906539.15246  21307627.1804                   21307623.1644
        47.0004         37.5004
  -7644676.77046  -5937845.28944  23600076.0234                   23600076.5354
        38.7504         24.5004
  -6681060.94546  -5186442.22745  23850176.0084                   23850178.9344
        38.7504         31.2504
    470274.96947    183955.32446  23444927.2584                   23444926.8484
        42.5004         38.7504
 -27436646.52348 -21355269.55148  20255267.2274                   20255262.3134
        48.5004         49.7504
 -21535712.06248 -16746279.10546  21193928.6484                   21193925.2114
        48.0004         36.7504
 25  7  2  0 49  0.0000000  0 10G10G02G03G25G28G04G26G32G31G01
  11105998.26646   8592736.42646  24042391.9064                   24042392.9924
        41.2504         36.7504
 -20664904.58647 -16065993.86346  21847395.9454                   21847390.2624
        47.7504         36.5004
 -15388352.17647 -11972138.64547  21965030.5864                   21965029.6604
        44.7504         43.5004
  -1566481.32445  -1200612.43444  24505334.0704                   24505334.9884
        33.5004         28.0004
 -22970942.44947 -17874809.04346  21315375.7114                   21315371.8054
        47.7504         37.2504
  -7721276.03946  -5997532.87544  23585499.5784                   23585500.0164
        38.5004         24.0004
  -6776745.66846  -5261001.56245  23831967.5704                   23831970.9304
        37.7504         30.5004
    531960.47747    232021.88746  23456665.6174                   23456664.9774
        42.5004         39.0004
 -27460758.01648 -21374057.71148  20250678.7814                   20250674.0044
        48.2504         49.7504
 -21554634.56248 -16761023.90646  21190327.7424                   21190324.4454
        48.0004         37.0004
 25  7  2  0 49 30.0000000  0 10G10G02G03G25G28G04G26G32G31G01
  11181443.02046   8651524.43846  24056748.1024                   24056749.6484
        41.2504         36.2504
 -20624014.96947 -16034131.85946  21855176.9064                   21855171.8794
        47.0004         37.0004
 -15474238.09447 -12039062.68747  21948686.6884                   21948686.3014
        44.5004         44.0004
  -1552282.52045  -1189548.44144  24508035.6094                   24508036.9574
        34.5004         29.0004
 -22929727.64547 -17842693.61346  21323218.7274                   21323214.5554
        47.7504         37.2504
  -7797729.72346  -6057107.03943  23570950.7664                   23570951.1994
        38.2504         23.2504
  -6872343.11346  -5335492.90244  23813777.1174                   23813778.6724
        37.7504         28.5004
    593676.65247    280112.34846  23468409.6024                   23468409.3634
        43.0004         39.0004
 -27484236.84848 -21392352.87148  20246210.8984                   20246206.2704
        48.0004         50.0004
 -21572962.08647 -16775305.08646  21186840.0554                   21186836.4574
        47.7504         37.0004
 25  7  2  0 50  0.0000000  0 10G10G02G03G25G28G04G26G32G31G01
  11257125.80946   8710497.91445  24071150.8674                   24071152.0004
        40.5004         35.5004
 -20582685.21947 -16001926.89546  21863041.6644                   21863036.9304
        47.0004         37.0004
 -15559974.32447 -12105870.09447  21932371.9224                   21932370.8364
        45.0004         43.7504
  -1537534.13745  -1178056.21145  24510842.3364                   24510843.6604
        35.5004         30.7504
 -22888020.54747 -17810194.57846  21331155.4224                   21331151.6054
        46.5004         38.0004
  -7874038.07846  -6116567.94543  23556429.6334                   23556430.0234
        37.7504         23.0004
  -6967850.16046  -5409913.81644  23795602.0314                   23795603.7304
        38.0004         28.2504
    655422.87547    328226.23046  23480159.8204                   23480159.5084
        43.5004         39.5004
 -27507082.71948 -21410154.82448  20241863.6024                   20241858.8674
        48.7504         50.0004
 -21590694.31647 -16789122.39846  21183465.7584                   21183462.1684
        47.5004         37.2504
 25  7  2  0 50 30.0000000  0 10G10G02G03G25G28G04G26G32G31G01
  11333040.03946   8769651.73845  24085596.7274                   24085597.7624
        40.2504         34.7504
 -20540922.94147 -15969384.90646  21870988.9064                   21870983.7424
        47.5004         36.5004
 -15645564.84847 -12172563.96147  21916084.3984                   21916083.3754
        45.2504         43.5004
  -1522242.11746  -1166140.35945  24513752.5394                   24513753.3444
        36.2504         30.0004
 -22845829.04747 -17777318.09846  21339184.0474                   21339180.5234
        47.5004         37.2504
  -7950207.07446  -6175920.25444  23541935.2664                   23541935.5864
        38.2504         24.2504
  -7063269.58246  -5484266.45344  23777443.6954                   23777446.2894
        37.0004         28.2504
    717193.00847    376358.74246  23491914.8134                   23491913.9064
        44.2504         39.0004
 -27529301.70748 -21427468.29348  20237635.3134                   20237630.5594
        49.0004         49.7504
 -21607836.66847 -16802480.07046  21180203.5704                   21180200.1524
        47.0004         37.0004
 25  7  2  0 51  0.0000000  0 10G10G02G03G25G28G04G26G32G31G01
  11409188.91446   8828988.39845  24100088.0554                   24100089.0124
        39.7504         33.5004
 -20498726.23447 -15936504.39146  21879018.4304                   21879013.6174
        46.7504         37.2504
 -15731004.00447 -12239139.88347  21899825.9454                   21899824.8444
        45.2504         43.7504
  -1506402.95745  -1153798.16044  24516765.7344                   24516767.2344
        35.0004         27.5004
 -22803151.48847 -17744062.86346  21347305.6024                   21347301.7074
        46.5004         37.0004
  -8026232.89846  -6235161.02344  23527468.2194                   23527467.7814
        39.0004         24.5004
  -7158594.43446  -5558545.37944  23759304.3204                   23759305.9064
        37.2504         28.2504
    778990.28147    424512.41046  23503674.0944                   23503673.5864
        44.2504         38.7504
 -27550889.60548 -21444290.02048  20233527.0704                   20233522.4734
        48.0004         50.0004
 -21624385.03147 -16815374.89146  21177054.4304                   21177050.7894
        47.0004         37.0004
 25  7  2  0 51 30.0000000  0 10G10G02G03G25G28G04G26G32G31G01
  11485571.90646   8888507.50045  24114622.4614                   24114624.1054
        39.0004         33.0004
 -20456097.04747 -15903286.87946  21887130.9224                   21887125.6484
        46.5004         36.7504
 -15816289.71947 -12305596.23847  21883596.3984                   21883595.4654
        46.0004         43.7504
  -1490016.62945  -1141029.58244  24519884.3914                   24519885.8674
        35.0004         29.0004
 -22759989.67247 -17710430.28546  21355519.0164                   21355514.8674
        47.0004         37.5004
  -8102115.50446  -6294290.18044  23513027.6334                   23513027.6684
        39.0004         24.2504
  -7253821.35546  -5632748.01644  23741183.2034                   23741185.0514
        38.2504         29.2504
    840814.56347    472687.12146  23515438.7194                   23515438.5274
        43.7504         38.7504
 -27571846.42248 -21460619.97748  20229538.8754                   20229534.5004
        48.0004         49.7504
 -21640338.78547 -16827806.37546  21174018.7734                   21174015.1644
        45.7504         37.0004
 25  7  2  0 52  0.0000000  0 10G10G02G03G25G28G04G26G32G31G01
  11562188.89546   8948208.91445  24129202.5474                   24129203.4264
        39.0004         31.7504
 -20413036.14847 -15869732.97346  21895325.0474                   21895319.7274
        46.2504         36.7504
 -15901419.59047 -12371931.15247  21867396.8284                   21867395.7704
        45.5004         44.0004
  -1473082.92246  -1127834.49245  24523106.6644                   24523107.9184
        36.5004         30.5004
 -22716345.27047 -17676421.66446  21363824.4064                   21363820.4414
        47.0004         37.5004
  -8177854.53646  -6353307.47944  23498614.9924                   23498614.9384
        39.5004         25.0004
  -7348946.69546  -5706871.48045  23723080.3134                   23723082.9344
        38.2504         30.0004
    902665.89547    520882.91446  23527209.3914                   23527208.1174
        44.5004         38.5004
 -27592171.49248 -21476457.68048  20225671.3834                   20225666.7664
        48.0004         50.0004
 -21655697.19147 -16839773.95346  21171095.9144                   21171092.7704
        46.5004         37.0004
 25  7  2  0 52 30.0000000  0 10G10G02G03G25G28G04G26G32G31G01
  11639038.54746   9008091.63745  24143827.0394                   24143827.8834
        37.7504         31.7504
 -20369546.45347 -15835844.94146  21903601.1804                   21903595.5274
        46.5004         36.7504
 -15986392.31247 -12438143.62147  21851226.9144                   21851226.3164
        46.0004         44.0004
  -1455602.64846  -1114213.48445  24526433.3984                   24526434.6134
        36.2504         30.5004
 -22672221.00047 -17642039.12146  21372220.8914                   21372216.6954
        46.7504         37.2504
  -8253450.55946  -6412213.33643  23484229.5704                   23484229.7114
        40.0004         23.7504
  -7443967.85946  -5780913.77745  23704999.0944                   23705001.1804
        39.0004         31.5004
    964543.28147    569099.02046  23538984.0084                   23538983.1374
        44.2504         38.7504
 -27611865.24648 -21491803.44148  20221923.7664                   20221919.2814
        48.0004         50.0004
 -21670460.52747 -16851277.84846  21168286.7894                   21168283.6684
        46.7504         37.2504
 25  7  2  0 53  0.0000000  0 10G10G02G03G25G28G04G26G32G31G01
  11716122.04746   9068156.57444  24158495.3284                   24158496.6214
        37.5004         29.5004
 -20325627.97747 -15801622.78546  21911958.3444                   21911952.9384
        46.2504         36.5004
 -16071204.12147 -12504230.71147  21835087.7814                   21835086.8914
        46.7504         44.0004
  -1437574.42646  -1100165.53944  24529864.2664                   24529865.1214
        37.5004         29.2504
 -22627617.10947 -17607282.85546  21380708.2814                   21380704.5554
        46.0004         37.2504
  -8328901.96146  -6471006.48444  23469871.7664                   23469871.7544
        39.7504         24.0004
  -7538879.86746  -5854871.01645  23686937.4384                   23686939.9344
        38.5004         32.7504
   1026448.21547    617336.59046  23550763.9224                   23550763.3554
        44.5004         38.2504
 -27630925.88747 -21506655.86748  20218296.8754                   20218292.0314
        47.5004         50.0004
 -21684626.60947 -16862316.34846  21165591.1174                   21165587.8094
        46.2504         37.0004
 25  7  2  0 53 30.0000000  0 10G10G02G03G25G28G04G26G32G31G01
  11793438.09046   9128402.71144  24173208.3284                   24173209.2464
        37.0004         28.0004
 -20281283.33647 -15767068.55946  21920396.8914                   21920391.6054
        46.0004         36.5004
 -16155853.64847 -12570191.33647  21818979.4384                   21818978.8054
        46.0004         44.2504
  -1418998.87546  -1085691.10244  24533398.1954                   24533399.5824
        36.2504         29.7504
 -22582536.29347 -17572154.95346  21389286.8834                   21389283.1454
        46.7504         37.2504
  -8404209.32846  -6529687.42644  23455541.0084                   23455540.4654
        40.5004         24.5004
  -7633680.09446  -5928741.13745  23668897.5084                   23668899.8444
        39.5004         33.2504
   1088379.74247    665594.89546  23562549.2114                   23562548.4534
        44.5004         38.0004
 -27649353.96148 -21521015.39148  20214789.9224                   20214785.1484
        48.0004         50.0004
 -21698195.76247 -16872889.69946  21163008.8444                   21163005.3834
        45.7504         36.7504
 25  7  2  0 54  0.0000000  0 10G10G02G03G25G28G04G26G32G31G01
  11870984.62946   9188828.48044  24187964.2894                   24187965.9574
        37.2504         27.0004
 -20236515.46547 -15732184.53946  21928916.1174                   21928910.7274
        46.0004         36.0004
 -16240340.26647 -12636025.03147  21802902.3284                   21802901.0664
        46.2504         44.0004
  -1399877.78146  -1070791.56644  24537036.9224                   24537038.3364
        37.0004         28.7504
 -22536981.96947 -17536658.08646  21397956.1644                   21397952.0904
        46.0004         37.0004
  -8479374.04346  -6588257.20744  23441237.3054                   23441236.9924
        40.2504         26.2504
  -7728366.59046  -6002522.65645  23650878.8134                   23650881.3164
        40.5004         34.5004
   1150336.20347    713872.61746  23574339.3524                   23574338.2274
        44.7504         37.7504
 -27667150.64847 -21534882.92248  20211403.4224                   20211398.6524
        47.5004         49.7504
 -21711169.04347 -16882998.74646  21160539.9534                   21160536.9574
        46.7504         36.7504
 25  7  2  0 54 30.0000000  0 10G10G02G03G25G28G04G26G32G31G01
  11948765.73846   9249437.06344  24202765.4774                   24202766.8244
        37.0004         25.5004
 -20191321.40247 -15696968.42246  21937515.9454                   21937510.8634
        46.2504         37.0004
 -16324657.27047 -12701726.54747  21786857.1564                   21786855.9734
        45.5004         44.0004
  -1380206.71546  -1055463.47345  24540780.5234                   24540782.0634
        38.2504         30.7504
 -22490951.66447 -17500790.32846  21406715.3754                   21406711.4104
        46.2504         37.7504
  -8554391.53546  -6646712.27744  23426961.6334                   23426961.6724
        39.5004         24.2504
  -7822931.51246  -6076209.43045  23632884.2194                   23632886.3444
        41.0004         34.0004
   1212321.95747    762173.17246  23586134.9224                   23586133.6024
        45.0004         37.7504
 -27684311.50447 -21548254.98848  20208137.7034                   20208133.3054
        47.5004         50.0004
 -21723541.59047 -16892639.68046  21158185.4694                   21158182.4144
        47.0004         37.0004
 25  7  2  0 55  0.0000000  0 10G10G02G03G25G28G04G26G32G31G01
  12026778.00846   9310225.73844  24217610.7584                   24217612.4924
        37.5004         26.5004
 -20145706.04347 -15661424.02746  21946196.6334                   21946190.6914
        46.5004         36.2504
 -16408805.37547 -12767296.44947  21770844.3284                   21770843.3554
        46.0004         44.2504
  -1359988.66846  -1039709.14844  24544628.1174                   24544629.1914
        37.2504         28.7504
 -22444450.06247 -17464555.32446  21415563.9694                   21415560.3284
        46.0004         37.0004
  -8629264.48846  -6705054.71144  23412714.0314                   23412713.6294
        40.0004         24.0004
  -7917374.25846  -6149801.02045  23614912.6024                   23614914.0944
        41.0004         34.7504
   1274334.04347    810494.25446  23597935.4064                   23597933.9264
        45.7504         37.2504
 -27700839.21147 -21561133.70748  20204992.6334                   20204987.6294
        47.2504         50.0004
 -21735315.72747 -16901814.32846  21155945.1644                   21155941.4104
        45.7504         36.7504
 25  7  2  0 55 30.0000000  0 10G10G02G03G25G28G04G26G32G31G01
  12105019.07446   9371192.70744  24232499.8754                   24232501.5744
        38.7504         29.0004
 -20099673.03547 -15625554.18445  21954956.3984                   21954951.3164
        46.5004         35.7504
 -16492784.23447 -12832734.47747  21754863.7194                   21754862.5554
        46.0004         44.2504
  -1339225.65646  -1023530.17244  24548579.0474                   24548579.9534
        38.2504         29.0004
 -22397480.99647 -17427956.06646  21424501.8524                   21424498.0514
        46.5004         37.0004
  -8703994.60546  -6763285.86744  23398493.4614                   23398493.0864
        40.5004         26.0004
  -8011693.28946  -6223296.19145  23596964.2194                   23596965.8404
        40.5004         35.5004
   1336370.44947    858834.28946  23609740.5084                   23609739.4264
        44.7504         37.0004
 -27716735.15647 -21573520.13748  20201967.6174                   20201963.2234
        47.0004         50.0004
 -21746493.00847 -16910523.89546  21153818.0234                   21153814.5274
        47.0004         37.2504
 25  7  2  0 56  0.0000000  0 10G10G02G03G25G28G04G26G32G31G01
  12183486.02046   9432335.65645  24247432.9064                   24247433.4454
        39.5004         31.7504
 -20053226.34847 -15589362.00045  21963794.6334                   21963789.5354
        45.7504         35.7504
 -16576594.10247 -12898040.81247  21738914.8594                   21738914.1414
        46.2504         44.5004
  -1317920.35946  -1006928.64144  24552633.4144                   24552634.4344
        37.2504         28.5004
 -22350048.88347 -17390995.98046  21433528.0704                   21433523.6134
        45.5004         37.0004
  -8778584.29346  -6821407.59044  23384299.1724                   23384298.9454
        40.7504         25.0004
  -8105887.58646  -6296694.18045  23579039.1024                   23579041.1564
        40.5004         35.2504
   1398428.64547    907191.28546  23621550.7734                   23621548.7344
        44.5004         36.7504
 -27732001.74247 -21585416.16448  20199063.0004                   20199057.9344
        47.7504         50.0004
 -21757075.49247 -16918769.98046  21151804.3284                   21151801.0434
        46.5004         36.7504
 25  7  2  0 56 30.0000000  0 10G10G02G03G25G28G04G26G32G31G01
  12262178.49646   9493654.35945  24262407.0004                   24262408.3524
        39.7504         33.0004
 -20006367.59447 -15552848.73046  21972711.8754                   21972706.6414
        45.5004         36.2504
 -16660232.52047 -12963213.56647  21722999.4694                   21722998.1134
        46.0004         44.7504
  -1296072.79746   -989904.56644  24556790.6804                   24556791.3484
        36.5004         28.5004
 -22302155.49647 -17353676.46546  21442641.7664                   21442637.8954
        45.5004         37.0004
  -8853033.10946  -6879419.52344  23370131.9534                   23370131.2664
        41.0004         24.2504
  -8199953.48447  -6369992.12146  23561138.9844                   23561140.4844
        42.0004         36.0004
   1460508.75847    955565.37546  23633363.4614                   23633362.1054
        44.7504         37.0004
 -27746639.33247 -21596822.05148  20196276.9774                   20196272.4734
        46.5004         50.0004
 -21767062.63347 -16926552.16046  21149904.0704                   21149900.5204
        46.2504         37.0004
 25  7  2  0 57  0.0000000  0 10G10G02G03G25G28G04G26G32G31G01
  12341093.12946   9555146.18045  24277424.1254                   24277425.7114
        41.2504         34.5004
 -19959101.58647 -15516018.11346  21981706.3524                   21981701.3634
        45.5004         36.2504
 -16743700.14547 -13028253.22347  21707115.7504                   21707114.7774
        46.5004         45.0004
  -1273686.07446   -972460.36745  24561051.5394                   24561051.7034
        38.2504         30.5004
 -22253805.63347 -17316001.25846  21451842.6564                   21451838.5474
        45.2504         37.0004
  -8927343.83646  -6937323.88744  23355991.3594                   23355990.9654
        40.5004         26.0004
  -8293890.36346  -6443189.52346  23543263.2034                   23543264.8244
        40.7504         36.0004
   1522607.85947   1003954.24246  23645180.3914                   23645179.1994
        43.7504         36.2504
 -27760650.24247 -21607739.62948  20193610.7344                   20193605.9774
        47.7504         50.0004
 -21776456.92647 -16933872.38746  21148115.8834                   21148112.5204
        46.0004         37.0004
 25  7  2  0 57 30.0000000  0 10G10G02G03G25G28G04G26G32G31G01
  12420228.84047   9616810.25446  24292483.7194                   24292484.8054
        42.5004         36.7504
 -19911430.41447 -15478871.78546  21990777.4774                   21990772.5664
        45.5004         37.0004
 -16826995.29747 -13093158.48847  21691265.0634                   21691263.9494
        46.2504         45.0004
  -1250760.99246   -954596.67245  24565412.9614                   24565415.0274
        38.5004         30.7504
 -22205001.80547 -17277972.31246  21461129.4384                   21461125.5474
        45.5004         37.2504
  -9001516.85246  -6995120.93444  23341876.7734                   23341875.6524
        41.0004         25.2504
  -8387695.40246  -6516284.21945  23525412.3204                   23525413.9064
        41.5004         35.5004
   1584725.32847   1052357.42646  23657000.2274                   23657000.1374
        43.5004         36.2504
 -27774035.05147 -21618169.33248  20191063.9844                   20191059.1844
        46.7504         50.0004
 -21785258.68447 -16940730.89846  21146441.3054                   21146437.8984
        46.0004         36.7504
 25  7  2  0 58  0.0000000  0 10G10G02G03G25G28G04G26G32G31G01
  12499587.02047   9678647.68046  24307584.7974                   24307586.3324
        42.0004         37.2504
 -19863354.09847 -15441409.76646  21999926.4144                   21999921.3984
        46.2504         36.2504
 -16910113.75047 -13157926.06647  21675448.6174                   21675447.0554
        46.0004         45.2504
  -1227295.82846   -936312.14545  24569878.8834                   24569880.0044
        38.0004         30.2504
 -22155744.08247 -17239589.67646  21470502.8594                   21470499.3134
        46.5004         37.2504
  -9075550.16846  -7052809.12144  23327788.2974                   23327787.9494
        40.5004         26.5004
  -8481363.13746  -6589271.90645  23507588.0314                   23507589.5594
        40.2504         35.0004
   1646863.07847   1100776.41046  23668825.5394                   23668824.5434
        43.5004         36.5004
 -27786792.02747 -21628109.82048  20188636.1644                   20188631.4614
        47.5004         50.0004
 -21793465.73447 -16947126.01246  21144879.8524                   21144876.1174
        45.7504         37.0004
 25  7  2  0 58 30.0000000  0 10G10G02G03G25G28G04G26G32G31G01
  12579171.00047   9740661.03946  24322729.3984                   24322730.5944
        42.0004         36.0004
 -19814870.26647 -15403630.20346  22009152.7344                   22009147.7584
        47.0004         36.5004
 -16993049.37947 -13222551.18447  21659666.2034                   21659665.0354
        47.0004         45.5004
  -1203287.03546   -917603.98444  24574447.3834                   24574448.4654
        37.7504         28.0004
 -22106030.50047 -17200851.84446  21479962.8914                   21479959.5354
        46.0004         37.2504
  -9149439.66846  -7110385.23844  23313727.1094                   23313726.5664
        40.5004         25.7504
  -8574886.18746  -6662146.86745  23489790.3524                   23489792.6094
        39.5004         34.5004
   1709024.87546   1149214.13346  23680654.4844                   23680653.8284
        41.5004         36.0004
 -27798917.12147 -21637557.92648  20186328.9924                   20186323.8874
        47.0004         50.0004
 -21801073.75447 -16953054.34446  21143431.6954                   21143428.2464
        47.2504         37.0004
 25  7  2  0 59  0.0000000  0 10G10G02G03G25G28G04G26G32G31G01
  12658979.65246   9802849.47745  24337915.9694                   24337917.8754
        41.0004         35.7504
 -19765981.67247 -15365535.24245  22018455.9774                   22018450.5434
        47.0004         35.5004
 -17075800.54747 -13287032.56647  21643919.4844                   21643917.6764
        47.5004         45.5004
  -1178735.55946   -898472.96944  24579118.8834                   24579120.2034
        38.0004         29.5004
 -22055863.75447 -17161760.87946  21489509.5704                   21489505.8134
        45.5004         37.2504
  -9223185.86746  -7167849.69544  23299693.9614                   23299693.1024
        40.5004         26.5004
  -8668261.73446  -6734906.87145  23472022.0864                   23472023.6254
        39.2504         33.2504
   1771210.10946   1197670.10546  23692487.4694                   23692487.2114
        41.7504         36.5004
 -27810411.07447 -21646514.23448  20184141.8444                   20184136.9414
        47.5004         50.0004
 -21808083.25447 -16958516.29746  21142097.7194                   21142094.0824
        46.0004         37.2504
 25  7  2  0 59 30.0000000  0 10G10G02G03G25G28G04G26G32G31G01
  12739014.50446   9865214.14545  24353145.9774                   24353148.3914
        40.0004         35.0004
 -19716687.79347 -15327124.47345  22027836.3054                   22027830.7664
        45.5004         35.5004
 -17158362.90247 -13351366.81647  21628207.9144                   21628206.9694
        47.7504         45.2504
  -1153639.59046   -878917.67244  24583895.8054                   24583895.8134
        38.0004         28.2504
 -22005243.72347 -17122316.70746  21499142.5864                   21499138.5744
        45.5004         37.5004
  -9296786.55146  -7225200.73844  23285687.9694                   23285687.6334
        41.0004         25.7504
  -8761484.15646  -6807547.56645  23454282.3134                   23454283.8244
        38.0004         33.2504
   1833420.80947   1246145.92646  23704325.3754                   23704325.6844
        42.0004         36.2504
 -27821271.80547 -21654977.12148  20182074.7894                   20182070.2544
        47.7504         50.0004
 -21814491.86747 -16963510.02046  21140878.3054                   21140874.7424
        47.2504         37.0004
 25  7  2  1  0  0.0000000  0 10G10G02G03G25G28G04G26G32G31G01
  12819274.88346   9927754.59045  24368419.1094                   24368421.2154
        39.5004         33.7504
 -19666990.86747 -15288399.63746  22037293.3364                   22037288.1294
        46.5004         36.2504
 -17240734.39847 -13415552.34847  21612533.0864                   21612531.8324
        47.2504         45.5004
  -1127999.78946   -858938.60944  24588773.5944                   24588775.3054
        37.5004         28.7504
 -21954172.72347 -17082521.14146  21508861.0394                   21508857.3054
        45.5004         36.5004
  -9370241.84046  -7282438.50044  23271709.4454                   23271709.3594
        40.0004         26.0004
  -8854550.28946  -6880066.46945  23436572.1254                   23436573.5864
        38.7504         33.0004
   1895656.72746   1294641.38746  23716168.8444                   23716169.1954
        41.0004         36.7504
 -27831499.68447 -21662946.87948  20180128.7274                   20180123.9494
        47.5004         50.0004
 -21820299.77347 -16968035.66846  21139773.3054                   21139769.3134
        47.2504         37.2504
 25  7  2  1  0 30.0000000  0 10G10G02G03G25G28G04G26G32G31G01
  12899756.88346   9990467.71545  24383734.6414                   24383736.7854
        38.7504         33.0004
 -19616895.83247 -15249364.58645  22046826.1174                   22046821.0704
        46.5004         35.7504
 -17322915.82047 -13479589.76647  21596894.7194                   21596893.4224
        47.5004         45.2504
  -1101819.66446   -838538.51644  24593756.0004                   24593757.1684
        37.7504         29.0004
 -21902655.79347 -17042378.09446  21518664.4064                   21518660.5824
        46.0004         37.5004
  -9443554.66046  -7339565.26644  23257758.9534                   23257758.3164
        41.0004         27.2504
  -8947459.68446  -6952463.24645  23418892.1884                   23418893.8914
        38.5004         34.0004
   1957914.76646   1343154.09046  23728016.9304                   23728016.1174
        41.7504         37.0004
 -27841097.97747 -21670426.05148  20178302.0634                   20178297.5314
        47.7504         50.0004
 -21825509.81247 -16972095.44546  21138781.8594                   21138778.2894
        46.2504         37.0004
 25  7  2  1  1  0.0000000  0 10G10G02G03G25G28G04G26G32G31G01
  12980461.37546  10053354.19945  24399092.9694                   24399094.3404
        36.5004         32.0004
 -19566403.20347 -15210019.73045  22056434.8674                   22056429.5124
        46.0004         35.5004
 -17404903.55147 -13543476.26247  21581292.4694                   21581291.7274
        47.0004         45.5004
  -1075098.20746   -817716.60245  24598840.7424                   24598841.9494
        38.0004         30.0004
 -21850693.69947 -17001888.16846  21528552.4144                   21528548.5394
        45.2504         37.5004
  -9516723.62546  -7396579.92244  23243835.2974                   23243834.5744
        40.7504         25.7504
  -9040207.51646  -7024734.14545  23401242.3364                   23401244.0664
        38.5004         34.0004
   2020196.22347   1391685.04746  23739868.4534                   23739867.8954
        42.5004         37.7504
 -27850065.35247 -21677413.60548  20176595.5164                   20176590.7464
        47.0004         50.0004
 -21830120.53947 -16975688.23846  21137904.3204                   21137901.1094
        45.5004         37.0004
 25  7  2  1  1 30.0000000  0 10G10G02G03G25G28G04G26G32G31G01
  13061389.52045  10116414.92245  24414492.7664                   24414494.3874
        35.0004         30.5004
 -19515513.03547 -15170365.09445  22066118.3284                   22066113.5944
        45.7504         35.5004
 -17486693.50047 -13607208.64147  21565728.9144                   21565727.6644
        46.5004         45.5004
  -1047834.17246   -796471.90644  24604028.6644                   24604030.2274
        38.7504         29.7504
 -21798286.66447 -16961051.53146  21538525.1884                   21538521.3054
        45.2504         37.0004
  -9589746.79346  -7453480.95744  23229938.3754                   23229938.7194
        40.5004         26.0004
  -9132788.55546  -7096875.07445  23383624.6564                   23383626.8954
        39.7504         34.5004
   2082502.85947   1440235.62146  23751724.8204                   23751724.6604
        42.7504         38.0004
 -27858400.12548 -21683908.21548  20175009.5234                   20175004.5904
        48.2504         50.0004
 -21834130.12147 -16978812.60246  21137141.8054                   21137138.0314
        47.0004         37.2504
 25  7  2  1  2  0.0000000  0 10G10G02G03G25G28G04G26G32G31G01
  13142540.66445  10179649.42245  24429934.9614                   24429937.1214
        33.7504         30.0004
 -19464227.39847 -15130402.31245  22075878.0084                   22075872.9454
        45.5004         35.7504
 -17568283.44147 -13670785.16047  21550202.5004                   21550200.9184
        46.5004         45.5004
  -1020028.02346   -774804.79345  24609320.5004                   24609321.3404
        39.7504         30.5004
 -21745436.84447 -16919869.86746  21548581.8524                   21548578.4494
        45.0004         37.0004
  -9662624.09846  -7510268.34444  23216071.1724                   23216071.1294
        41.2504         25.7504
  -9225199.25846  -7168883.28545  23366039.5234                   23366041.0274
        40.5004         34.7504
   2144834.64847   1488805.80946  23763586.2974                   23763585.8284
        43.0004         38.7504
 -27866102.93448 -21689910.38348  20173543.7504                   20173538.9024
        48.0004         50.0004
 -21837538.52047 -16981468.50446  21136492.6564                   21136489.4384
        46.5004         37.5004
 25  7  2  1  2 30.0000000  0 10G10G02G03G25G28G04G26G32G31G01
  13223907.11745  10243051.68445  24445419.0314                   24445421.1374
        35.5004         30.0004
 -19412555.10547 -15090138.23845  22085710.6174                   22085705.8554
        46.0004         35.5004
 -17649678.07447 -13734209.50047  21534713.5784                   21534712.3834
        46.5004         45.7504
   -991687.33246   -752721.13745  24614713.8834                   24614714.2704
        40.0004         30.7504
 -21692153.36347 -16878350.29346  21558721.4924                   21558718.4224
        46.2504         37.0004
  -9735362.46946  -7566947.48444  23202228.6954                   23202228.9104
        40.7504         26.5004
  -9317443.33646  -7240761.65645  23348486.4144                   23348487.6914
        41.5004         35.0004
   2207184.47747   1537390.05146  23775451.2814                   23775451.0904
        43.0004         39.5004
 -27873181.14548 -21695425.86348  20172196.6804                   20172192.1254
        48.0004         50.0004
 -21840352.75447 -16983661.42646  21135957.2034                   21135953.9494
        47.7504         37.0004
 25  7  2  1  3  0.0000000  0 10G10G02G03G25G28G04G26G32G31G01
  13305491.21946  10306623.57045  24460943.6414                   24460945.7344
        36.2504         30.2504
 -19360495.05147 -15049572.00445  22095617.5084                   22095612.5084
        45.5004         35.7504
 -17730872.03147 -13797477.46147  21519262.7584                   21519261.4414
        47.0004         46.0004
   -962809.51646   -730218.94544  24620208.8524                   24620210.2114
        40.0004         29.2504
 -21638435.18447 -16836491.98046  21568943.5864                   21568940.2424
        46.2504         36.7504
  -9807958.74246  -7623515.88744  23188414.4384                   23188413.9574
        41.5004         26.2504
  -9409514.13746  -7312505.00445  23330965.2034                   23330966.7194
        40.5004         35.2504
   2269555.49247   1585990.80546  23787319.9924                   23787319.7194
        43.7504         39.5004
 -27879631.74248 -21700452.28148  20170969.7584                   20170964.8284
        48.5004         50.0004
 -21842569.72747 -16985388.94946  21135535.3914                   21135532.2814
        47.5004         37.2504
 25  7  2  1  3 30.0000000  0 10G10G02G03G25G28G04G26G32G31G01
  13387295.80546  10370367.27345  24476511.0944                   24476513.3244
        37.5004         30.7504
 -19308045.94547 -15008702.63345  22105597.8444                   22105593.2504
        45.0004         35.2504
 -17811859.65647 -13860584.64547  21503851.1484                   21503850.1724
        47.2504         46.0004
   -933391.73846   -707295.98845  24625807.1174                   24625807.7274
        39.5004         30.0004
 -21584281.10547 -16794294.01246  21579248.7894                   21579244.9804
        45.0004         36.5004
  -9880409.45347  -7679970.85244  23174627.6884                   23174627.3204
        42.0004         27.0004
  -9501404.82846  -7384108.00445  23313479.0234                   23313480.3484
        40.2504         34.7504
   2331951.00847   1634610.65246  23799193.4614                   23799193.2664
        43.7504         39.5004
 -27885451.49648 -21704987.14548  20169861.7734                   20169857.3164
        48.7504         50.0004
 -21844186.10247 -16986648.46946  21135227.4774                   21135224.5394
        47.5004         37.0004
 25  7  2  1  4  0.0000000  0 10G10G02G03G25G28G04G26G32G31G01
  13469317.77046  10434280.34445  24492119.3284                   24492121.5234
        38.2504         30.0004
 -19255211.96547 -14967533.34845  22115652.3444                   22115647.5164
        45.7504         35.7504
 -17892641.01647 -13923531.10547  21488479.0394                   21488477.7624
        47.0004         46.0004
   -903436.97746   -683954.60544  24631507.2504                   24631507.2464
        40.0004         28.5004
 -21529695.54747 -16751759.82046  21589636.4844                   21589632.5314
        46.5004         36.2504
  -9952716.90646  -7736314.21144  23160867.6644                   23160867.2934
        41.2504         27.7504
  -9593114.35246  -7455569.84845  23296027.3054                   23296028.6054
        40.0004         34.2504
   2394368.69547   1683247.77346  23811071.5704                   23811071.0164
        44.2504         39.5004
 -27890643.36748 -21709032.74648  20168873.6254                   20168868.7384
        48.0004         50.0004
 -21845204.33647 -16987441.91446  21135034.4774                   21135030.5944
        45.7504         37.5004
 25  7  2  1  4 30.0000000  0 10G10G02G03G25G28G04G26G32G31G01
  13551554.47346  10498360.75845  24507768.0314                   24507770.8204
        38.0004         30.0004
 -19201997.18747 -14926067.33646  22125778.9454                   22125773.7234
        45.0004         36.0004
 -17973215.84847 -13986316.63747  21473146.1254                   21473144.9104
        47.0004         46.0004
   -872947.94546   -660196.91844  24637308.7974                   24637309.7584
        39.5004         27.5004
 -21474682.75447 -16708892.73046  21600104.9774                   21600101.3364
        45.2504         36.5004
 -10024883.10546  -7792547.48844  23147134.6884                   23147134.6994
        40.7504         26.5004
  -9684641.23046  -7526889.37145  23278610.2034                   23278611.5394
        40.0004         34.0004
   2456806.44547   1731900.53546  23822952.6954                   23822952.6484
        44.7504         39.5004
 -27895209.47347 -21712590.73448  20168004.8594                   20168000.5204
        47.7504         50.0004
 -21845626.50447 -16987770.88746  21134953.8054                   21134950.2584
        46.5004         37.5004
 25  7  2  1  5  0.0000000  0 10G10G02G03G25G28G04G26G32G31G01
  13634009.39846  10562611.20145  24523459.3524                   24523461.6334
        38.2504         30.0004
 -19148399.48047 -14884302.94146  22135978.5864                   22135973.7074
        45.2504         36.2504
 -18053577.65247 -14048936.16447  21457853.6954                   21457852.5744
        47.7504         46.2504
   -841921.01946   -636020.07944  24643213.3134                   24643214.5664
        39.0004         28.5004
 -21419240.65247 -16665691.10946  21610654.9774                   21610651.3594
        45.2504         36.7504
 -10096903.69947  -7848667.31244  23133430.0314                   23133429.0744
        42.0004         27.2504
  -9775977.86346  -7598060.65645  23261229.2114                   23261230.5984
        40.0004         33.7504
   2519268.47747   1780572.21546  23834839.0164                   23834838.9534
        44.7504         39.2504
 -27899146.57847 -21715658.59448  20167255.7814                   20167250.7464
        46.7504         50.0004
 -21845448.62147 -16987632.29346  21134987.4534                   21134984.0234
        47.0004         36.0004
 25  7  2  1  5 30.0000000  0 10G10G02G03G25G28G04G26G32G31G01
  13716675.25446  10627026.01244  24539190.2664                   24539192.1564
        39.0004         29.7504
 -19094427.46147 -14842246.87146  22146248.5004                   22146244.0944
        46.2504         36.0004
 -18133730.62147 -14111392.97347  21442601.1724                   21442599.6994
        47.2504         46.0004
   -810363.48446   -611429.78544  24649218.1334                   24649219.5084
        40.0004         28.0004
 -21363377.92647 -16622161.72346  21621285.5004                   21621282.0984
        45.5004         36.0004
 -10168785.20346  -7904678.74644  23119751.2974                   23119750.2934
        41.5004         27.0004
  -9867127.30146  -7669086.08245  23243884.0864                   23243885.3054
        39.5004         33.7504
   2581748.29347   1829257.75846  23846729.0084                   23846727.7034
        44.0004         38.5004
 -27902461.27047 -21718241.46148  20166624.9384                   20166620.5434
        47.0004         50.0004
 -21844677.29747 -16987031.26246  21135134.4694                   21135130.9774
        46.5004         36.7504
 25  7  2  1  6  0.0000000  0 10G10G02G03G25G28G04G26G32G31G01
  13799552.16046  10691605.28145  24554961.5164                   24554963.9884
        40.0004         30.2504
 -19040082.09447 -14799899.89145  22156590.0164                   22156585.3914
        45.2504         35.7504
 -18213671.56247 -14173684.55947  21427388.8984                   21427387.6764
        47.2504         46.0004
   -778275.09446   -586425.82444  24655324.6174                   24655325.9924
        39.7504         27.2504
 -21307095.88747 -16578305.59846  21631995.4384                   21631991.9774
        45.0004         36.2504
 -10240526.67246  -7960581.07044  23106099.3444                   23106098.2034
        41.5004         28.2504
  -9958085.19146  -7739962.24245  23226575.1724                   23226575.8794
        39.5004         33.5004
   2644246.76247   1877957.82846  23858621.7034                   23858620.6134
        45.0004         38.0004
 -27905153.42247 -21720339.23048  20166112.7894                   20166107.9064
        47.5004         50.0004
 -21843311.87548 -16985967.31246  21135394.0314                   21135390.8834
        48.0004         37.2504
 25  7  2  1  6 30.0000000  0 10G10G02G03G25G28G04G26G32G31G01
  13882639.60246  10756348.61745  24570772.3364                   24570774.7704
        40.0004         30.2504
 -18985365.40247 -14757263.56645  22167002.6564                   22166997.9384
        46.0004         35.0004
 -18293398.00447 -14235809.00847  21412217.0164                   21412215.8594
        47.7504         46.2504
   -745656.39546   -561008.62944  24661531.6884                   24661532.1684
        40.0004         27.2504
 -21250396.50047 -16534124.27046  21642785.5084                   21642781.6724
        45.7504         36.2504
 -10312127.92247  -8016374.14144  23092473.4774                   23092472.8484
        42.0004         27.0004
 -10048847.89146  -7810686.31245  23209303.3834                   23209304.6334
        39.5004         33.2504
   2706764.10547   1926672.62146  23870518.7114                   23870517.7424
        44.7504         37.5004
 -27907223.16048 -21721952.00048  20165718.8914                   20165713.9774
        48.0004         50.0004
 -21841352.37548 -16984440.43046  21135766.9144                   21135763.5744
        48.0004         37.0004
 25  7  2  1  7  0.0000000  0 10G10G02G03G25G28G04G26G32G31G01
  13965936.84446  10821255.42245  24586623.7734                   24586625.6564
        41.0004         30.7504
 -18930279.53947 -14714339.56645  22177485.4454                   22177480.4534
        45.2504         35.0004
 -18372907.67648 -14297764.55947  21397087.3754                   21397085.6884
        48.0004         46.5004
   -712508.19946   -535178.85944  24667839.2034                   24667840.1604
        39.5004         26.5004
 -21193282.03547 -16489619.50446  21653653.8054                   21653650.0634
        45.7504         36.0004
 -10383588.84847  -8072057.86744  23078875.4774                   23078874.1684
        42.5004         27.7504
 -10139412.04346  -7881255.66845  23192069.7194                   23192070.7384
        39.5004         34.5004
   2769300.23847   1975402.03945  23882418.8594                   23882418.2504
        44.0004         35.7504
 -27908670.99647 -21723080.17248  20165443.1334                   20165438.1524
        47.7504         50.0004
 -21838799.11348 -16982450.88746  21136252.8444                   21136250.0044
        48.0004         37.0004
 25  7  2  1  7 30.0000000  0 10G10G02G03G25G28G04G26G32G31G01
  14049443.78946  10886325.62545  24602514.3594                   24602516.9734
        40.0004         30.2504
 -18874825.71147 -14671128.85545  22188038.0234                   22188032.8164
        46.0004         35.2504
 -18452197.50048 -14359548.80147  21381999.1414                   21381997.0824
        48.0004         46.5004
   -678830.55946   -508936.54344  24674248.2664                   24674249.1914
        40.2504         24.5004
 -21135753.88747 -16444792.39146  21664600.7974                   21664597.3914
        46.0004         36.0004
 -10454908.76647  -8127631.72344  23065303.1564                   23065301.9884
        42.7504         28.0004
 -10229773.37146  -7951666.97345  23174874.6484                   23174875.6134
        40.2504         35.5004
   2831855.93447   2024146.71145  23894322.7974                   23894321.6724
        43.2504         35.5004
 -27909496.73847 -21723723.59848  20165286.1254                   20165281.3914
        47.7504         50.0004
 -21835651.57047 -16979998.26646  21136851.9924                   21136848.9384
        47.7504         37.2504
 25  7  2  1  8  0.0000000  0 10G10G02G03G25G28G04G26G32G31G01
  14133154.68446  10951554.75845  24618443.7664                   24618446.2274
        39.5004         30.2504
 -18819011.00447 -14627636.93045  22198659.1484                   22198654.1094
        46.0004         35.5004
 -18531270.24247 -14421163.89147  21366951.6174                   21366950.4654
        47.7504         46.2504
   -644629.28146   -482286.17644  24680756.4454                   24680756.7034
        40.5004         24.5004
 -21077819.42647 -16399648.66445  21675625.6414                   21675621.6334
        46.5004         35.7504
 -10526092.65647  -8183099.56644  23051757.5634                   23051756.4614
        42.5004         27.2504
 -10319933.53946  -8021921.53946  23157717.8284                   23157719.0784
        41.5004         36.5004
   2894426.14147   2072902.68045  23906229.3984                   23906228.4804
        42.2504         34.7504
 -27909706.22347 -21723886.82848  20165246.1954                   20165241.6174
        47.7504         50.0004
 -21831915.15247 -16977086.77346  21137563.0314                   21137559.8594
        47.7504         37.0004
 25  7  2  1  8 30.0000000  0 10G10G02G03G25G28G04G26G32G31G01
  14217073.18046  11016945.64544  24634413.5554                   24634416.0234
        39.0004         29.2504
 -18762833.21947 -14583862.09445  22209349.8984                   22209344.8094
        46.2504         35.5004
 -18610119.02348 -14482604.46147  21351947.1564                   21351945.8054
        48.0004         46.7504
   -609900.71946   -455225.00444  24687365.4614                   24687365.7814
        40.2504         24.0004
 -21019476.30147 -16354186.50846  21686727.9614                   21686724.3874
        46.0004         36.0004
 -10597135.96547  -8238457.88744  23038238.3754                   23038236.9414
        42.5004         27.0004
 -10409884.54746  -8092013.11345  23140600.6804                   23140601.7154
        41.7504         35.7504
   2957015.40246   2121673.49245  23918140.2814                   23918138.5354
        41.5004         33.7504
 -27909295.41848 -21723566.69948  20165324.1024                   20165319.1724
        48.5004         50.0004
 -21827585.62948 -16973713.13346  21138387.1094                   21138383.5394
        48.0004         37.0004
 25  7  2  1  9  0.0000000  0 10G10G02G03G25G28G04G26G32G31G01
  14301198.06346  11082497.37144  24650421.3594                   24650424.4804
        38.2504         29.0004
 -18706294.79347 -14539806.22345  22220108.1564                   22220103.6134
        45.0004         35.5004
 -18688742.04748 -14543869.12547  21336986.0394                   21336984.1294
        48.5004         47.0004
   -574646.22746   -427753.96944  24694073.2274                   24694074.6454
        39.7504         24.5004
 -20960727.23847 -16308408.03146  21697907.4224                   21697903.6054
        45.0004         36.2504
 -10668039.15647  -8293707.02744  23024746.2584                   23024744.0864
        42.2504         27.7504
 -10499623.48846  -8161939.44946  23123524.0704                   23123524.5234
        41.5004         37.5004
   3019623.21546   2170458.77345  23930053.5704                   23930052.9614
        40.7504         32.7504
 -27908265.53147 -21722764.19148  20165520.3054                   20165515.4884
        47.7504         50.0004
 -21822663.94547 -16969878.06646  21139323.6094                   21139320.2074
        47.0004         37.2504
 25  7  2  1  9 30.0000000  0 10G10G02G03G25G28G04G26G32G31G01
  14385525.95346  11148207.25444  24666469.2034                   24666471.3984
        38.7504         29.0004
 -18649400.53147 -14495473.09445  22230935.3524                   22230930.1214
        46.7504         35.5004
 -18767139.44947 -14604957.98047  21322067.1254                   21322065.8054
        47.5004         47.0004
   -538869.11346   -399875.71943  24700881.9224                   24700882.7734
        38.7504         22.5004
 -20901576.98447 -16262316.93046  21709163.3674                   21709159.6994
        45.7504         36.0004
 -10738804.76247  -8348848.94944  23011279.4304                   23011278.3674
        43.0004         27.0004
 -10589149.42246  -8231699.79746  23106487.5704                   23106488.4924
        41.7504         37.0004
   3082247.10946   2219256.58645  23941970.3284                   23941969.6294
        40.0004         32.0004
 -27906619.94947 -21721481.91048  20165833.3674                   20165828.8134
        47.0004         50.0004
 -21817152.91848 -16965583.76246  21140372.4144                   21140369.1524
        48.2504         37.0004
 25  7  2  1 10  0.0000000  0 10G10G02G03G25G28G04G26G32G31G01
  14470057.05946  11214075.49644  24682555.6024                   24682557.4454
        37.2504         28.0004
 -18592151.45347 -14450863.46945  22241829.3754                   22241824.5394
        46.5004         34.7504
 -18845307.92647 -14665868.44947  21307192.1564                   21307190.7734
        47.7504         47.0004
   -502569.27046   -371590.13743  24707788.5634                   24707790.7034
        38.5004         22.2504
 -20842026.80547 -16215914.21146  21720495.3834                   21720491.6334
        46.0004         36.2504
 -10809431.71546  -8403882.84444  22997839.1414                   22997837.9264
        41.5004         26.0004
 -10678457.92246  -8301290.72346  23089492.8204                   23089493.6914
        41.2504         37.0004
   3144888.19546   2268067.78145  23953890.7034                   23953889.9964
        40.7504         31.7504
 -27904358.09048 -21719719.41048  20166263.8524                   20166259.1914
        48.0004         50.0004
 -21811051.96548 -16960829.78146  21141533.2114                   21141530.0354
        48.5004         37.0004
 25  7  2  1 10 30.0000000  0 10G10G02G03G25G28G04G26G32G31G01
  14554791.29346  11280102.02044  24698679.9774                   24698682.2544
        37.7504         28.7504
 -18534549.33647 -14405978.75445  22252790.5634                   22252785.4264
        45.2504         35.0004
 -18923244.39548 -14726598.13347  21292361.6484                   21292359.9804
        48.0004         47.0004
   -465746.93046   -342897.39843  24714796.9064                   24714797.6724
        38.5004         21.2504
 -20782078.23047 -16169201.05146  21731903.4614                   21731899.4804
        45.0004         36.2504
 -10879919.24646  -8458808.08644  22984425.8594                   22984424.8634
        41.5004         26.0004
 -10767544.80146  -8370708.94946  23072539.5944                   23072540.4304
        41.2504         36.5004
   3207547.19546   2316892.91845  23965814.5234                   23965813.7894
        41.0004         32.0004
 -27901479.95348 -21717476.69948  20166811.3754                   20166806.5824
        48.0004         50.0004
 -21804360.84048 -16955615.92246  21142806.2194                   21142803.1254
        48.0004         37.0004
 25  7  2  1 11  0.0000000  0 11G10G02G16G03G25G28G04G26G32G31G01
  14639727.04346  11346285.56344  24714841.8364                   24714844.7344
        37.0004         29.0004
 -18476597.02047 -14360821.16445  22263818.8364                   22263813.7384
        47.5004         35.0004
   1433445.07056   1163567.97352  25206205.9774                   25206210.4574
        38.0004         17.2504
 -19000947.34447 -14787145.85947  21277574.9694                   21277573.1094
        47.5004         47.2504
   -428403.88346   -313798.88743  24721902.7194                   24721903.2424
        37.5004         18.2504
 -20721734.32047 -16122179.83246  21743386.5704                   21743382.5274
        46.5004         36.0004
 -10950268.18747  -8513625.34044  22971038.6804                   22971037.3714
        42.2504         27.5004
 -10856407.43746  -8439952.44945  23055629.4924                   23055630.3484
        40.5004         35.5004
   3270223.28146   2365731.37545  23977740.7734                   23977740.6134
        40.7504         33.2504
 -27897987.10948 -21714754.99648  20167476.3984                   20167471.4614
        48.0004         50.0004
 -21797080.81247 -16949943.18446  21144191.6804                   21144188.1914
        47.7504         37.0004
 25  7  2  1 11 30.0000000  0 11G10G02G16G03G25G28G04G26G32G31G01
  14724855.76646  11412619.46945  24731042.0704                   24731044.6024
        37.5004         30.2504
 -18418303.96947 -14315398.07445  22274911.2194                   22274906.4304
        45.2504         34.7504
   1330026.20346   1082982.16442  25186525.6094                   25186530.3674
        36.7504         17.7504
 -19078421.99647 -14847515.69947  21262832.1254                   21262830.4024
        47.5004         47.2504
   -390548.69946   -284301.37943  24729106.5554                   24729107.1804
        37.0004         18.2504
 -20661004.93747 -16074858.25046  21754942.7034                   21754939.0234
        45.5004         36.2504
 -11020486.09047  -8568340.48844  22957676.8444                   22957675.7974
        42.0004         27.0004
 -10945050.03946  -8509024.49246  23038761.4224                   23038762.0274
        40.0004         36.0004
   3332908.94546   2414577.28145  23989669.7114                   23989669.5124
        40.5004         33.2504
 -27893888.19147 -21711561.03148  20168256.3674                   20168251.3204
        47.7504         50.0004
 -21789219.94548 -16943817.83646  21145687.5554                   21145684.2734
        48.0004         37.0004
 25  7  2  1 12  0.0000000  0 11G10G02G16G03G25G28G04G26G32G31G01
  14810168.88346  11479097.05944  24747275.6024                   24747279.3834
        36.0004         28.5004
 -18359680.23847 -14269717.29345  22286067.6484                   22286062.1764
        45.0004         35.2504
   1226422.58646   1002252.46542  25166809.3984                   25166815.2384
        37.0004         16.2504
 -19155673.68748 -14907711.78947  21248131.6414                   21248130.5274
        48.2504         47.2504
   -352190.03545   -254411.48043  24736405.8364                   24736406.1414
        35.7504         18.2504
 -20599900.06647 -16027244.08245  21766570.6884                   21766566.5664
        45.0004         35.7504
 -11090580.73447  -8622959.59444  22944338.1884                   22944336.4774
        42.5004         27.0004
 -11033476.83646  -8577928.37146  23021934.3754                   23021934.6884
        40.0004         36.0004
   3395596.50846   2463424.67245  24001598.6174                   24001598.5904
        39.2504         33.5004
 -27889191.60548 -21707901.34848  20169149.7584                   20169145.0394
        48.7504         49.7504
 -21780786.54348 -16937246.35946  21147292.3914                   21147289.1994
        48.0004         37.0004
 25  7  2  1 12 30.0000000  0 11G10G02G16G03G25G28G04G26G32G31G01
  14895667.06346  11545718.82044  24763546.2584                   24763549.1564
        37.0004         28.7504
 -18300726.69947 -14223779.52045  22297285.6254                   22297280.9774
        46.5004         35.0004
   1122638.29745    921381.91042  25147060.2274                   25147065.1134
        35.7504         17.2504
 -19232698.65248 -14967731.22747  21233474.0944                   21233472.7464
        48.0004         47.2504
   -313327.39146   -224128.92643  24743801.2894                   24743802.2344
        36.5004         19.2504
 -20538420.51647 -15979337.95745  21778269.6724                   21778266.0664
        46.5004         35.5004
 -11160550.54347  -8677481.41844  22931023.4064                   22931021.7934
        42.2504         26.5004
 -11121682.90246  -8646660.26246  23005148.5864                   23005149.7664
        40.7504         36.0004
   3458287.55946   2512274.78145  24013528.7274                   24013528.2304
        40.0004         34.2504
 -27883896.53548 -21703775.30948  20170157.6564                   20170153.0124
        48.2504         49.7504
 -21771779.62947 -16930227.99646  21149006.4064                   21149003.2974
        47.7504         37.2504
 25  7  2  1 13  0.0000000  0 11G10G02G16G03G25G28G04G26G32G31G01
  14981353.19146  11612487.05544  24779851.9614                   24779855.3364
        36.5004         29.5004
 -18241441.75847 -14177583.52045  22308567.2344                   22308562.7384
        46.7504         34.5004
   1018679.43446    840375.38342  25127277.2424                   25127282.4694
        37.0004         16.7504
 -19309490.70748 -15027569.16047  21218861.3754                   21218859.4344
        48.0004         47.2504
   -273958.07845   -193451.56243  24751293.0704                   24751294.3094
        34.0004         19.2504
 -20476564.82047 -15931138.72745  21790040.5944                   21790036.2774
        47.2504         35.2504
 -11230391.82046  -8731903.09844  22917733.4694                   22917731.5514
        41.5004         27.0004
 -11209661.13746  -8715214.62145  22988406.9144                   22988408.1764
        41.5004         35.5004
   3520985.82046   2561130.51245  24025460.2424                   24025459.4454
        41.7504         35.0004
 -27878000.27047 -21699180.81248  20171279.5784                   20171274.9184
        47.2504         49.7504
 -21762196.05947 -16922760.28546  21150830.2734                   21150826.9024
        47.7504         37.5004
 25  7  2  1 13 30.0000000  0 11G10G02G16G03G25G28G04G26G32G31G01
  15067234.96545  11679407.71944  24796195.6334                   24796198.0554
        35.5004         28.5004
 -18181818.84047 -14131124.14845  22319913.3914                   22319908.3594
        46.0004         34.5004
    914557.66446    759241.89842  25107462.8364                   25107468.4694
        37.2504         17.7504
 -19386038.94147 -15087217.10247  21204294.2424                   21204292.9454
        46.5004         47.2504
   -234074.59045   -162373.50443  24758882.7274                   24758883.2894
        34.5004         19.7504
 -20414326.68447 -15882641.48846  21801883.8204                   21801880.4614
        47.0004         36.0004
 -11300095.89547  -8786217.87944  22904468.8834                   22904467.3284
        42.2504         27.0004
 -11297399.48046  -8783582.05146  22971711.0474                   22971711.5554
        41.0004         36.0004
   3583700.05547   2609998.70346  24037394.6414                   24037393.6094
        42.0004         36.0004
 -27871494.91048 -21694111.69548  20172517.6884                   20172513.0514
        48.5004         49.5004
 -21752027.79347 -16914836.97746  21152765.1414                   21152762.1414
        47.5004         37.0004
 25  7  2  1 14  0.0000000  0 11G10G02G16G03G25G28G04G26G32G31G01
  15153308.61746  11746477.92244  24812574.3594                   24812577.3444
        36.0004         28.5004
 -18121863.36747 -14084405.65245  22331322.3204                   22331317.6334
        46.0004         34.0004
    810272.73446    677981.29742  25087618.6414                   25087622.8874
        36.0004         16.7504
 -19462343.90647 -15146675.48047  21189774.3984                   21189772.5634
        47.0004         47.2504
   -193680.89845   -130897.87943  24766570.3674                   24766569.8324
        33.7504         19.2504
 -20351711.29347 -15833850.28946  21813799.2344                   21813795.5204
        47.2504         36.0004
 -11369665.71946  -8840428.03144  22891229.7504                   22891228.4614
        41.5004         26.5004
 -11384897.40646  -8851762.15245  22955060.1724                   22955061.4264
        40.7504         35.7504
   3646427.31647   2658877.03946  24049330.5314                   24049330.0824
        43.2504         36.7504
 -27864384.45348 -21688571.07448  20173870.5784                   20173865.6094
        48.0004         49.5004
 -21741278.40247 -16906460.83246  21154810.5704                   21154807.2114
        46.5004         37.0004
 25  7  2  1 14 30.0000000  0 11G10G02G16G03G25G28G04G26G32G31G01
  15239576.50845  11813699.41844  24828991.5234                   24828993.6684
        35.2504         27.0004
 -18061574.21947 -14037427.16445  22342794.9384                   22342790.0944
        45.2504         34.0004
    705830.99645    596598.47742  25067743.1564                   25067748.0664
        35.5004         16.2504
 -19538399.82847 -15205939.80147  21175301.4844                   21175299.4844
        46.2504         47.2504
   -152774.68445    -99022.96143  24774354.1334                   24774354.3284
        32.5004         19.5004
 -20288717.64547 -15784764.34445  21825786.7424                   21825782.6804
        46.5004         35.2504
 -11439097.96547  -8894530.97344  22878017.3204                   22878015.9344
        42.0004         26.5004
 -11472148.15646  -8919749.63746  22938457.3754                   22938458.0354
        41.2504         37.0004
   3709171.09447   2707768.23846  24061270.7424                   24061270.2154
        43.7504         37.2504
 -27856666.51248 -21682557.08648  20175339.1884                   20175334.2774
        48.5004         49.5004
 -21729945.21547 -16897629.78546  21156967.1024                   21156963.7344
        47.0004         37.2504
 25  7  2  1 15  0.0000000  0 11G10G02G16G03G25G28G04G26G32G31G01
  15326041.03146  11881074.13744  24845445.8914                   24845447.8754
        36.5004         29.0004
 -18000950.74647 -13990188.15645  22354331.3594                   22354326.9774
        44.5004         33.5004
    601238.26646    515098.02342  25047839.3594                   25047844.3054
        36.0004         17.2504
 -19614201.23047 -15265005.79747  21160876.5084                   21160875.0394
        46.7504         47.2504
   -111354.18044    -66747.27043  24782236.5944                   24782236.4654
        29.2504         19.2504
 -20225344.84447 -15735382.96145  21837846.2194                   21837842.4884
        46.7504         35.5004
 -11508389.42246  -8948524.22744  22864831.0394                   22864830.0004
        41.5004         26.7504
 -11559145.13347  -8987539.38746  22921902.5004                   22921903.0634
        42.0004         37.2504
   3771934.61747   2756674.82046  24073214.4924                   24073213.6254
        43.0004         38.0004
 -27848338.89148 -21676068.02348  20176924.1024                   20176918.9384
        48.5004         49.5004
 -21718025.72747 -16888341.87946  21159235.0084                   21159232.2544
        47.0004         36.7504
 25  7  2  1 15 30.0000000  0 10G10G02G16G03G28G04G26G32G31G01
  15412697.55945  11948598.49245  24861934.9694                   24861938.2704
        35.7504         30.0004
 -17939998.39147 -13942692.87945  22365930.0084                   22365925.4414
        45.0004         33.5004
    496493.70745    433479.27742  25027906.5314                   25027911.1914
        34.7504         15.5004
 -19689749.23847 -15323874.34047  21146500.0084                   21146498.7974
        46.2504         47.5004
 -20161598.73047 -15685710.68445  21849976.7034                   21849972.7384
        46.5004         35.5004
 -11577543.61346  -9002410.52744  22851671.0084                   22851670.4384
        41.2504         26.2504
 -11645888.44546  -9055131.47346  22905394.9144                   22905396.3054
        41.0004         37.5004
   3834714.46147   2805594.12146  24085161.3364                   24085160.3404
        42.5004         37.7504
 -27839406.01248 -21669107.33648  20178623.7974                   20178619.0784
        49.0004         49.7504
 -21705524.16847 -16878600.41846  21161614.1644                   21161611.0204
        47.0004         37.0004
 25  7  2  1 16  0.0000000  0 10G10G02G16G03G28G04G26G32G31G01
  15499548.75045  12016274.53544  24878462.8284                   24878465.1844
        35.7504         29.5004
 -17878716.00447 -13894940.43045  22377591.8674                   22377587.3674
        44.2504         34.0004
    391603.53545    351747.05942  25007946.7114                   25007951.5234
        34.0004         16.2504
 -19765037.96947 -15382540.84047  21132173.1884                   21132171.4774
        47.5004         47.5004
 -20097478.14847 -15635746.61745  21862178.5004                   21862174.5864
        46.2504         35.5004
 -11646557.08246  -9056187.16044  22838538.3914                   22838537.8674
        41.2504         27.2504
 -11732371.27046  -9122520.58646  22888938.0084                   22888939.2154
        40.7504         37.5004
   3897514.15647   2854528.89546  24097110.9064                   24097110.9884
        42.0004         37.7504
 -27829865.28148 -21661673.00048  20180439.6484                   20180434.2774
        48.0004         49.5004
 -21692437.82847 -16868403.28946  21164104.9844                   21164101.0824
        46.5004         36.7504
 25  7  2  1 16 30.0000000  0 10G10G02G16G03G28G04G26G32G31G01
  15586604.96946  12084110.31644  24895029.0314                   24895032.1764
        36.5004         29.2504
 -17817094.30147 -13846923.57445  22389318.1334                   22389313.4534
        44.5004         34.0004
    286582.05945    269912.52342  24987962.2734                   24987966.5204
        34.2504         16.7504
 -19840053.76647 -15440994.68047  21117898.2894                   21117896.4414
        47.2504         47.5004
 -20032974.12547 -15585483.75845  21874453.5394                   21874449.8014
        45.7504         35.2504
 -11715418.51247  -9109845.32444  22825435.0394                   22825433.8014
        42.0004         27.7504
 -11818578.82046  -9189695.19146  22872533.4844                   22872534.0204
        40.2504         37.2504
   3960345.13347   2903488.04746  24109067.1414                   24109067.6564
        42.0004         37.5004
 -27819706.74648 -21653757.25448  20182372.3914                   20182367.8914
        48.7504         49.5004
 -21678756.14547 -16857742.24646  21166708.1724                   21166705.1414
        47.2504         37.0004
 25  7  2  1 17  0.0000000  0 10G10G02G16G03G28G04G26G32G31G01
  15673870.04346  12152108.84845  24911635.7734                   24911637.8404
        38.0004         30.5004
 -17755131.54347 -13798640.96945  22401109.3204                   22401104.4494
        44.7504         33.5004
    181436.51245    187981.31642  24967953.5634                   24967958.0204
        33.5004         16.7504
 -19914789.37947 -15499230.18747  21103676.3284                   21103674.9884
        47.0004         47.5004
 -19968084.16047 -15534920.16445  21886801.2274                   21886797.4654
        46.0004         35.2504
 -11784123.08647  -9163381.26644  22812360.7814                   22812359.4224
        42.0004         27.7504
 -11904502.81646  -9256648.84846  22856182.2504                   22856183.2774
        40.5004         37.0004
   4023212.36347   2952475.44946  24121031.0784                   24121030.6334
        42.0004         37.2504
 -27808926.53548 -21645357.08248  20184423.5084                   20184418.7734
        48.5004         49.5004
 -21664475.03148 -16846614.11746  21169425.7194                   21169422.3094
        48.0004         37.0004
 25  7  2  1 17 30.0000000  0 10G10G02G16G03G28G04G26G32G31G01
  15761338.14846  12220265.59045  24928279.9924                   24928283.0704
        38.7504         31.0004
 -17692834.41447 -13750097.82045  22412963.9694                   22412959.7234
        44.5004         34.0004
     76165.39545    105952.25042  24947920.1484                   24947924.8914
        32.0004         16.2504
 -19989247.33647 -15557249.34447  21089507.3594                   21089505.7344
        46.7504         47.7504
 -19902815.45747 -15484061.45345  21899221.5164                   21899218.3324
        44.7504         35.5004
 -11852675.66447  -9216798.78144  22799315.6644                   22799314.4144
        42.0004         28.5004
 -11990144.83246  -9323382.77746  22839885.4144                   22839886.2074
        41.0004         37.5004
   4086111.01247   3001487.32446  24133000.1644                   24133000.0554
        42.2504         37.0004
 -27797530.59448 -21636477.12948  20186592.5554                   20186587.5044
        48.2504         49.5004
 -21649600.25848 -16835023.39846  21172256.4304                   21172253.2974
        48.0004         37.0004
 25  7  2  1 18  0.0000000  0 10G10G02G16G03G28G04G26G32G31G01
  15849003.96946  12288576.40245  24944962.4064                   24944965.7664
        39.0004         31.2504
 -17630209.52347 -13701299.26645  22424881.2504                   22424876.5594
        45.5004         33.5004
    -29232.50455     23824.45752  24927864.3284                   24927868.4144
        30.7504         15.5004
 -20063429.58247 -15615053.65247  21075391.1094                   21075389.3054
        47.5004         47.7504
 -19837174.70747 -15432912.84445  21911712.7034                   21911709.2584
        46.2504         35.5004
 -11921080.69546  -9270101.30944  22786298.3674                   22786297.7584
        41.7504         29.0004
 -12075505.83246  -9389897.73446  22823641.5004                   22823642.4694
        41.7504         37.5004
   4149036.81647   3050520.35946  24144974.4844                   24144974.5554
        42.2504         36.5004
 -27785524.12147 -21627121.43048  20188877.5704                   20188872.3674
        47.7504         49.5004
 -21634136.99247 -16822974.11346  21175199.1174                   21175196.0944
        47.5004         37.0004
 25  7  2  1 18 30.0000000  0 10G10G02G16G03G28G04G26G32G31G01
  15936864.05146  12357038.54745  24961681.9304                   24961685.5164
        40.0004         31.0004
 -17567261.73047 -13652249.10945  22436859.8134                   22436855.2234
        44.2504         34.0004
   -134757.73845    -58402.63742  24907782.5394                   24907786.7814
        32.0004         16.2504
 -20137336.21147 -15672643.19947  21061327.0314                   21061325.3484
        47.2504         47.5004
 -19771166.77347 -15381478.10545  21924273.6954                   21924269.8834
        44.5004         35.7504
 -11989340.55147  -9323290.71144  22773309.1644                   22773307.8834
        43.0004         29.5004
 -12160584.81647  -9456192.95346  22807451.5704                   22807452.1374
        42.2504         38.2504
   4211987.44946   3099572.73446  24156953.5164                   24156953.6454
        41.0004         36.5004
 -27772910.95748 -21617292.98448  20191277.2664                   20191272.2544
        48.0004         49.5004
 -21618088.56247 -16810468.86746  21178253.2664                   21178249.3324
        47.7504         37.0004
 25  7  2  1 19  0.0000000  0 10G10G02G16G03G28G04G26G32G31G01
  16024919.16846  12425652.67245  24978437.9144                   24978441.6134
        40.5004         30.5004
 -17503991.80947 -13602947.93045  22448899.5234                   22448895.4414
        44.5004         34.2504
   -240405.29745   -140724.91042  24887677.6484                   24887682.7974
        32.5004         15.5004
 -20210963.15247 -15730014.81248  21047316.2584                   21047314.6914
        47.5004         48.0004
 -19704792.23847 -15329757.71145  21936904.4304                   21936900.7424
        45.7504         35.0004
 -12057453.57447  -9376365.71944  22760347.4694                   22760346.0784
        43.5004         29.5004
 -12245376.74247  -9522264.49646  22791316.7734                   22791316.7504
        42.2504         37.7504
   4274964.69146   3148645.85946  24168938.0164                   24168937.9654
        41.0004         36.0004
 -27759690.89147 -21606991.62948  20193793.0704                   20193787.9264
        46.5004         49.5004
 -21601454.22347 -16797507.05946  21181418.0084                   21181414.8874
        46.0004         36.7504
 25  7  2  1 19 30.0000000  0 10G10G02G16G03G28G04G26G32G31G01
  16113159.11746  12494410.85545  24995229.7034                   24995233.2854
        40.2504         30.0004
 -17440411.14847 -13553404.63345  22460999.1724                   22460994.4614
        44.5004         34.5004
   -346181.53545   -223147.57442  24867548.7424                   24867553.1454
        33.5004         16.7504
 -20284317.14147 -15787173.73048  21033357.5864                   21033355.9804
        47.5004         48.0004
 -19638062.65647 -15277760.65645  21949602.2734                   21949599.2584
        44.7504         35.0004
 -12125429.03947  -9429333.53544  22747412.3674                   22747411.0634
        43.5004         29.2504
 -12329887.41046  -9588116.87946  22775234.2194                   22775235.0044
        41.7504         37.5004
   4337959.52046   3197732.69145  24180925.5944                   24180925.4654
        41.0004         35.5004
 -27745873.86348 -21596225.10548  20196422.1094                   20196417.4024
        48.0004         49.5004
 -21584243.99647 -16784096.51246  21184693.4454                   21184689.8834
        47.7504         36.7504
 25  7  2  1 20  0.0000000  0 10G10G02G16G03G28G04G26G32G31G01
  16201581.18846  12563310.91044  25012056.4224                   25012060.4774
        40.7504         28.5004
 -17376523.95747 -13503622.47345  22473156.4774                   22473151.6764
        45.2504         34.0004
   -452085.75045   -305669.97743  24847395.3524                   24847399.4494
        34.2504         18.2504
 -20357397.54347 -15844119.46548  21019450.7814                   21019449.0084
        47.5004         48.2504
 -19570982.14147 -15225490.15245  21962367.6174                   21962363.9384
        46.5004         35.2504
 -12193268.64847  -9482195.50045  22734502.7114                   22734500.8954
        44.0004         30.0004
 -12414115.16847  -9653748.81646  22759205.6174                   22759206.7814
        42.2504         38.0004
   4400970.26646   3246831.92245  24192916.4144                   24192915.9304
        39.5004         34.5004
 -27731463.00848 -21584995.86348  20199164.7034                   20199159.4804
        48.0004         49.5004
 -21566460.60947 -16770239.34846  21188077.6644                   21188074.2774
        47.2504         36.7504
 25  7  2  1 20 30.0000000  0 10G10G02G16G03G28G04G26G32G31G01
  16290184.36746  12632352.18844  25028917.4844                   25028920.6214
        39.7504         25.5004
 -17312332.61347 -13453603.30945  22485371.3054                   22485366.9884
        45.2504         34.0004
   -558114.35545   -388289.28142  24827219.0004                   24827223.0824
        34.5004         16.2504
 -20430201.96947 -15900850.15248  21005596.5704                   21005594.7074
        46.7504         48.0004
 -19503553.02347 -15172948.00846  21975198.4534                   21975195.0824
        46.0004         36.0004
 -12260972.41047  -9534951.60244  22721618.7034                   22721617.6724
        43.2504         29.0004
 -12498056.63747  -9719157.67246  22743232.3204                   22743232.8444
        42.5004         37.5004
   4463997.13346   3295943.71145  24204909.4924                   24204909.7154
        39.5004         34.0004
 -27716459.28947 -21573304.65648  20202019.6644                   20202015.1054
        47.5004         49.5004
 -21548105.05947 -16755936.33646  21191570.3914                   21191566.9964
        46.5004         37.0004
 25  7  2  1 21  0.0000000  0 10G10G02G16G03G28G04G26G32G31G01
  16378964.31346  12701531.15644  25045811.7034                   25045815.0554
        39.5004         25.0004
 -17247842.85547 -13403351.62945  22497643.4454                   22497639.0004
        46.0004         33.5004
   -664267.80145   -471005.85942  24807018.6644                   24807021.8914
        34.5004         14.7504
 -20502731.31647 -15957366.50048  20991794.4064                   20991792.9924
        46.5004         48.2504
 -19435780.98047 -15120138.64845  21988095.2274                   21988091.8444
        46.5004         35.2504
 -12328543.63747  -9587604.43044  22708760.6884                   22708759.2504
        43.5004         29.2504
 -12581711.77747  -9784343.41446  22727313.6094                   22727314.0434
        42.5004         37.5004
   4527036.90646   3345065.54345  24216905.9694                   24216905.8094
        38.7504         33.2504
 -27700867.48447 -21561155.19148  20204986.6564                   20204981.8754
        47.0004         49.7504
 -21529181.62947 -16741190.82846  21195171.7424                   21195168.2734
        46.2504         37.2504
 25  7  2  1 21 30.0000000  0 10G10G02G16G03G28G04G26G32G31G01
  16467926.06646  12770851.80943  25062740.6564                   25062743.7854
        38.7504         23.2504
 -17183050.66847 -13352864.28945  22509973.1414                   22509968.2424
        46.5004         33.0004
   -770536.94545   -553812.55942  24786795.9224                   24786799.5004
        34.5004         14.7504
 -20574976.94947 -16013661.76248  20978046.3134                   20978045.0124
        47.0004         48.2504
 -19367662.20347 -15067059.10945  22001058.2504                   22001054.3324
        46.2504         35.2504
 -12395976.16447  -9640149.18445  22695928.5004                   22695926.9454
        43.7504         30.0004
 -12665071.00047  -9849298.55946  22711450.6954                   22711451.0084
        42.2504         37.2504
   4590095.89846   3394202.34845  24228905.4844                   24228905.6214
        39.5004         33.0004
 -27684682.71948 -21548543.68748  20208067.0164                   20208061.7464
        48.0004         49.5004
 -21509685.10547 -16725998.74646  21198881.6724                   21198877.9884
        47.0004         37.0004
 25  7  2  1 22  0.0000000  0 10G10G02G16G03G28G04G26G32G31G01
  16557065.92646  12840311.19943  25079702.9614                   25079707.1564
        38.5004         22.0004
 -17117961.62947 -13302145.62945  22522359.1884                   22522355.1684
        46.7504         33.7504
   -876922.10545   -636709.68442  24766550.5164                   24766555.4534
        35.0004         15.5004
 -20646939.39147 -16069736.36748  20964352.9694                   20964351.0744
        46.7504         48.2504
 -19299201.89847 -15013713.44145  22014085.8524                   22014082.1604
        46.5004         34.7504
 -12463272.91847  -9692588.14545  22683122.0784                   22683120.9344
        43.0004         30.0004
 -12748133.83247  -9914022.75846  22695644.1724                   22695644.4264
        42.2504         37.2504
   4653171.35546   3443351.98845  24240908.3594                   24240908.3674
        39.5004         33.0004
 -27667909.07047 -21535473.31248  20211258.5474                   20211253.6994
        46.7504         49.5004
 -21489619.46547 -16710363.21546  21202699.9844                   21202696.5514
        45.7504         37.0004
 25  7  2  1 22 30.0000000  0 10G10G02G16G03G28G04G26G32G31G01
  16646383.08246  12909908.79343  25096699.9384                   25096703.6914
        38.0004         22.2504
 -17052577.50047 -13251197.03145  22534801.8284                   22534797.1174
        44.7504         33.7504
   -983420.10546   -719694.72742  24746284.0634                   24746289.1644
        36.2504         16.7504
 -20718615.82847 -16125588.10248  20950712.9064                   20950711.7854
        47.0004         48.5004
 -19230402.10547 -14960103.23845  22027177.8834                   22027174.0634
        46.0004         35.2504
 -12530433.52747  -9744921.02344  22670341.9144                   22670340.2424
        43.0004         29.5004
 -12830896.58647  -9978513.13346  22679894.9144                   22679895.6994
        42.5004         37.7504
   4716263.77346   3492514.85545  24252914.7114                   24252914.3444
        39.0004         32.0004
 -27650547.57847 -21521944.87548  20214562.3834                   20214557.6564
        47.0004         49.5004
 -21468985.41447 -16694284.75446  21206626.7194                   21206623.2734
        45.5004         37.2504
 25  7  2  1 23  0.0000000  0 10G10G02G16G03G28G04G26G32G31G01
  16735880.93046  12979647.12944  25113731.3834                   25113734.6054
        37.0004         24.7504
 -16986896.32047 -13200016.96145  22547300.7424                   22547295.6724
        45.5004         34.0004
  -1090023.32046   -802761.83242  24725998.1804                   24726002.0274
        37.0004         16.2504
 -20789999.44147 -16181211.66048  20937129.0314                   20937127.3284
        47.5004         48.5004
 -19161260.72747 -14906226.85545  22040335.2194                   22040331.8634
        47.0004         35.2504
 -12597453.60247  -9797144.39144  22657588.4534                   22657586.9844
        43.7504         29.0004
 -12913351.41046 -10042763.56246  22664204.6804                   22664204.8324
        41.7504         38.7504
   4779377.82046   3541694.57045  24264924.8284                   24264924.5204
        38.5004         30.7504
 -27632595.25847 -21507956.05148  20217978.4924                   20217973.8244
        47.5004         49.5004
 -21447779.62947 -16677760.78946  21210661.4384                   21210658.5314
        45.7504         37.0004
 25  7  2  1 23 30.0000000  0  9G02G16G03G28G04G26G32G31G01
 -16920924.75447 -13148610.62545  22559854.3444                   22559850.0234
        46.2504         33.5004
  -1196732.78146   -885911.71942  24705692.1644                   24705695.2274
        37.7504         17.2504
 -20861091.94147 -16236608.38748  20923600.4774                   20923599.4654
        47.7504         48.5004
 -19091784.27747 -14852089.39145  22053556.1804                   22053552.1764
        45.7504         35.5004
 -12664337.23847  -9849261.44944  22644861.2814                   22644859.5784
        42.2504         29.2504
 -12995499.13347 -10106774.69546  22648572.0634                   22648572.4144
        42.5004         38.2504
   4842509.45746   3590887.99645  24276938.6954                   24276937.9844
        40.7504         30.7504
 -27614057.35248 -21493510.92248  20221506.7344                   20221501.7304
        48.0004         49.2504
 -21426007.30947 -16660795.36746  21214804.7584                   21214802.1844
        46.2504         37.0004
 25  7  2  1 24  0.0000000  0  9G02G16G03G28G04G26G32G31G01
 -16854663.07047 -13096978.21945  22572463.4304                   22572459.2624
        44.2504         33.2504
  -1303543.63746   -969140.54342  24685366.9304                   24685369.2274
        37.7504         17.7504
 -20931888.70347 -16291774.66848  20910128.4454                   20910126.8874
        47.5004         48.5004
 -19021973.00047 -14797691.02045  22066840.4694                   22066836.9264
        45.0004         35.5004
 -12731082.34847  -9901270.56244  22632160.0634                   22632157.7504
        42.7504         29.0004
 -13077334.24647 -10170542.23846  22632999.0394                   22632999.5204
        42.0004         38.0004
   4905660.99246   3640096.95745  24288956.0084                   24288955.3404
        41.5004         30.5004
 -27594933.26647 -21478609.04748  20225145.4694                   20225140.6524
        47.7504         49.5004
 -21403667.46547 -16643387.72346  21219056.1804                   21219052.9924
        46.5004         36.7504
 25  7  2  1 24 30.0000000  0  9G02G16G03G28G04G26G32G31G01
 -16788101.28547 -13045111.96945  22585129.8444                   22585125.6804
        45.7504         33.0004
  -1410440.48046  -1052436.43742  24665024.4774                   24665026.8164
        37.2504         16.7504
 -21002375.26647 -16346699.23048  20896715.4064                   20896713.4384
        47.5004         48.5004
 -18951817.10247 -14743024.10545  22080190.7274                   22080187.1804
        46.0004         35.0004
 -12797676.78947  -9953162.28145  22619487.2894                   22619485.3244
        43.5004         30.0004
 -13158841.25047 -10234054.11746  22617489.0784                   22617488.5904
        43.0004         37.5004
   4968844.76646   3689331.01645  24300979.5004                   24300979.1994
        41.0004         32.0004
 -27575212.05947 -21463241.87148  20228898.2814                   20228893.4104
        47.0004         49.5004
 -21380749.12547 -16625529.29746  21223417.3594                   21223414.0784
        45.7504         36.7504
 25  7  2  1 25  0.0000000  0  9G02G16G03G28G04G26G32G31G01
 -16721232.55147 -12993006.53945  22597855.1024                   22597850.6604
        45.7504         32.7504
  -1517410.99646  -1135789.69942  24644668.6334                   24644670.6564
        37.0004         16.7504
 -21072539.46947 -16401372.60248  20883363.5944                   20883361.4614
        47.7504         48.5004
 -18881309.26647 -14688082.95745  22093608.0314                   22093604.7544
        46.2504         34.5004
 -12864110.90247 -10004929.05544  22606845.2344                   22606843.3484
        42.5004         29.0004
 -13240007.15647 -10297300.20746  22602043.7034                   22602043.5784
        42.2504         37.5004
   5032070.67247   3738597.92245  24313010.8914                   24313010.7074
        42.0004         33.0004
 -27554885.34047 -21447402.86748  20232766.3444                   20232761.4614
        46.7504         49.5004
 -21357243.78947 -16607213.48046  21227890.3914                   21227887.5004
        46.5004         36.7504
 25  7  2  1 25 30.0000000  0  9G02G16G03G28G04G26G32G31G01
 -16654061.78147 -12940665.75845  22610637.1804                   22610632.4184
        45.0004         32.7504
  -1624454.57846  -1219199.93742  24624298.7034                   24624301.3094
        36.5004         17.2504
 -21142381.53547 -16455794.95348  20870072.8834                   20870071.3524
        47.5004         48.5004
 -18810454.55147 -14632871.51245  22107091.4844                   22107087.6994
        45.5004         34.7504
 -12930387.32447 -10056572.94944  22594232.8444                   22594231.0434
        42.0004         28.5004
 -13320831.28946 -10360279.97746  22586663.3524                   22586663.3794
        41.7504         37.5004
   5095336.12547   3787895.62945  24325049.6484                   24325050.1484
        42.0004         32.7504
 -27533957.75847 -21431095.65248  20236748.9304                   20236743.9304
        46.5004         49.2504
 -21333155.35247 -16588443.28946  21232474.0314                   21232470.9654
        46.0004         36.5004
 25  7  2  1 26  0.0000000  0  9G02G16G03G28G04G26G32G31G01
 -16586596.90247 -12888095.79745  22623475.2894                   22623470.3674
        45.0004         32.2504
  -1731573.97346  -1302669.19542  24603913.8984                   24603916.9024
        36.5004         15.5004
 -21211904.36347 -16509968.55548  20856842.9844                   20856841.5434
        46.5004         48.5004
 -18739260.62947 -14577395.75045  22120639.2344                   22120635.5744
        46.5004         33.7504
 -12996511.44147 -10108098.16844  22581649.9454                   22581648.0704
        42.5004         29.2504
 -13401315.62947 -10422994.96546  22571347.2424                   22571347.4384
        42.2504         37.0004
   5158636.02346   3837220.14845  24337095.1644                   24337095.4064
        41.0004         32.7504
 -27512435.90647 -21414325.38748  20240844.2734                   20240839.5634
        46.5004         49.2504
 -21308490.39847 -16569223.87546  21237167.6024                   21237164.5984
        45.5004         36.2504
 25  7  2  1 26 30.0000000  0  9G02G16G03G28G04G26G32G31G01
 -16518848.59047 -12835304.98845  22636367.7034                   22636362.9694
        45.5004         32.2504
  -1838774.06646  -1386201.34842  24583513.9844                   24583516.7974
        37.2504         17.2504
 -21281113.81647 -16563897.97348  20843673.0864                   20843671.0944
        46.5004         48.7504
 -18667738.17247 -14521663.98845  22134249.6334                   22134245.4654
        46.5004         34.0004
 -13062491.52347 -10159511.14544  22569094.4924                   22569092.4454
        42.5004         28.5004
 -13481465.14146 -10485449.05946  22556095.1254                   22556095.4184
        41.0004         37.2504
   5221962.30547   3886565.24245  24349146.0944                   24349146.0314
        42.0004         34.0004
 -27490329.46547 -21397099.58648  20245051.0164                   20245045.9064
        47.0004         49.5004
 -21283258.41047 -16549562.60246  21241969.1884                   21241966.0904
        46.5004         36.5004
 25  7  2  1 27  0.0000000  0  9G02G16G03G28G04G26G32G31G01
 -16450822.40647 -12782297.64145  22649312.2894                   22649307.8364
        45.0004         32.5004
  -1946055.25046  -1469796.73042  24563099.1174                   24563100.8634
        37.2504         15.5004
 -21350010.84847 -16617583.93748  20830562.6484                   20830560.5634
        46.7504         49.2504
 -18595892.89547 -14465680.66845  22147920.9534                   22147917.1134
        46.2504         34.5004
 -13128330.93747 -10210814.52744  22556565.3984                   22556563.7584
        42.2504         29.0004
 -13561279.89846 -10547642.29746  22540907.0234                   22540907.4454
        41.5004         36.7504
   5285311.77347   3935928.41445  24361201.7894                   24361201.0234
        42.5004         33.7504
 -27467643.41047 -21379422.13748  20249367.9774                   20249362.9264
        47.5004         49.5004
 -21257464.05147 -16529463.13746  21246877.7894                   21246874.4694
        45.5004         36.5004
 25  7  2  1 27 30.0000000  0  9G02G16G03G28G04G26G32G31G01
 -16382521.87947 -12729076.54745  22662309.3364                   22662305.1724
        44.7504         32.7504
  -2053415.29346  -1553453.53142  24542668.1804                   24542671.1254
        37.5004         17.7504
 -21418593.93447 -16671025.27348  20817511.1804                   20817509.3524
        47.0004         49.2504
 -18523728.12947 -14409448.40245  22161653.5234                   22161649.8054
        45.7504         34.0004
 -13194030.65247 -10262009.03944  22544062.9224                   22544061.6604
        43.0004         29.0004
 -13640757.52346 -10609572.83246  22525782.6484                   22525782.8914
        41.5004         37.5004
   5348683.69547   3985309.09045  24373260.5164                   24373260.8164
        42.5004         33.5004
 -27444380.01247 -21361294.81648  20253794.6094                   20253789.7154
        47.7504         49.2504
 -21231109.62947 -16508927.24246  21251892.8524                   21251890.1094
        46.5004         36.5004
 25  7  2  1 28  0.0000000  0  9G02G16G03G28G04G26G32G31G01
 -16313947.91047 -12675642.36745  22675359.1884                   22675354.1684
        45.7504         32.5004
  -2160849.49246  -1637168.15242  24522223.2974                   24522226.0314
        36.5004         16.7504
 -21486858.98447 -16724218.78548  20804521.1414                   20804519.3914
        47.2504         49.0004
 -18451244.57847 -14352967.72745  22175447.1024                   22175443.0164
        46.2504         34.7504
 -13259589.00447 -10313093.41044  22531587.6804                   22531585.8754
        43.0004         29.0004
 -13719893.03546 -10671236.79346  22510724.0554                   22510724.4414
        41.7504         38.2504
   5412079.93447   4034708.70745  24385324.7974                   24385324.5274
        43.2504         35.0004
 -27420539.28147 -21342717.62148  20258331.4224                   20258326.6764
        46.5004         49.2504
 -21204194.68047 -16487954.58646  21257014.6414                   21257011.6454
        46.5004         36.7504
 25  7  2  1 28 30.0000000  0  9G02G16G03G28G04G26G32G31G01
 -16245105.77347 -12621999.22745  22688459.1024                   22688454.4844
        45.0004         31.7504
  -2268357.77046  -1720940.47342  24501766.3054                   24501767.9184
        36.5004         16.7504
 -21554806.26647 -16777164.68748  20791590.8364                   20791589.2384
        47.5004         49.0004
 -18378447.33247 -14296242.62545  22189299.4304                   22189295.8244
        45.2504         34.0004
 -13325008.68747 -10364069.71544  22519138.9694                   22519137.0824
        43.2504         29.5004
 -13798685.81247 -10732633.68746  22495729.8204                   22495729.9304
        42.2504         38.2504
   5475497.99247   4084125.34846  24397392.8914                   24397392.7114
        43.5004         36.2504
 -27396125.56647 -21323693.94948  20262977.3204                   20262972.4844
        47.0004         49.2504
 -21176723.34847 -16466548.37146  21262242.6174                   21262239.4024
        46.7504         37.0004
 25  7  2  1 29  0.0000000  0  9G02G16G03G28G04G26G32G31G01
 -16175996.63347 -12568148.03145  22701610.2504                   22701605.9344
        45.2504         31.0004
  -2375935.54745  -1804766.92242  24481293.8524                   24481296.5084
        35.5004         16.2504
 -21622432.03147 -16829860.05948  20778722.0944                   20778720.0554
        46.7504         49.0004
 -18305337.45747 -14239273.91845  22203211.5784                   22203208.3284
        45.5004         34.0004
 -13390288.45747 -10414937.00844  22506715.9534                   22506714.3404
        42.2504         29.5004
 -13877131.32847 -10793759.99246  22480802.3914                   22480802.3524
        43.0004         38.5004
   5538939.35247   4133560.12945  24409465.4844                   24409465.3164
        43.0004         35.7504
 -27371138.91047 -21304223.82448  20267732.1024                   20267727.2854
        46.7504         49.2504
 -21148695.72347 -16444708.69146  21267575.6024                   21267572.5944
        46.7504         36.2504
 25  7  2  1 29 30.0000000  0  9G02G16G03G28G04G26G32G31G01
 -16106620.35247 -12514088.67245  22714812.1414                   22714807.9064
        45.0004         31.7504
  -2483577.69945  -1888643.57042  24460810.0784                   24460811.9844
        35.5004         17.7504
 -21689731.61747 -16882301.26648  20765915.5784                   20765913.7934
        47.5004         49.2504
 -18231915.05547 -14182061.66045  22217184.0784                   22217180.2424
        45.5004         34.2504
 -13455426.06647 -10465693.51644  22494321.2974                   22494319.5704
        42.5004         29.2504
 -13955224.00847 -10854611.36346  22465941.8284                   22465941.6764
        43.7504         39.0004
   5602406.55947   4183015.04345  24421542.3754                   24421542.9534
        42.2504         35.0004
 -27345578.70347 -21284306.78548  20272596.2664                   20272591.1454
        46.5004         49.0004
 -21120110.90647 -16422434.83646  21273015.6804                   21273011.8754
        47.2504         36.7504
 25  7  2  1 30  0.0000000  0  9G02G16G03G28G04G26G32G31G01
 -16036982.48047 -12459825.47745  22728063.6254                   22728059.7114
        44.0004         30.7504
  -2591283.62546  -1972569.91843  24440314.5394                   24440315.9224
        36.2504         18.2504
 -21756705.32047 -16934488.53148  20753170.5944                   20753169.2854
        47.5004         49.2504
 -18158185.26247 -14124609.89845  22231213.9844                   22231210.0704
        45.5004         33.7504
 -13520424.24647 -10516341.38345  22481951.9534                   22481950.3324
        43.2504         30.2504
 -14032963.35247 -10915187.40246  22451148.1174                   22451148.5664
        43.5004         38.7504
   5665896.98447   4232488.05145  24433624.1414                   24433624.6884
        42.0004         35.0004
 -27319449.65247 -21263946.49248  20277568.0864                   20277563.4534
        47.0004         49.2504
 -21090973.05947 -16399730.04746  21278560.0944                   21278556.9304
        46.5004         36.5004
 25  7  2  1 30 30.0000000  0  9G02G16G03G28G04G26G32G31G01
 -15967087.84847 -12405362.21545  22741364.3754                   22741360.3674
        44.5004         30.7504
  -2699052.69945  -2056545.48443  24419805.9454                   24419807.7734
        35.2504         18.2504
 -21823353.11748 -16986421.85248  20740488.0944                   20740486.2894
        48.0004         49.2504
 -18084152.83247 -14066922.31645  22245301.9304                   22245298.4844
        45.2504         34.5004
 -13585285.40647 -10566882.46945  22469609.4144                   22469607.7854
        43.0004         30.2504
 -14110348.47347 -10975487.43446  22436422.7894                   22436422.6804
        42.7504         39.2504
   5729408.52046   4281977.51645  24445709.8674                   24445710.6294
        41.0004         35.0004
 -27292755.53947 -21243145.87948  20282648.1564                   20282643.4414
        47.5004         49.2504
 -21061286.05547 -16376597.35546  21284209.2584                   21284206.2074
        47.7504         36.5004
 25  7  2  1 31  0.0000000  0  9G02G16G03G28G04G26G32G31G01
 -15896941.93747 -12350703.14845  22754712.5234                   22754708.5664
        44.7504         31.5004
  -2806884.60945  -2140569.99242  24399285.7814                   24399287.6644
        34.7504         17.2504
 -21889675.28148 -17038101.43448  20727867.6564                   20727865.8874
        48.0004         49.2504
 -18009822.92647 -14009002.93745  22259446.4844                   22259442.9224
        45.2504         33.5004
 -13650012.29347 -10617318.93744  22457292.5004                   22457290.6604
        43.5004         29.0004
 -14187378.88347 -11035511.05946  22421763.9844                   22421763.8134
        43.7504         38.7504
   5792938.60246   4331481.42645  24457799.5314                   24457799.8554
        40.7504         33.7504
 -27265500.85947 -21221908.47348  20287834.0234                   20287829.1764
        47.7504         49.0004
 -21031053.98447 -16353039.93046  21289962.5314                   21289959.5204
        47.0004         36.5004
 25  7  2  1 31 30.0000000  0  9G02G16G03G28G04G26G32G31G01
 -15826548.24247 -12295851.01245  22768108.1564                   22768103.8284
        44.2504         31.5004
  -2914777.38345  -2224641.94542  24378755.1644                   24378756.2624
        35.2504         16.2504
 -21955670.64548 -17089526.37148  20715309.1564                   20715307.2304
        48.5004         49.5004
 -17935199.06247 -13950854.49245  22273646.8054                   22273643.7304
        45.5004         33.7504
 -13714606.12947 -10667651.74245  22445000.8754                   22444998.7624
        43.5004         30.0004
 -14264052.51647 -11095256.68446  22407173.5554                   22407173.6804
        43.5004         40.0004
   5856486.29346   4380999.03945  24469892.1644                   24469892.2624
        40.5004         34.7504
 -27237688.41448 -21200236.44948  20293127.1414                   20293121.9804
        48.0004         49.0004
 -21000279.77747 -16329060.06246  21295818.6254                   21295815.3134
        47.5004         36.7504
 25  7  2  1 32  0.0000000  0  9G02G16G03G28G04G26G32G31G01
 -15755907.86347 -12240806.65645  22781550.8524                   22781546.4654
        45.0004         32.0004
  -3022726.39845  -2308757.75443  24358212.1094                   24358213.8634
        35.0004         19.0004
 -22021335.23448 -17140693.55548  20702813.1254                   20702811.3204
        48.0004         49.5004
 -17860282.18447 -13892477.73045  22287903.0944                   22287899.9304
        45.7504         34.0004
 -13779065.44947 -10717879.71945  22432734.2504                   22432732.1484
        42.5004         30.2504
 -14340364.62547 -11154720.59446  22392651.5314                   22392652.0554
        43.0004         39.5004
   5920053.25046   4430531.69145  24481989.6334                   24481989.3484
        41.2504         34.7504
 -27209318.16047 -21178129.76248  20298525.8674                   20298520.8754
        47.2504         49.0004
 -20968963.30547 -16304657.64546  21301778.1484                   21301774.9454
        46.5004         36.5004
 25  7  2  1 32 30.0000000  0  9G02G16G03G28G04G26G32G31G01
 -15685021.91047 -12185570.94145  22795040.1414                   22795035.9264
        44.5004         31.5004
  -3130726.80545  -2392913.57843  24337659.9774                   24337661.2384
        35.0004         18.5004
 -22086664.98848 -17191599.83248  20690381.4614                   20690379.7504
        48.2504         49.5004
 -17785073.02347 -13833873.21145  22302215.3674                   22302211.4774
        46.0004         34.5004
 -13843388.66447 -10768001.63745  22420494.0634                   22420491.7584
        43.7504         30.0004
 -14416310.36747 -11213899.03946  22378200.0314                   22378199.6644
        43.7504         40.5004
   5983641.34446   4480080.80545  24494089.2894                   24494089.5514
        39.7504         33.2504
 -27180390.69947 -21155588.89848  20304030.4384                   20304025.5784
        46.5004         49.0004
 -20937104.50047 -16279832.64146  21307840.2344                   21307837.2274
        45.2504         36.2504
 25  7  2  1 33  0.0000000  0  9G02G16G03G28G04G26G32G31G01
 -15613894.93447 -12130147.42645  22808575.1564                   22808570.8594
        45.0004         32.2504
  -3238778.17246  -2477109.13743  24317098.3364                   24317099.6054
        36.7504         19.5004
 -22151659.71548 -17242245.05148  20678013.4384                   20678011.9734
        48.5004         50.0004
 -17709576.10547 -13775044.46545  22316581.7274                   22316577.9344
        45.7504         33.5004
 -13907577.86747 -10818019.13745  22408279.3834                   22408277.6134
        43.5004         30.0004
 -14491888.67247 -11272791.15646  22363817.3674                   22363817.6214
        43.5004         40.0004
   6047248.66846   4529644.90245  24506193.1094                   24506193.6054
        40.0004         33.2504
 -27150909.87948 -21132616.83248  20309640.5394                   20309635.4614
        48.5004         49.0004
 -20904707.09847 -16254587.94946  21314005.3834                   21314002.0904
        47.7504         36.5004
 25  7  2  1 33 30.0000000  0  9G02G16G03G28G04G26G32G31G01
 -15542531.79747 -12074539.88745  22822154.7504                   22822150.6684
        44.7504         31.0004
  -3346879.40246  -2561343.53543  24296526.9304                   24296528.2854
        36.5004         20.2504
 -22216319.52047 -17292629.29348  20665708.9844                   20665707.1884
        47.7504         50.0004
 -17633796.44547 -13715995.40645  22331002.0234                   22330998.6844
        45.5004         34.0004
 -13971635.74247 -10867934.29745  22396089.5394                   22396087.5234
        43.2504         30.7504
 -14567099.00447 -11331396.55146  22349504.9774                   22349505.6334
        44.7504         40.2504
   6110872.91446   4579222.15645  24518301.0784                   24518301.1254
        39.7504         33.2504
 -27120879.72747 -21109216.71948  20315355.2194                   20315350.0234
        46.7504         49.0004
 -20871775.27047 -16228926.82046  21320272.0234                   21320268.9694
        45.2504         36.0004
 25  7  2  1 34  0.0000000  0  9G02G16G03G28G04G26G32G31G01
 -15470930.42647 -12018746.71145  22835780.4614                   22835776.5204
        45.0004         32.0004
  -3455022.76646  -2645610.79743  24275948.6484                   24275948.7624
        37.7504         20.7504
 -22280637.17648 -17342746.93048  20653470.1644                   20653467.7774
        48.2504         50.0004
 -17557731.59847 -13656724.12145  22345477.1024                   22345473.1134
        46.2504         34.0004
 -14035557.41447 -10917743.30945  22383925.3524                   22383923.6174
        44.0004         30.7504
 -14641933.28547 -11389708.92646  22335264.9224                   22335264.9884
        44.2504         40.5004
   6174519.01646   4628816.47745  24530412.8134                   24530412.4144
        39.5004         33.0004
 -27090297.46948 -21085386.40648  20321174.9144                   20321169.6994
        48.7504         49.0004
 -20838305.83647 -16202846.78546  21326640.9454                   21326638.0634
        47.7504         36.0004
 25  7  2  1 34 30.0000000  0  9G02G16G03G28G04G26G32G31G01
 -15399098.49647 -11962773.87945  22849449.4844                   22849446.1334
        45.0004         32.2504
  -3563209.99246  -2729912.21943  24255360.7814                   24255360.8954
        38.2504         20.7504
 -22344615.41048 -17392600.07448  20641295.3204                   20641293.4304
        48.0004         50.0004
 -17481389.04347 -13597236.44545  22360004.2114                   22360000.6334
        46.5004         33.5004
 -14099348.08647 -10967450.24245  22371786.1564                   22371784.1174
        43.5004         30.2504
 -14716393.49247 -11447729.79346  22321095.2584                   22321095.8754
        43.5004         40.5004
   6238182.21146   4678424.08245  24542527.2344                   24542527.3914
        37.2504         31.0004
 -27059169.96947 -21061131.21948  20327098.0314                   20327093.2274
        47.7504         49.0004
 -20804305.56647 -16176353.10246  21333111.2114                   21333108.3634
        46.2504         36.0004
 25  7  2  1 35  0.0000000  0  9G02G16G03G28G04G26G32G31G01
 -15327036.05547 -11906621.43745  22863163.0474                   22863158.4924
        45.7504         30.5004
  -3671435.83246  -2814243.73843  24234765.3444                   24234766.6414
        39.5004         20.7504
 -22408249.23848 -17442184.86348  20629186.2194                   20629184.3674
        48.5004         50.2504
 -17404768.60947 -13537532.23845  22374584.5784                   22374581.3914
        45.5004         34.0004
 -14163005.21947 -11017053.14145  22359672.7114                   22359670.7734
        44.5004         30.5004
 -14790473.88347 -11505454.71146  22306998.7034                   22306998.3594
        44.7504         40.2504
   6301865.19546   4728047.12945  24554645.4144                   24554645.6524
        38.7504         31.2504
 -27027496.49247 -21036450.59448  20333125.1884                   20333120.6564
        47.7504         48.7504
 -20769773.52347 -16149445.05546  21339682.6334                   21339679.9224
        46.5004         36.0004
 25  7  2  1 35 30.0000000  0  9G02G16G03G28G04G26G32G31G01
 -15254743.49647 -11850289.67245  22876920.0554                   22876915.7814
        46.0004         32.0004
  -3779694.29346  -2898600.69543  24214165.0314                   24214164.9574
        39.7504         20.7504
 -22471534.07448 -17491497.69948  20617143.2194                   20617141.0704
        48.5004         50.2504
 -17327870.45747 -13477611.62945  22389217.9534                   22389214.2624
        45.7504         33.5004
 -14226526.58647 -11066550.24645  22347585.2734                   22347582.9184
        43.7504         32.0004
 -14864169.06247 -11562879.46946  22292974.6804                   22292974.5474
        44.5004         40.5004
   6365570.48046   4777687.56345  24566767.8914                   24566768.3874
        39.7504         31.2504
 -26995276.61748 -21011344.20748  20339256.2584                   20339251.6414
        48.0004         48.7504
 -20734709.17247 -16122122.22746  21346355.1174                   21346352.4454
        47.0004         36.5004
 25  7  2  1 36  0.0000000  0  9G02G16G03G28G04G26G32G31G01
 -15182216.58247 -11793775.28945  22890721.1724                   22890717.4024
        45.0004         31.2504
  -3887975.80946  -2982975.63343  24193559.0634                   24193559.4414
        40.7504         21.5004
 -22534460.65648 -17540531.38348  20605168.6884                   20605167.3554
        48.5004         50.2504
 -17250690.21547 -13417471.20345  22403904.7814                   22403901.6484
        45.7504         33.5004
 -14289905.40647 -11115936.27045  22335524.3284                   22335522.3094
        43.7504         30.2504
 -14937469.07847 -11619996.30946  22279026.3284                   22279026.3754
        44.5004         40.2504
   6429305.10246   4827350.85245  24578895.8984                   24578897.1024
        38.0004         30.2504
 -26962505.47347 -20985808.25448  20345492.5164                   20345487.6804
        47.7504         48.7504
 -20699107.46147 -16094380.67646  21353129.7974                   21353126.8484
        46.7504         36.5004
 25  7  2  1 36 30.0000000  0  9G02G16G03G28G04G26G32G31G01
 -15109459.38747 -11737081.48845  22904566.7894                   22904562.6724
        44.7504         31.7504
  -3996278.33646  -3067366.92643  24172950.0234                   24172950.0274
        41.2504         22.0004
 -22597028.10548 -17589285.22348  20593262.7424                   20593260.7624
        48.0004         50.2504
 -17173231.70347 -13357113.95345  22418645.0474                   22418641.1994
        45.7504         34.0004
 -14353143.23047 -11165212.42245  22323490.5554                   22323488.2304
        44.5004         30.2504
 -15010372.34447 -11676803.98446  22265152.6024                   22265153.0984
        44.5004         40.5004
   6493067.78446   4877036.02345  24591030.4304                   24591030.1804
        39.2504         31.2504
 -26929186.51648 -20959845.44148  20351832.8984                   20351828.1914
        48.7504         48.7504
 -20662971.60547 -16066222.90646  21360006.3834                   21360003.2464
        47.2504         36.0004
 25  7  2  1 37  0.0000000  0  9G02G16G03G28G04G26G32G31G01
 -15036479.07047 -11680213.80945  22918454.4224                   22918450.1844
        44.2504         30.0004
  -4104603.77046  -3151776.07443  24152335.9844                   24152336.2814
        40.5004         21.5004
 -22659238.84048 -17637761.10548  20581423.8134                   20581422.2304
        49.0004         50.2504
 -17095502.16847 -13296545.51245  22433436.5394                   22433432.6914
        45.2504         33.7504
 -14416244.89147 -11214382.48445  22311482.4924                   22311480.5474
        44.0004         30.7504
 -15082880.51247 -11733303.78946  22251354.3984                   22251354.3594
        44.7504         40.0004
   6556853.83746   4926739.38645  24603168.2814                   24603168.5904
        38.5004         31.5004
 -26895326.06648 -20933460.69148  20358276.2274                   20358271.6524
        48.7504         48.7504
 -20626308.12947 -16037654.00846  21366982.8444                   21366980.0514
        47.0004         36.0004
 25  7  2  1 37 30.0000000  0  9G02G16G03G28G04G26G32G31G01
 -14963286.67647 -11623180.88345  22932382.1334                   22932378.6094
        44.5004         31.5004
  -4212956.98046  -3236206.87543  24131716.7274                   24131716.8404
        39.5004         19.5004
 -22721098.46148 -17685963.39148  20569652.5634                   20569650.8794
        48.7504         50.2504
 -17017511.89847 -13235773.91845  22448277.3834                   22448274.0314
        45.5004         33.0004
 -14479218.37547 -11263452.66845  22299499.2664                   22299497.2504
        44.0004         31.7504
 -15154998.43447 -11789499.51246  22237631.6724                   22237631.5784
        44.5004         40.2504
   6620655.75046   4976455.10945  24615309.0944                   24615309.4924
        39.0004         31.2504
 -26860934.40248 -20906661.99648  20364821.0084                   20364815.9184
        48.7504         48.7504
 -20589126.83247 -16008681.61346  21374058.9064                   21374055.9264
        47.2504         36.0004
 25  7  2  1 38  0.0000000  0  9G02G16G03G28G04G26G32G31G01
 -14889881.33247 -11565982.02745  22946351.0634                   22946347.5004
        44.7504         31.2504
  -4321331.31246  -3320654.14543  24111093.3754                   24111093.7854
        38.7504         19.7504
 -22782601.35948 -17733887.71148  20557948.9144                   20557946.9884
        48.5004         50.2504
 -16939260.19147 -13174798.59045  22463167.8834                   22463164.5984
        46.0004         33.5004
 -14542060.52747 -11312420.50845  22287540.5234                   22287538.4024
        44.7504         32.0004
 -15226719.89147 -11845386.30146  22223983.3674                   22223982.9494
        44.5004         40.0004
   6684476.80546   5026185.76245  24627453.9224                   24627454.2894
        40.2504         30.5004
 -26826010.29348 -20879448.41448  20371466.9534                   20371461.6564
        48.2504         48.7504
 -20551426.31647 -15979304.62946  21381232.8364                   21381230.1374
        47.0004         36.2504
 25  7  2  1 38 30.0000000  0  9G02G16G03G28G04G26G32G31G01
 -14816262.41447 -11508616.74244  22960360.0784                   22960356.5864
        43.7504         29.2504
  -4429720.62546  -3405113.07443  24090467.8834                   24090467.4734
        39.0004         19.2504
 -22843742.04348 -17781529.78148  20546314.6724                   20546312.7194
        49.2504         50.2504
 -16860746.23447 -13113618.91045  22478109.0784                   22478105.3284
        45.7504         33.0004
 -14604768.24647 -11361283.60245  22275607.6094                   22275605.3054
        44.5004         31.5004
 -15298038.60247 -11900959.27046  22210411.3834                   22210411.5084
        44.5004         40.0004
   6748320.48446   5075934.05545  24639603.9064                   24639603.6524
        41.7504         31.5004
 -26790552.27748 -20851818.79348  20378214.2504                   20378209.2544
        49.2504         48.5004
 -20513205.30547 -15949522.06246  21388506.4534                   21388503.3364
        47.7504         36.5004
 25  7  2  1 39  0.0000000  0  9G02G16G03G28G04G26G32G31G01
 -14742435.54747 -11451089.41845  22974409.2194                   22974405.5664
        44.5004         30.5004
  -4538124.61746  -3489583.49643  24069838.5314                   24069838.8204
        38.7504         19.0004
 -22904521.12548 -17828890.09448  20534748.5474                   20534746.9144
        49.7504         50.2504
 -16781975.44547 -13052239.11345  22493098.9304                   22493095.0474
        45.2504         33.0004
 -14667344.53147 -11410044.28145  22263699.4454                   22263697.7584
        45.0004         31.5004
 -15368954.48447 -11956218.33246  22196916.8444                   22196916.6644
        44.2504         40.2504
   6812183.98046   5125697.79345  24651756.4454                   24651756.2464
        41.2504         32.5004
 -26754565.75848 -20823777.35248  20385062.1334                   20385057.4414
        48.5004         48.5004
 -20474468.56247 -15919337.63345  21395877.8204                   21395874.6644
        47.5004         35.5004
 25  7  2  1 39 30.0000000  0  9G02G16G03G28G04G26G32G31G01
 -14668399.49247 -11393399.09444  22988497.9694                   22988494.2464
        44.5004         28.7504
  -4646535.92646  -3574059.62143  24049208.2034                   24049208.6134
        37.2504         19.0004
 -22964932.03148 -17875963.51248  20523252.4454                   20523250.6884
        48.5004         50.5004
 -16702945.98047 -12990657.75045  22508137.2894                   22508133.5314
        45.0004         32.2504
 -14729785.24247 -11458699.32045  22251817.8364                   22251815.9454
        45.0004         32.0004
 -15439460.35247 -12011157.91046  22183499.9064                   22183499.9964
        45.0004         40.2504
   6876071.63746   5175480.36745  24663914.0704                   24663914.1054
        40.7504         32.5004
 -26718048.24648 -20795322.16048  20392011.2274                   20392006.3054
        48.5004         48.5004
 -20435213.83647 -15888749.57845  21403347.0234                   21403344.5354
        47.5004         35.5004
 25  7  2  1 40  0.0000000  0  9G02G16G03G28G04G26G32G31G01
 -14594157.90647 -11335548.61744  23002625.5164                   23002622.2274
        44.0004         29.7504
  -4754952.60246  -3658539.87542  24028576.6334                   24028577.3794
        37.0004         17.7504
 -23024973.75048 -17922749.25048  20511827.2504                   20511825.3914
        48.7504         50.5004
 -16623661.57847 -12928877.73045  22523224.6724                   22523221.1564
        45.2504         32.7504
 -14792091.72747 -11507249.77045  22239961.3914                   22239959.1724
        44.5004         31.7504
 -15509554.48447 -12065776.64846  22170161.5704                   22170161.7774
        44.7504         40.5004
   6939982.48046   5225281.00045  24676075.7194                   24676075.7154
        40.7504         31.7504
 -26681003.06647 -20766455.78948  20399060.3984                   20399055.8094
        47.0004         48.2504
 -20395444.32447 -15857760.38345  21410915.2584                   21410912.4614
        45.7504         35.0004
 25  7  2  1 40 30.0000000  0  9G02G16G03G28G04G26G32G31G01
 -14519716.44147 -11277542.38344  23016791.3444                   23016788.1174
        44.0004         29.2504
  -4863374.18446  -3743023.98443  24007944.6884                   24007945.4104
        36.5004         18.5004
 -23084646.63748 -17969247.57848  20500471.5164                   20500469.5824
        48.5004         50.5004
 -16544127.33647 -12866903.03545  22538359.5944                   22538356.2384
        45.5004         32.2504
 -14854266.80947 -11555697.82445  22228128.9614                   22228127.0744
        43.2504         31.7504
 -15579236.56647 -12120074.31646  22156901.8054                   22156901.3754
        44.0004         40.5004
   7003914.01646   5275097.77345  24688240.9384                   24688241.5434
        40.7504         31.0004
 -26643435.06248 -20737182.02048  20406209.5164                   20406204.8364
        49.0004         48.5004
 -20355164.70347 -15826373.70346  21418580.1954                   21418577.5354
        47.5004         36.0004
 25  7  2  1 41  0.0000000  0  9G02G16G03G28G04G26G32G31G01
 -14445073.12147 -11219378.87144  23030995.6954                   23030992.0164
        43.5004         29.5004
  -4971793.02046  -3827505.98442  23987313.4144                   23987313.8164
        37.0004         17.2504
 -23143944.09048 -18015453.37148  20489187.5864                   20489185.9774
        49.7504         50.5004
 -16464341.41847 -12804732.21945  22553542.5234                   22553538.9384
        45.0004         32.7504
 -14916306.17247 -11604040.13345  22216323.6484                   22216321.3444
        44.7504         31.7504
 -15648499.32447 -12174045.23446  22143720.7194                   22143721.0634
        43.7504         40.5004
   7067870.65246   5324934.08345  24700412.0704                   24700411.5904
        40.7504         30.2504
 -26605341.94948 -20707499.09048  20413458.4614                   20413453.2584
        49.2504         48.5004
 -20314372.61747 -15794587.70346  21426342.6644                   21426339.8674
        46.5004         36.2504
 25  7  2  1 41 30.0000000  0  9G02G16G03G28G04G26G32G31G01
 -14370231.29347 -11161060.67644  23045237.8364                   23045234.0044
        44.2504         29.7504
  -5080206.66846  -3911983.89542  23966683.1174                   23966683.0904
        37.0004         17.2504
 -23202864.24248 -18061365.16848  20477975.6174                   20477974.1294
        48.7504         50.5004
 -16384306.69947 -12742367.54345  22568772.8754                   22568768.9104
        44.5004         32.5004
 -14978210.41047 -11652277.15245  22204543.9774                   22204541.7854
        45.2504         31.5004
 -15717340.27047 -12227687.46946  22130621.3204                   22130620.4774
        44.0004         40.7504
   7131852.28546   5374789.88345  24712587.1804                   24712587.0354
        39.7504         30.2504
 -26566726.33648 -20677409.00448  20420806.6564                   20420802.0314
        48.2504         48.5004
 -20273070.51648 -15762404.29745  21434202.2114                   21434199.3284
        48.0004         35.5004
 25  7  2  1 42  0.0000000  0  9G02G16G03G28G04G26G32G31G01
 -14295196.68047 -11102592.24644  23059516.6334                   23059512.9304
        44.2504         28.7504
  -5188614.61346  -3996457.41442  23946053.2734                   23946052.8954
        36.0004         17.2504
 -23261407.77348 -18106983.47748  20466835.0164                   20466833.3634
        48.5004         50.5004
 -16304028.51647 -12679813.14545  22584049.0474                   22584045.5864
        44.5004         31.7504
 -15039982.51647 -11700411.20745  22192788.9694                   22192786.9184
        44.5004         32.0004
 -15785759.38347 -12281001.00046  22117601.1884                   22117600.9224
        44.0004         40.5004
   7195856.04346   5424662.90644  24724766.6564                   24724767.2154
        39.5004         29.7504
 -26527592.82847 -20646915.36348  20428253.7424                   20428249.0204
        47.5004         48.5004
 -20231263.38747 -15729827.34845  21442158.4224                   21442155.4574
        45.5004         35.5004
 25  7  2  1 42 30.0000000  0  9G02G16G03G28G04G26G32G31G01
 -14219971.87147 -11043975.63345  23073831.0864                   23073827.1094
        43.5004         30.0004
  -5297013.82846  -4080924.07043  23925426.0634                   23925426.1214
        36.5004         19.7504
 -23319572.31648 -18152306.47748  20455766.6024                   20455764.5904
        48.5004         50.5004
 -16223509.30147 -12617070.94545  22599371.2424                   22599368.0354
        44.5004         32.2504
 -15101622.55547 -11748442.36345  22181058.8134                   22181056.7814
        43.5004         31.7504
 -15853753.76647 -12333983.59046  22104662.0944                   22104661.9654
        44.0004         40.2504
   7259882.19546   5474553.37545  24736950.4774                   24736950.6804
        38.7504         30.0004
 -26487944.43748 -20616020.52748  20435798.6884                   20435793.6524
        49.5004         48.2504
 -20188953.27347 -15696858.46945  21450209.2664                   21450206.2584
        47.0004         35.5004
 25  7  2  1 43  0.0000000  0  9G02G16G03G28G04G26G32G31G01
 -14144557.31247 -10985211.16045  23088182.3914                   23088178.5164
        45.0004         30.0004
  -5405398.43746  -4165379.36743  23904800.7974                   23904800.5944
        37.5004         20.7504
 -23377353.27348 -18197330.58248  20444771.4304                   20444769.5274
        48.5004         50.5004
 -16142749.14847 -12554140.99245  22614739.5944                   22614736.3834
        44.0004         32.0004
 -15163128.28547 -11796368.85945  22169354.6334                   22169352.8204
        45.0004         31.5004
 -15921318.13747 -12386631.09446  22091804.7504                   22091804.9384
        43.7504         40.7504
   7323933.23046   5524463.24645  24749138.8054                   24749139.3674
        39.5004         30.0004
 -26447780.68448 -20584724.09848  20443441.5314                   20443436.3914
        48.7504         48.2504
 -20146139.87547 -15663497.41845  21458356.7814                   21458353.5434
        47.2504         35.7504
 25  7  2  1 43 30.0000000  0  9G02G16G03G28G04G26G32G31G01
 -14068956.53947 -10926301.57044  23102568.6024                   23102564.9844
        43.7504         29.2504
  -5513766.52746  -4249821.81643  23884178.3054                   23884178.0784
        38.2504         20.5004
 -23434749.38748 -18242054.80948  20433849.4924                   20433847.1994
        49.0004         50.5004
 -16061751.46947 -12491025.94545  22630152.8524                   22630149.4384
        45.0004         31.5004
 -15224500.77347 -11844191.53145  22157675.5554                   22157674.1374
        44.2504         31.7504
 -15988450.64847 -12438942.08246  22079030.3284                   22079030.3094
        44.0004         40.5004
   7388008.41446   5574391.90245  24761332.7114                   24761332.2734
        40.7504         31.0004
 -26407104.44548 -20553028.33648  20451181.8754                   20451176.9964
        49.0004         48.2504
 -20102826.33647 -15629746.64845  21466599.0474                   21466595.9734
        47.0004         35.2504
 25  7  2  1 44  0.0000000  0  9G02G16G03G28G04G26G32G31G01
 -13993176.08247 -10867251.99244  23116989.2584                   23116985.9024
        44.0004         29.5004
  -5622118.46946  -4334251.70343  23863560.3054                   23863559.0864
        39.0004         21.5004
 -23491762.23448 -18286480.38348  20422999.8914                   20422998.1764
        49.0004         50.5004
 -15980522.54347 -12427730.72745  22645610.4924                   22645607.0474
        43.7504         32.5004
 -15285743.95347 -11891913.44545  22146021.6564                   22146019.6724
        44.5004         31.7504
 -16055152.20347 -12490917.25846  22066336.5004                   22066336.9804
        44.2504         40.5004
   7452104.07046   5624336.51645  24773529.2344                   24773529.7114
        40.2504         31.7504
 -26365921.93748 -20520938.07848  20459018.6024                   20459013.6564
        48.7504         48.2504
 -20059018.57447 -15595610.77345  21474935.3834                   21474932.5634
        46.5004         35.5004
 25  7  2  1 44 30.0000000  0  9G02G16G03G28G04G26G32G31G01
 -13917214.31247 -10808061.12144  23131445.0704                   23131440.7034
        43.5004         28.2504
  -5730446.62146  -4418663.01243  23842945.3364                   23842944.6764
        40.2504         22.5004
 -23548384.96948 -18330601.96548  20412224.9774                   20412223.1524
        48.5004         50.7504
 -15899060.24647 -12364253.64845  22661112.1804                   22661108.7464
        44.7504         32.5004
 -15346853.35547 -11939531.12945  22134393.1644                   22134390.8954
        44.2504         31.5004
 -16121415.41847 -12542550.87546  22053727.6724                   22053727.8014
        44.2504         40.7504
   7516224.98846   5674300.84845  24785731.0004                   24785731.6764
        40.2504         30.0004
 -26324230.81648 -20488451.49648  20466952.0634                   20466947.2774
        48.5004         48.0004
 -20014714.16847 -15561087.89545  21483366.2664                   21483363.1524
        47.0004         35.5004
 25  7  2  1 45  0.0000000  0  9G02G16G03G28G04G26G32G31G01
 -13841075.95747 -10748732.64544  23145933.3594                   23145929.1644
        44.0004         29.0004
  -5838750.14146  -4503055.16043  23822336.1804                   23822335.3404
        39.5004         22.5004
 -23604617.60248 -18374419.58248  20401524.4614                   20401522.3484
        49.5004         50.7504
 -15817369.24647 -12300598.36745  22676657.2114                   22676653.7504
        43.2504         32.0004
 -15407831.28947 -11987046.34845  22122788.8754                   22122787.2074
        44.5004         31.0004
 -16187239.75047 -12593842.50446  22041201.7274                   22041201.6374
        44.0004         41.0004
   7580369.00846   5724283.15244  24797937.5314                   24797937.5514
        39.5004         28.5004
 -26282035.68748 -20455572.17248  20474981.9144                   20474976.8364
        48.7504         48.0004
 -19969917.56647 -15526181.49245  21491890.9534                   21491887.9534
        47.2504         35.5004
 25  7  2  1 45 30.0000000  0  9G02G16G03G28G04G26G32G31G01
 -13764759.82047 -10689265.64544  23160455.7344                   23160452.1254
        44.2504         28.0004
  -5947021.78546  -4587422.43743  23801731.9774                   23801731.7464
        39.0004         22.5004
 -23660453.72748 -18417928.21948  20390898.6484                   20390897.1724
        49.0004         50.7504
 -15735447.75847 -12236763.48445  22692246.1954                   22692243.1954
        44.5004         32.0004
 -15468673.67647 -12034455.96545  22111211.2114                   22111209.3094
        45.2504         31.2504
 -16252618.12147 -12644786.63346  22028760.6884                   22028760.6294
        43.7504         40.7504
   7644540.60246   5774286.97744  24810148.7504                   24810148.9534
        38.5004         28.7504
 -26239334.25447 -20422298.33247  20483107.0394                   20483102.9184
        47.7504         47.7504
 -19924626.72747 -15490889.96545  21500509.2734                   21500506.3714
        46.5004         35.0004
 25  7  2  1 46  0.0000000  0  9G02G16G03G28G04G26G32G31G01
 -13688272.71547 -10629665.43044  23175010.9774                   23175007.2894
        43.2504         27.0004
  -6055261.59946  -4671764.94043  23781135.0394                   23781134.2344
        39.0004         22.2504
 -23715895.07048 -18461129.25448  20380348.6484                   20380347.2234
        49.2504         51.0004
 -15653302.24647 -12172754.03945  22707877.9774                   22707874.9104
        45.0004         32.2504
 -15529384.62547 -12081763.15245  22099658.0634                   22099656.1724
        44.5004         32.0004
 -16317551.76247 -12695384.21946  22016404.0554                   22016404.4264
        44.0004         41.0004
   7708736.04346   5824309.33644  24822364.6334                   24822364.6374
        37.7504         27.7504
 -26196133.14147 -20388635.13348  20491328.5864                   20491323.2544
        46.5004         48.0004
 -19878847.86347 -15455218.16845  21509220.5474                   21509217.8754
        45.0004         35.0004
 25  7  2  1 46 30.0000000  0  9G02G16G03G28G04G26G32G31G01
 -13611619.42647 -10569935.73044  23189597.3674                   23189593.8484
        43.7504         29.0004
  -6163469.14846  -4756082.30943  23760543.6884                   23760542.4104
        39.5004         22.7504
 -23770941.90648 -18504022.87148  20369873.7424                   20369871.5864
        49.0004         51.0004
 -15570937.60947 -12108573.84045  22723551.7424                   22723548.4144
        44.2504         33.0004
 -15589966.66847 -12128969.90645  22088130.0554                   22088127.9614
        45.0004         31.0004
 -16382040.33247 -12745635.00446  22004131.8984                   22004132.1054
        44.2504         41.2504
   7772952.88346   5874348.37944  24834585.0864                   24834585.4384
        37.5004         29.2504
 -26152436.96548 -20354586.17247  20499643.5394                   20499638.6994
        48.2504         47.7504
 -19832585.67647 -15419169.75445  21518023.8984                   21518021.1294
        46.5004         35.0004
 25  7  2  1 47  0.0000000  0  9G02G16G03G28G04G26G32G31G01
 -13534799.57047 -10510076.21944  23204216.5394                   23204212.3094
        43.0004         29.5004
  -6271637.85546  -4840369.37543  23739958.7894                   23739958.5554
        39.7504         23.2504
 -23825588.62548 -18546604.70748  20359474.9064                   20359473.2114
        49.0004         51.0004
 -15488352.87147 -12044222.14145  22739267.1414                   22739263.8794
        45.0004         33.2504
 -15650416.51247 -12176073.64145  22076627.0474                   22076624.4104
        44.0004         31.5004
 -16446077.73047 -12795534.21946  21991946.1644                   21991945.9574
        43.7504         41.2504
   7837194.78146   5924406.91444  24846809.1954                   24846810.3524
        37.0004         29.0004
 -26108244.57048 -20320150.54347  20508053.0784                   20508048.2154
        48.2504         47.7504
 -19785839.02747 -15382743.84045  21526920.1724                   21526916.8054
        46.2504         35.0004
 25  7  2  1 47 30.0000000  0  9G02G16G03G28G04G26G32G31G01
 -13457819.37147 -10450091.80544  23218865.3914                   23218861.8094
        42.7504         29.2504
  -6379767.87546  -4924626.35943  23719382.7894                   23719381.5594
        40.0004         22.7504
 -23879836.45348 -18588875.72348  20349151.7894                   20349149.6174
        48.7504         50.7504
 -15405553.90647 -11979703.51645  22755023.3674                   22755020.1334
        44.0004         33.0004
 -15710737.77347 -12223077.18745  22065148.0394                   22065145.4184
        44.5004         31.0004
 -16509664.62147 -12845082.39546  21979845.8674                   21979845.7504
        43.7504         41.5004
   7901458.43846   5974482.45345  24859038.7424                   24859039.1684
        37.5004         30.2504
 -26063561.62547 -20285332.66848  20516556.1954                   20516550.9884
        46.7504         48.0004
 -19738613.68747 -15345944.92245  21535906.9144                   21535903.6884
        44.7504         34.7504
 25  7  2  1 48  0.0000000  0  9G02G16G03G28G04G26G32G31G01
 -13380678.44547 -10389982.13744  23233545.2584                   23233541.2894
        43.0004         29.5004
  -6487852.83646  -5008848.18443  23698814.9534                   23698814.0434
        40.0004         22.5004
 -23933679.96948 -18630831.68748  20338905.8204                   20338904.1374
        49.7504         50.7504
 -15322539.91447 -11915017.32845  22770820.6804                   22770817.0124
        44.5004         32.5004
 -15770927.19147 -12269977.98845  22053694.1724                   22053692.1994
        43.2504         31.5004
 -16572795.03147 -12894274.86346  21967832.1804                   21967832.5434
        43.2504         41.5004
   7965747.34846   6024577.67645  24871272.3914                   24871272.7934
        36.2504         30.0004
 -26018387.51247 -20250132.06247  20525152.0234                   20525147.4804
        47.5004         47.7504
 -19690908.59447 -15308772.16445  21544984.5944                   21544981.8094
        46.2504         35.5004
 25  7  2  1 48 30.0000000  0  9G02G16G03G28G04G26G32G31G01
 -13303376.78947 -10329747.21945  23248255.3834                   23248251.4224
        43.5004         30.0004
  -6595886.79346  -5093030.28543  23678256.1094                   23678254.9264
        38.7504         21.5004
 -23987114.28948 -18672468.80548  20328737.4844                   20328735.8054
        49.5004         51.0004
 -15239310.59447 -11850163.35945  22786658.2894                   22786655.4804
        44.5004         31.7504
 -15830982.23047 -12316774.08245  22042266.1024                   22042264.0944
        45.5004         32.0004
 -16635463.51247 -12943107.40246  21955907.3834                   21955906.9534
        45.0004         41.2504
   8030064.34046   6074694.76245  24883511.1564                   24883512.6804
        36.2504         30.0004
 -25972721.54747 -20214548.19547  20533842.4304                   20533837.3754
        47.7504         47.7504
 -19642723.41847 -15271225.32045  21554153.7734                   21554151.0084
        45.2504         35.0004
 25  7  2  1 49  0.0000000  0  9G02G16G03G28G04G26G32G31G01
 -13225917.28947 -10269389.30544  23262994.9844                   23262991.7194
        42.7504         29.5004
  -6703866.27746  -5177169.93043  23657708.9534                   23657707.0594
        38.5004         21.5004
 -24040137.10548 -18713785.27048  20318647.7664                   20318645.6884
        49.5004         51.0004
 -15155868.28547 -11785143.43045  22802536.8444                   22802533.8244
        44.2504         32.0004
 -15890902.87147 -12363465.45745  22030863.4454                   22030861.0394
        45.5004         31.7504
 -16697667.30547 -12991577.84446  21944070.6334                   21944070.2304
        45.2504         41.7504
   8094409.75846   6124833.97344  24895756.1094                   24895756.5744
        36.7504         29.5004
 -25926566.34847 -20178583.12147  20542625.6024                   20542620.7234
        46.5004         47.5004
 -19594060.37147 -15233306.11745  21563414.3914                   21563411.7544
        44.7504         35.0004
 25  7  2  1 49 30.0000000  0  9G02G16G03G28G04G26G32G31G01
 -13148306.16447 -10208913.27745  23277763.9774                   23277760.8754
        42.7504         30.0004
  -6811792.17646  -5261267.83243  23637170.3524                   23637169.6844
        38.2504         19.2504
 -24092750.49648 -18754782.70348  20308635.6804                   20308633.5084
        49.2504         51.0004
 -15072219.64547 -11719962.72345  22818454.8134                   22818451.9104
        43.2504         30.5004
 -15950693.47347 -12410055.48445  22019485.8754                   22019483.9884
        46.0004         31.7504
 -16759407.99247 -13039687.42247  21932321.4844                   21932320.8794
        45.7504         42.2504
   8158779.55545   6174992.18844  24908006.0164                   24908006.1914
        35.5004         29.0004
 -25879928.28547 -20142241.77347  20551500.3984                   20551495.6724
        47.0004         47.7504
 -19544926.11347 -15195019.71945  21572764.0944                   21572761.5124
        45.0004         34.7504
 25  7  2  1 50  0.0000000  0 10G09G02G16G03G28G04G26G32G31G01
   1461049.87956   1156223.17255  24943458.5084                   24943461.5824
        38.2504         31.2504
 -13070549.25847 -10148323.62144  23292560.9844                   23292557.4884
        42.0004         29.2504
  -6919663.73446  -5345323.38743  23616643.1254                   23616642.1804
        38.0004         18.2504
 -24144954.52348 -18795461.15248  20298701.4454                   20298699.5274
        48.5004         51.0004
 -14988369.28147 -11654624.83245  22834410.8134                   22834407.5164
        43.0004         31.5004
 -16010356.31647 -12456545.96945  22008132.5084                   22008129.6334
        45.2504         31.5004
 -16820685.08647 -13087435.76247  21920661.1644                   21920660.0474
        44.5004         42.0004
   8223171.64545   6225167.78144  24920257.9144                   24920259.5704
        34.0004         28.0004
 -25832811.96548 -20105527.76648  20560466.0634                   20560461.3204
        48.0004         48.0004
 -19495325.13347 -15156369.65245  21582203.0944                   21582200.4264
        46.2504         35.0004
 25  7  2  1 50 30.0000000  0 10G09G02G16G03G28G04G26G32G31G01
   1377755.46146   1091318.60945  24927608.1334                   24927611.2034
        38.2504         31.7504
 -12992651.73847 -10087624.41444  23307384.5784                   23307381.0514
        42.0004         28.0004
  -7027479.93446  -5429335.83242  23596125.8674                   23596124.4414
        37.5004         17.7504
 -24196749.66848 -18835821.00448  20288845.1804                   20288843.0634
        49.0004         51.0004
 -14904322.21947 -11589133.66445  22850404.5864                   22850401.3524
        43.5004         31.5004
 -16069894.11347 -12502939.01245  21996802.5084                   21996800.4614
        44.2504         31.7504
 -16881498.55947 -13134822.84047  21909088.0784                   21909088.0124
        45.0004         42.0004
   8287583.62945   6275358.88344  24932515.7274                   24932516.6414
        35.2504         29.2504
 -25785222.44147 -20068445.03148  20569522.0474                   20569517.2814
        46.5004         48.0004
 -19445262.50047 -15117359.85945  21591729.8674                   21591726.8834
        44.7504         35.0004
 25  7  2  1 51  0.0000000  0 10G09G02G16G03G28G04G26G32G31G01
   1294469.02046   1026420.30145  24911759.2814                   24911761.9654
        37.2504         31.5004
 -12914625.00847 -10026824.52344  23322232.5864                   23322228.8554
        42.5004         29.0004
  -7135246.40246  -5513309.50043  23575618.9224                   23575617.2894
        39.0004         19.5004
 -24248142.53548 -18875867.39148  20279065.4844                   20279063.3204
        49.0004         51.0004
 -14820089.71547 -11523497.99245  22866433.7894                   22866430.5664
        43.5004         30.5004
 -16129315.84847 -12549241.61745  21985495.0084                   21985492.5904
        45.0004         32.0004
 -16941854.64147 -13181853.50047  21897603.0004                   21897602.6994
        45.5004         42.2504
   8352006.76246   6325558.68844  24944776.0004                   24944776.0124
        37.2504         28.5004
 -25737170.64847 -20031002.08247  20578666.5004                   20578661.3094
        47.0004         47.7504
 -19394749.37547 -15077999.02745  21601341.8754                   21601339.3594
        44.5004         34.7504
 25  7  2  1 51 30.0000000  0 10G09G02G16G03G28G04G26G32G31G01
   1211186.89545    961525.35944  24895910.8674                   24895913.6484
        35.2504         29.7504
 -12836475.41047  -9965928.91444  23337103.8914                   23337100.8554
        43.0004         28.7504
  -7242963.58646  -5597244.79743  23555120.6024                   23555119.3714
        38.5004         19.7504
 -24299134.59048 -18915601.45348  20269362.1254                   20269360.1644
        48.5004         51.2504
 -14735677.73447 -11457722.48045  22882496.7974                   22882493.2544
        43.5004         30.2504
 -16188625.07447 -12595456.54745  21974209.0554                   21974206.4144
        45.2504         32.0004
 -17001754.27747 -13228528.49647  21886204.4454                   21886203.9224
        46.0004         42.5004
   8416437.84046   6375764.66844  24957036.8364                   24957037.1414
        36.7504         29.5004
 -25688662.95348 -19993203.88747  20587896.8364                   20587892.1994
        48.0004         47.7504
 -19343791.78947 -15038291.86345  21611038.9144                   21611036.5124
        45.5004         35.0004
 25  7  2  1 52  0.0000000  0 10G09G02G16G03G28G04G26G32G31G01
   1127915.27346    896638.59445  24880064.8674                   24880067.6604
        36.0004         30.2504
 -12758199.58646  -9904934.92644  23351999.1334                   23351996.2704
        41.5004         27.2504
  -7350621.62946  -5681133.98443  23534633.8984                   23534632.4654
        38.2504         19.2504
 -24349717.37548 -18955016.61348  20259736.5234                   20259734.2814
        49.0004         51.2504
 -14651082.32047 -11391804.02044  22898594.6484                   22898591.4844
        42.5004         29.7504
 -16247815.59847 -12641578.99245  21962945.1484                   21962942.7504
        45.0004         31.7504
 -17061188.52047 -13274840.85247  21874894.6644                   21874893.9184
        45.7504         42.0004
   8480883.25046   6425981.85945  24969299.5394                   24969300.2194
        38.0004         31.2504
 -25639695.53147 -19955047.46548  20597215.1564                   20597210.3524
        47.7504         48.0004
 -19292385.82047 -14998235.32045  21620821.3914                   21620818.4774
        44.5004         34.5004
 25  7  2  1 52 30.0000000  0 10G09G02G16G03G28G04G26G32G31G01
   1044667.93445    831770.75444  24864223.8914                   24864225.6844
        34.2504         29.5004
 -12679786.43447  -9843833.91844  23366921.2424                   23366917.5004
        42.2504         27.0004
  -7458203.39846  -5764963.74243  23514161.1564                   23514159.8284
        38.2504         19.5004
 -24399874.88348 -18994100.38348  20250191.6334                   20250189.6884
        48.7504         51.2504
 -14566292.03147 -11325733.71145  22914729.9304                   22914726.9304
        43.5004         30.0004
 -16306873.67247 -12687598.21145  21951706.6804                   21951704.3244
        45.5004         32.2504
 -17120140.95747 -13320777.77047  21863675.7504                   21863675.5904
        46.0004         42.7504
   8545357.13746   6476221.21545  24981569.3834                   24981569.4344
        38.0004         30.7504
 -25590256.49248 -19916523.55147  20606622.7114                   20606618.2074
        48.2504         47.7504
 -19240520.08647 -14957820.50445  21630690.7114                   21630688.2034
        44.7504         35.0004
 25  7  2  1 53  0.0000000  0 10G09G02G16G03G28G04G26G32G31G01
    961444.43445    766921.51644  24848385.6724                   24848388.3014
        31.7504         26.2504
 -12601239.09447  -9782628.34444  23381868.3284                   23381864.9654
        42.5004         27.7504
  -7565706.13746  -5848731.95343  23493704.7114                   23493702.6684
        38.5004         20.2504
 -24449605.41848 -19032851.45748  20240728.5554                   20240726.8284
        48.5004         51.2504
 -14481309.66847 -11259513.72744  22930902.0554                   22930897.9024
        43.5004         29.7504
 -16365799.74647 -12733514.59045  21940493.3204                   21940491.0234
        45.2504         32.0004
 -17178609.37947 -13366337.53147  21852549.7344                   21852549.7344
        45.5004         42.2504
   8609859.16846   6526482.51245  24993843.2894                   24993843.6724
        38.5004         31.7504
 -25540349.04348 -19877634.64547  20616120.0554                   20616115.4494
        48.2504         47.7504
 -19188197.49247 -14917049.70345  21640647.9694                   21640645.0394
        45.7504         35.0004
 25  7  2  1 53 30.0000000  0 10G09G02G16G03G28G04G26G32G31G01
    878248.19544    702093.51243  24832555.0004                   24832556.4454
        29.0004         23.7504
 -12522556.68047  -9721317.53944  23396841.2274                   23396838.2344
        42.2504         28.0004
  -7673122.76246  -5932433.03543  23473263.6564                   23473262.4264
        39.7504         21.5004
 -24498903.22748 -19071265.32848  20231347.3594                   20231345.1684
        49.2504         51.2504
 -14396133.95747 -11193143.07444  22947110.3364                   22947106.6134
        43.7504         29.7504
 -16424590.30547 -12779325.36345  21929305.6644                   21929303.5084
        44.7504         32.5004
 -17236587.69147 -13411515.39147  21841516.9144                   21841516.4964
        45.2504         42.5004
   8674393.25846   6576768.77345  25006124.1484                   25006124.0904
        39.7504         31.5004
 -25489971.73847 -19838379.61347  20625706.4774                   20625701.8984
        47.5004         47.5004
 -19135416.82047 -14875921.96145  21650691.8834                   21650688.8364
        44.7504         34.5004
 25  7  2  1 54  0.0000000  0  9G02G16G03G28G04G26G32G31G01
 -12443739.94147  -9659902.07444  23411839.9064                   23411836.9924
        42.5004         27.7504
  -7780447.97346  -6016062.92243  23452839.8914                   23452838.3324
        39.5004         22.7504
 -24547764.12148 -19109338.75448  20222049.4384                   20222047.5314
        49.0004         51.5004
 -14310765.22347 -11126622.02045  22963355.6334                   22963351.7894
        44.0004         30.0004
 -16483243.31647 -12825028.95345  21918144.4384                   21918142.1054
        43.5004         33.0004
 -17294071.25847 -13456307.73447  21830578.2584                   21830577.7424
        43.7504         42.5004
   8738961.64846   6627081.77745  25018411.0864                   25018411.0204
        40.5004         32.2504
 -25439125.18448 -19798758.93447  20635382.0554                   20635377.4844
        48.2504         47.5004
 -19082178.52747 -14834437.62545  21660822.3754                   21660819.8164
        46.5004         34.5004
 25  7  2  1 54 30.0000000  0  9G02G16G03G28G04G26G32G31G01
 -12364797.73047  -9598388.82044  23426861.9774                   23426858.8674
        42.5004         27.5004
  -7887684.45346  -6099623.64844  23432434.2584                   23432431.8404
        40.5004         24.5004
 -24596191.92248 -19147074.70348  20212833.9924                   20212831.7384
        49.2504         51.5004
 -14225211.68047 -11059956.96945  22979635.5164                   22979632.1844
        44.2504         31.0004
 -16541764.76647 -12870630.03145  21907008.6414                   21907005.4964
        45.0004         32.7504
 -17351063.46547 -13500717.19947  21819732.8054                   21819732.4384
        45.2504         42.5004
   8803558.66446   6677417.10945  25030702.8284                   25030703.6484
        39.7504         31.5004
 -25387817.69147 -19758779.08647  20645145.5784                   20645141.0594
        46.5004         47.5004
 -19028491.02047 -14792603.26245  21671039.2814                   21671036.3794
        45.0004         35.5004
 25  7  2  1 55  0.0000000  0 10G09G02G16G03G28G04G26G32G31G01
    628799.26255    586759.37954  24785088.2814                   24785090.0784
        30.5004         27.0004
 -12285736.08647  -9536782.48844  23441907.3054                   23441903.5394
        43.2504         27.2504
  -7994832.16446  -6183115.21143  23412043.7894                   23412042.5314
        41.2504         22.7504
 -24644188.00448 -19184474.24648  20203700.4844                   20203698.5004
        48.7504         51.5004
 -14139479.23447 -10993152.50445  22995950.5944                   22995946.7664
        44.0004         31.0004
 -16600158.21947 -12916131.37945  21895896.0234                   21895893.9494
        44.5004         32.5004
 -17407565.29747 -13544744.55547  21808980.9064                   21808980.3634
        44.7504         42.7504
   8868181.00446   6727772.15645  25043000.3594                   25043001.3204
        40.5004         32.7504
 -25336055.34047 -19718444.80147  20654995.9844                   20654991.2584
        46.5004         47.5004
 -18974360.30547 -14750423.54745  21681339.6954                   21681336.9964
        44.5004         34.0004
 25  7  2  1 55 30.0000000  0 10G09G02G16G03G28G04G26G32G31G01
    545697.93045    522005.32844  24769274.3984                   24769276.6564
        33.7504         29.2504
 -12206554.62147  -9475082.80544  23456974.9454                   23456971.6724
        43.0004         27.0004
  -8101884.71946  -6266532.60544  23391672.2664                   23391671.1954
        41.0004         24.5004
 -24691747.13348 -19221533.31248  20194650.5004                   20194648.4304
        49.5004         51.5004
 -14053567.07447 -10926207.99645  23012298.8754                   23012295.1524
        44.0004         31.2504
 -16658420.57047 -12961530.56245  21884809.6094                   21884806.6094
        45.5004         32.5004
 -17463571.14547 -13588385.43047  21798322.9774                   21798322.7154
        45.5004         42.7504
   8932831.95346   6778149.49645  25055303.1804                   25055303.6254
        41.0004         32.2504
 -25283837.29747 -19677755.43747  20664932.7344                   20664927.9264
        46.7504         47.5004
 -18919785.77347 -14707897.99645  21691725.1724                   21691722.2974
        45.0004         34.5004
 25  7  2  1 56  0.0000000  0 10G09G02G16G03G28G04G26G32G31G01
    462624.66845    457273.12145  24753465.5784                   24753468.0594
        35.2504         30.5004
 -12127250.79747  -9413287.77344  23472065.9614                   23472063.1094
        43.7504         28.0004
  -8208833.48446  -6349869.16044  23371320.8204                   23371318.7234
        41.2504         24.7504
 -24738861.89848 -19258246.11748  20185684.8134                   20185682.4534
        49.5004         51.2504
 -13967472.14547 -10859121.08245  23028682.2034                   23028678.4104
        44.2504         30.5004
 -16716546.55547 -13006823.49245  21873748.0944                   21873745.4884
        45.0004         32.5004
 -17519073.16047 -13631633.71547  21787761.4694                   21787760.8674
        45.0004         42.7504
   8997517.13347   6828553.54345  25067612.2814                   25067612.7074
        42.2504         33.5004
 -25231160.93447 -19636708.93447  20674956.6024                   20674951.7114
        47.0004         47.5004
 -18864764.69947 -14665024.47745  21702195.4844                   21702192.6684
        45.5004         34.5004
 25  7  2  1 56 30.0000000  0 10G09G02G16G03G28G04G26G32G31G01
    379578.95746    392562.36745  24737662.8444                   24737664.9064
        36.7504         31.5004
 -12047827.87547  -9351399.91044  23487179.5234                   23487176.2664
        42.5004         26.0004
  -8315675.33646  -6433122.37944  23350989.5704                   23350987.4964
        41.0004         25.2504
 -24785530.67248 -19294611.39148  20176803.9304                   20176802.0664
        49.2504         51.5004
 -13881197.34047 -10791893.99645  23045099.1724                   23045096.0164
        43.0004         31.2504
 -16774536.68047 -13052010.55945  21862713.2194                   21862710.2664
        45.5004         32.7504
 -17574069.41847 -13674487.89547  21777295.6334                   21777295.6564
        46.0004         42.7504
   9062236.35947   6878984.06645  25079927.5394                   25079928.7624
        42.0004         32.5004
 -25178028.92247 -19595307.38747  20685067.8284                   20685062.6644
        47.2504         47.5004
 -18809299.99247 -14621805.28945  21712749.6804                   21712747.1604
        45.2504         34.7504
 25  7  2  1 57  0.0000000  0 10G09G02G16G03G28G04G26G32G31G01
    296557.21146    327870.25045  24721863.5704                   24721865.9454
        37.5004         32.0004
 -11968292.09047  -9289424.13744  23502314.9844                   23502311.6994
        43.0004         25.0004
  -8422410.20746  -6516292.25443  23330678.3984                   23330676.5594
        40.2504         23.0004
 -24831754.75048 -19330630.15248  20168007.8364                   20168005.7974
        49.0004         51.2504
 -13794748.30147 -10724531.16045  23061550.1094                   23061547.4694
        43.0004         31.0004
 -16832394.31647 -13097094.37945  21851703.0394                   21851700.4574
        44.0004         33.2504
 -17628560.83647 -13716948.69547  21766926.5084                   21766926.5704
        44.0004         42.7504
   9126986.41046   6929438.66045  25092249.7734                   25092250.1484
        41.5004         31.7504
 -25124447.18747 -19553555.40247  20695263.9384                   20695258.9774
        47.0004         47.5004
 -18753397.62547 -14578245.05545  21723387.8444                   21723385.3794
        44.5004         33.7504
 25  7  2  1 57 30.0000000  0 10G09G02G16G03G28G04G26G32G31G01
    213552.76646    263191.60945  24706068.7114                   24706070.8794
        38.2504         31.5004
 -11888652.65247  -9227367.58644  23517469.6724                   23517466.9884
        42.5004         26.5004
  -8529041.63946  -6599381.52244  23310386.2894                   23310384.6954
        40.0004         24.7504
 -24877538.74648 -19366305.99648  20159295.4064                   20159293.3594
        49.0004         51.5004
 -13708134.02747 -10657039.57444  23078032.0944                   23078029.3204
        42.7504         29.7504
 -16890126.20747 -13142080.21545  21840717.0634                   21840714.9064
        45.5004         33.5004
 -17682551.61747 -13759019.39147  21756652.1564                   21756651.9924
        46.2504         43.2504
   9191760.82046   6979912.19944  25104575.8834                   25104576.3284
        41.7504         29.7504
 -25070424.69148 -19511459.96947  20705543.8594                   20705539.2034
        48.5004         47.5004
 -18697066.84847 -14534351.00045  21734107.1564                   21734104.7584
        46.2504         34.0004
 25  7  2  1 58  0.0000000  0 10G09G02G16G03G28G04G26G32G31G01
    130569.76646    198529.66845  24690277.2734                   24690279.7854
        38.7504         31.5004
 -11808908.40247  -9165229.35244  23532644.9534                   23532642.2584
        42.5004         25.2504
  -8635562.01246  -6682384.25044  23290117.2584                   23290114.8204
        40.2504         24.7504
 -24922876.47348 -19401634.08648  20150667.4384                   20150666.0204
        49.2504         51.5004
 -13621352.64846 -10589417.76645  23094546.2344                   23094542.9924
        41.7504         30.0004
 -16947728.25847 -13186964.88745  21829755.8594                   21829753.2814
        46.2504         33.0004
 -17736035.26247 -13800694.92647  21746474.8594                   21746474.4184
        45.5004         43.0004
   9256563.95346   7030408.10544  25116906.8364                   25116908.2304
        41.5004         29.5004
 -25015960.16847 -19469020.09847  20715908.2194                   20715903.1254
        47.7504         47.2504
 -18640306.17247 -14490121.95745  21744908.3204                   21744905.6724
        45.0004         34.0004
 25  7  2  1 58 30.0000000  0 10G09G02G16G03G28G04G26G32G31G01
     47611.91046    133887.29744  24674490.3754                   24674492.2274
        38.7504         29.0004
 -11729058.27346  -9103008.63744  23547840.1254                   23547837.2424
        41.0004         26.2504
  -8741964.09846  -6765294.80944  23269868.7274                   23269867.0164
        39.5004         24.0004
 -24967761.98448 -19436609.80548  20142126.4844                   20142124.4064
        49.0004         51.5004
 -13534402.60946 -10521664.53944  23111091.8674                   23111089.4924
        41.5004         29.7504
 -17005196.59447 -13231745.35945  21818820.3054                   21818817.3794
        46.2504         33.0004
 -17789005.48847 -13841970.39147  21736394.8594                   21736394.1804
        46.2504         43.0004
   9321399.95746   7080929.66444  25129245.3054                   25129245.5664
        41.5004         28.0004
 -24961052.43447 -19426234.87147  20726356.0234                   20726351.8634
        47.5004         47.2504
 -18583114.23847 -14445556.87145  21755791.7504                   21755788.8444
        46.0004         34.2504
 25  7  2  1 59  0.0000000  0 10G09G02G16G03G28G04G26G32G31G01
    -35327.05146     69259.65644  24658708.3204                   24658709.6134
        39.0004         28.5004
 -11649111.03546  -9040712.27044  23563053.5234                   23563050.8244
        41.0004         26.7504
  -8848250.69146  -6848115.36343  23249642.9304                   23249641.1844
        38.2504         22.7504
 -25012199.48448 -19471236.42248  20133670.2584                   20133668.5434
        49.5004         51.7504
 -13447292.41846 -10453786.52344  23127668.8284                   23127665.8484
        40.7504         28.5004
 -17062537.46547 -13276426.52045  21807908.3984                   21807905.6484
        45.7504         33.0004
 -17841466.17647 -13882848.80147  21726412.1174                   21726411.3914
        45.7504         43.0004
   9386262.81346   7131472.15644  25141587.8674                   25141588.7854
        40.5004         24.5004
 -24905709.85948 -19383110.80947  20736887.8284                   20736883.5394
        48.0004         47.2504
 -18525499.94147 -14400662.67645  21766755.5474                   21766752.8404
        46.2504         34.0004
 25  7  2  1 59 30.0000000  0 10G09G02G16G03G28G04G26G32G31G01
   -118240.93046      4651.53944  24642929.5944                   24642931.8284
        38.7504         29.0004
 -11569063.39146  -8978337.65644  23578286.2974                   23578283.7704
        40.7504         26.0004
  -8954412.23846  -6930838.48843  23229440.6644                   23229438.9884
        38.2504         22.7504
 -25056180.77348 -19505507.53548  20125301.0164                   20125299.1024
        49.0004         51.7504
 -13360018.25846 -10385780.76644  23144276.7034                   23144273.6524
        41.2504         29.5004
 -17119744.74647 -13321003.59045  21797022.0004                   21797019.5274
        45.7504         33.5004
 -17893408.79347 -13923323.53147  21716527.7194                   21716527.0084
        46.0004         43.0004
   9451158.91446   7182040.51243  25153937.6174                   25153938.2274
        40.2504         22.0004
 -24849928.99647 -19339645.22747  20747502.6804                   20747497.9654
        46.5004         47.0004
 -18467459.77747 -14355436.62945  21777799.9534                   21777797.4884
        45.0004         34.0004
 25  7  2  2  0  0.0000000  0 10G09G02G16G03G28G04G26G32G31G01
   -201132.46946    -59939.17244  24627155.8754                   24627157.6844
        39.5004         28.5004
 -11488920.60246  -8915888.90644  23593536.7194                   23593534.9184
        39.2504         25.5004
  -9060447.84846  -7013463.48043  23209262.3054                   23209260.6804
        38.5004         23.0004
 -25099706.46548 -19539423.65248  20117018.1334                   20117016.5514
        49.0004         51.5004
 -13272585.00047 -10317651.00845  23160914.8524                   23160912.0704
        42.0004         30.2504
 -17176821.08647 -13365478.61345  21786160.9064                   21786158.3134
        45.5004         33.0004
 -17944833.66447 -13963394.81647  21706741.8524                   21706740.9454
        46.0004         42.7504
   9516085.85246   7232633.01643  25166292.8594                   25166292.5984
        40.2504         21.0004
 -24793714.61747 -19295841.84447  20758199.9924                   20758195.3794
        47.7504         47.0004
 -18408999.02047 -14309882.85545  21788924.8834                   21788922.2194
        46.2504         34.2504
 25  7  2  2  0 30.0000000  0 10G09G02G16G03G28G04G26G32G31G01
   -283997.92246   -124509.55944  24611386.9454                   24611389.5394
        38.7504         27.2504
 -11408681.60946  -8853365.22344  23608805.6884                   23608804.2584
        38.5004         24.0004
  -9166350.70346  -7095985.02043  23189110.6644                   23189107.3094
        39.0004         22.7504
 -25142770.71548 -19572980.20348  20108823.0634                   20108821.2854
        49.5004         51.7504
 -13184991.09846 -10249396.08244  23177583.0784                   23177580.0514
        41.0004         29.0004
 -17233762.65247 -13409848.62945  21775325.4064                   21775322.4574
        46.2504         33.0004
 -17995734.66047 -14003057.89847  21697055.5314                   21697054.4804
        45.5004         42.7504
   9581047.72746   7283252.61342  25178654.8134                   25178653.9304
        40.0004         17.2504
 -24737065.84847 -19251699.95747  20768979.8054                   20768975.3754
        47.5004         47.0004
 -18350116.42247 -14264000.36745  21800129.5944                   21800127.1914
        46.0004         34.0004
 25  7  2  2  1  0.0000000  0 10G09G02G16G03G28G04G26G32G31G01
   -366836.31246   -189058.85544  24595623.3834                   24595625.2814
        38.7504         27.5004
 -11328348.37546  -8790768.09044  23624093.1564                   23624090.8484
        39.5004         26.2504
  -9272116.08246  -7178399.47343  23168983.4064                   23168980.7584
        40.0004         22.7504
 -25185370.63748 -19606174.93048  20100716.9064                   20100714.8714
        48.5004         51.7504
 -13097237.88346 -10181017.02044  23194282.2034                   23194279.4414
        41.7504         29.5004
 -17290568.56247 -13454112.94145  21764515.1884                   21764512.7624
        45.2504         33.5004
 -18046108.55547 -14042310.24247  21687469.8984                   21687469.3204
        46.0004         42.7504
   9646045.71146   7333900.52043  25191023.1484                   25191023.4304
        39.2504         19.2504
 -24679984.19947 -19207220.77047  20779841.8594                   20779837.4304
        47.5004         47.0004
 -18290813.83247 -14217790.61745  21811414.5474                   21811412.1524
        45.7504         34.0004
 25  7  2  2  1 30.0000000  0 10G09G02G16G03G28G04G26G32G31G01
   -449646.62146   -253586.25044  24579864.7974                   24579866.8794
        39.0004         27.5004
 -11247922.39546  -8728098.68444  23639397.9144                   23639396.0944
        41.0004         26.7504
  -9377739.41846  -7260703.23443  23148883.6884                   23148881.0744
        39.7504         22.2504
 -25227502.99248 -19639005.32048  20092699.2424                   20092697.4774
        48.7504         51.7504
 -13009326.41847 -10112514.64144  23211011.1724                   23211008.4574
        42.0004         29.0004
 -17347237.56647 -13498270.57045  21753731.2424                   21753728.8524
        45.5004         33.0004
 -18095951.89847 -14081149.18447  21677984.5234                   21677983.8404
        45.2504         42.5004
   9711081.25046   7384577.55143  25203398.6254                   25203399.1484
        38.0004         19.7504
 -24622470.98047 -19162405.30147  20790786.7814                   20790781.8204
        47.7504         47.0004
 -18231092.64547 -14171254.69145  21822779.6024                   21822776.8794
        46.7504         34.0004
 25  7  2  2  2  0.0000000  0 10G09G02G16G03G28G04G26G32G31G01
   -532432.98446   -318094.99244  24564111.0084                   24564112.6804
        38.2504         27.2504
 -11167410.85546  -8665362.61744  23654719.2584                   23654716.7584
        40.0004         27.0004
  -9483221.22746  -7342896.71543  23128810.8984                   23128809.1954
        39.7504         22.0004
 -25269170.01248 -19671473.11748  20084770.5004                   20084768.2624
        49.0004         51.7504
 -12921263.14547 -10043893.96144  23227768.9454                   23227765.8484
        43.0004         29.0004
 -17403773.87147 -13542324.80945  21742972.9064                   21742970.3014
        45.5004         33.7504
 -18145266.57047 -14119576.16047  21668600.2344                   21668599.9024
        46.2504         42.7504
   9776150.32046   7435280.85243  25215781.3444                   25215781.3554
        37.7504         18.2504
 -24564532.88347 -19117258.75047  20801812.1414                   20801807.2114
        47.7504         47.0004
 -18170959.83247 -14124398.01245  21834222.2504                   21834219.9774
        45.5004         33.7504
 25  7  2  2  2 30.0000000  0 10G09G02G16G03G28G04G26G32G31G01
   -615191.85546   -382582.30944  24548362.3674                   24548363.9304
        39.0004         27.2504
 -11086812.63746  -8602559.01644  23670056.9694                   23670054.2814
        40.7504         26.5004
  -9588554.66046  -7424974.58643  23108766.9304                   23108764.7234
        41.0004         22.7504
 -25310366.09848 -19703573.94948  20076931.0704                   20076929.0274
        48.7504         51.7504
 -12833046.68047  -9975153.91444  23244556.6024                   23244553.3674
        43.0004         29.7504
 -17460173.85947 -13586272.81645  21732240.4694                   21732237.7584
        45.0004         33.5004
 -18194046.78947 -14157586.68447  21659318.0784                   21659317.1564
        46.0004         42.7504
   9841256.94946   7486013.30143  25228171.5084                   25228171.3164
        38.2504         22.0004
 -24506169.02048 -19071780.43047  20812918.0634                   20812913.2384
        48.0004         47.0004
 -18110414.36747 -14077219.79345  21845744.0864                   21845741.0784
        45.0004         33.7504
 25  7  2  2  3  0.0000000  0  9G09G02G16G03G28G04G26G31G01
   -697923.88746   -447048.72344  24532619.5164                   24532621.1884
        39.7504         28.2504
 -11006130.87946  -8539690.30944  23685410.2344                   23685407.6564
        41.0004         26.7504
  -9693737.02746  -7506934.73444  23088751.9064                   23088748.8324
        41.0004         25.5004
 -25351089.95748 -19735306.81248  20069181.3674                   20069179.0984
        48.7504         51.7504
 -12744679.93047  -9906296.75044  23261372.3134                   23261368.6334
        43.5004         29.2504
 -17516438.21147 -13630115.14545  21721533.5474                   21721531.4264
        45.2504         33.5004
 -18242290.93447 -14195179.49247  21650137.2114                   21650136.5634
        46.0004         43.0004
 -24447382.62948 -19025972.87547  20824104.8754                   20824100.1804
        48.5004         47.0004
 -18049459.71547 -14029722.73045  21857343.1414                   21857340.6844
        45.0004         33.5004
 25  7  2  2  3 30.0000000  0  9G09G02G16G03G28G04G26G31G01
   -780635.84046   -511499.47344  24516879.4924                   24516881.3954
        39.5004         28.7504
 -10925375.30146  -8476764.06244  23700777.3754                   23700775.0664
        41.5004         27.7504
  -9798771.53946  -7588779.67643  23068763.9144                   23068761.4964
        41.0004         23.5004
 -25391346.24248 -19766675.33248  20061520.5164                   20061518.4924
        49.2504         51.7504
 -12656171.73447  -9837329.36344  23278214.9774                   23278211.6994
        43.5004         29.2504
 -17572573.48047 -13673856.88345  21710851.4064                   21710848.9964
        45.0004         33.0004
 -18290003.51647 -14232358.09447  21641057.8284                   21641057.3284
        45.5004         43.2504
 -24388182.73447 -18979843.10247  20835369.9694                   20835365.3874
        46.5004         46.5004
 -17988105.17647 -13981914.05945  21869018.5704                   21869016.0904
        44.0004         33.0004
 25  7  2  2  4  0.0000000  0  9G09G02G16G03G28G04G26G31G01
   -863311.69146   -575922.09844  24501146.4774                   24501148.7974
        37.7504         29.5004
 -10844532.40246  -8413769.78944  23716161.3134                   23716159.0004
        40.7504         28.0004
  -9903638.72346  -7670494.24244  23048808.2274                   23048805.5554
        41.0004         24.7504
 -25431117.03548 -19797665.54748  20053952.9384                   20053950.9614
        48.2504         51.5004
 -12567508.29347  -9768241.02044  23295087.2974                   23295083.0044
        43.2504         27.7504
 -17628563.66047 -13717485.57445  21700196.6334                   21700194.0514
        45.2504         33.2504
 -18337166.30947 -14269108.28547  21632082.8834                   21632082.3204
        46.0004         43.2504
 -24328556.07047 -18933380.78547  20846716.8594                   20846712.3554
        47.5004         46.5004
 -17926337.53147 -13933783.48845  21880772.7584                   21880770.7194
        45.0004         33.2504
 25  7  2  2  4 30.0000000  0  9G09G02G16G03G28G04G26G31G01
   -945944.33646   -640311.05944  24485421.7664                   24485423.3404
        38.2504         29.7504
 -10763597.80146  -8350704.07444  23731562.5864                   23731560.9694
        41.2504         26.2504
 -10008327.87146  -7752070.08643  23028886.1724                   23028884.1134
        40.0004         22.7504
 -25470393.28148 -19828270.40648  20046478.8524                   20046476.9264
        48.2504         51.7504
 -12478684.73047  -9699027.89544  23311989.1564                   23311985.6524
        42.5004         28.0004
 -17684401.64547 -13760995.66445  21689571.5634                   21689568.5864
        45.2504         33.0004
 -18383770.07047 -14305422.87947  21623214.5004                   21623214.2974
        45.5004         43.0004
 -24268497.77347 -18886582.13347  20858145.7424                   20858140.9184
        46.7504         46.5004
 -17864152.38347 -13885327.59445  21892606.1644                   21892603.5004
        45.5004         32.2504
 25  7  2  2  5  0.0000000  0  9G09G02G16G03G28G04G26G31G01
  -1028539.64146   -704670.89544  24469704.4844                   24469705.6994
        38.0004         29.2504
 -10682580.30546  -8287573.77044  23746980.1414                   23746977.8014
        41.2504         27.5004
 -10112841.18046  -7833508.89844  23008998.1954                   23008995.6094
        41.0004         25.2504
 -25509178.85247 -19858492.91448  20039097.8754                   20039095.9654
        47.5004         51.7504
 -12389709.01247  -9629696.20344  23328921.0234                   23328917.5594
        42.5004         26.5004
 -17740093.10947 -13804391.59045  21678973.5474                   21678970.6604
        45.2504         33.7504
 -18429818.48047 -14341304.71547  21614451.9844                   21614451.1254
        46.5004         43.2504
 -24208016.58647 -18839453.95347  20869655.3594                   20869650.4224
        47.5004         46.5004
 -17801558.27747 -13836553.02745  21904517.2114                   21904514.7934
        45.2504         32.7504
 25  7  2  2  5 30.0000000  0  9G09G02G16G03G28G04G26G31G01
  -1111103.89845   -769006.53944  24453993.0944                   24453994.6724
        35.7504         29.5004
 -10601488.80946  -8224385.79744  23762411.2974                   23762409.2074
        41.0004         25.5004
 -10217181.65646  -7914813.03544  22989142.8594                   22989140.2114
        41.2504         25.7504
 -25547478.12548 -19888336.49248  20031809.7194                   20031807.9884
        48.2504         51.7504
 -12300589.62946  -9560252.57444  23345879.9844                   23345876.3954
        41.7504         27.7504
 -17795644.35247 -13847678.25045  21668402.1884                   21668399.3754
        45.2504         34.0004
 -18475315.65247 -14376757.02347  21605794.0394                   21605793.5124
        46.5004         43.5004
 -24147121.15247 -18792002.98447  20881242.6484                   20881238.2464
        47.7504         46.7504
 -17738564.27047 -13787466.84845  21916504.9694                   21916502.1054
        45.2504         33.0004
 25  7  2  2  6  0.0000000  0  9G09G02G16G03G28G04G26G31G01
  -1193639.94145   -833320.17644  24438286.6174                   24438288.4104
        34.5004         28.5004
 -10520328.74646  -8161144.39544  23777855.6254                   23777853.8754
        40.7504         27.2504
 -10321348.70346  -7995982.04744  22969320.3284                   22969317.4574
        41.2504         24.5004
 -25585292.01248 -19917801.84848  20024614.1414                   20024612.2504
        48.7504         51.7504
 -12211331.58647  -9490700.88744  23362865.2894                   23362861.4264
        42.2504         26.0004
 -17851058.16047 -13890857.81645  21657857.3674                   21657854.7624
        45.0004         33.5004
 -18520262.37947 -14411780.41847  21597241.0314                   21597240.4144
        46.2504         43.2504
 -24085817.03547 -18744233.55947  20892908.7114                   20892903.9304
        47.7504         46.7504
 -17675175.94547 -13738073.42245  21928567.2424                   21928564.8444
        46.0004         33.5004
 25  7  2  2  6 30.0000000  0  9G09G02G16G03G28G04G26G31G01
  -1276148.14145   -897612.12944  24422585.4454                   24422587.0434
        35.5004         27.0004
 -10439103.26246  -8097852.03944  23793313.0084                   23793311.0474
        40.7504         25.5004
 -10425340.00446  -8077014.12144  22949531.1884                   22949528.5434
        41.5004         24.2504
 -25622618.98048 -19946887.79348  20017511.2274                   20017509.3794
        48.5004         51.7504
 -12121937.40647  -9421043.13744  23379875.9534                   23379872.8014
        42.0004         27.7504
 -17906334.82847 -13933930.51245  21647338.5314                   21647336.1134
        45.5004         33.7504
 -18564656.86347 -14446373.49647  21588793.0084                   21588792.2544
        46.7504         43.2504
 -24024106.98848 -18696147.82847  20904651.7664                   20904647.0824
        48.0004         46.5004
 -17611396.43047 -13688375.16445  21940704.5004                   21940701.5234
        46.5004         33.0004
 25  7  2  2  7  0.0000000  0  9G09G02G16G03G28G04G26G31G01
  -1358631.50845   -961884.73844  24406889.6724                   24406891.5234
        35.2504         27.7504
 -10357817.96146  -8034513.07044  23808781.1954                   23808778.9964
        40.7504         25.5004
 -10529153.72746  -8157907.80944  22929775.7974                   22929773.1374
        41.5004         24.0004
 -25659460.10947 -19975595.16448  20010500.5554                   20010498.6054
        47.7504         51.7504
 -12032412.20747  -9351283.29344  23396912.5314                   23396908.9064
        42.0004         26.7504
 -17961477.25447 -13976898.61745  21636845.3204                   21636842.8524
        45.5004         33.5004
 -18608500.07447 -14480537.00447  21580449.6644                   21580449.2154
        46.2504         43.5004
 -23961996.50047 -18647750.06647  20916471.0864                   20916466.6414
        47.5004         46.7504
 -17547231.52047 -13638376.60245  21952914.3674                   21952912.0204
        46.0004         33.0004
 25  7  2  2  7 30.0000000  0  9G09G02G16G03G28G04G26G31G01
  -1441090.60946  -1026138.46144  24391198.1174                   24391199.5554
        36.0004         29.2504
 -10276476.35546  -7971130.21943  23824259.7344                   23824258.0864
        40.5004         23.2504
 -10632787.16447  -8238661.00844  22910055.5944                   22910052.6374
        42.2504         24.5004
 -25695814.20348 -20003923.02348  20003582.5394                   20003580.4534
        48.7504         51.7504
 -11942758.79347  -9281423.53944  23413972.7974                   23413969.5084
        42.0004         27.0004
 -18016485.99647 -14019762.54345  21626377.6254                   21626374.8014
        45.7504         34.0004
 -18651790.62947 -14514269.87147  21572212.3524                   21572210.9734
        46.5004         43.5004
 -23899489.16447 -18599043.06647  20928366.0474                   20928361.4224
        46.5004         46.7504
 -17482684.66047 -13588080.41045  21965197.2664                   21965194.7384
        43.7504         33.0004
 25  7  2  2  8  0.0000000  0  9G09G02G16G03G28G04G26G31G01
  -1523518.57046  -1090367.91445  24375512.5704                   24375513.9614
        36.7504         30.0004
 -10195074.02746  -7907700.04343  23839750.5634                   23839748.7934
        39.7504         22.5004
 -10736230.41046  -8319266.02744  22890370.8984                   22890368.1994
        41.5004         26.7504
 -25731672.42648 -20031864.49248  19996759.1334                   19996756.9804
        48.7504         51.7504
 -11852972.36346  -9211460.14144  23431058.1804                   23431055.9144
        41.0004         27.7504
 -18071354.10547 -14062516.89145  21615936.4614                   21615933.8444
        45.7504         34.0004
 -18694519.53947 -14547565.09847  21564080.9844                   21564080.0744
        46.7504         43.2504
 -23836580.44548 -18550023.30547  20940336.7274                   20940332.3914
        48.0004         46.5004
 -17417751.67647 -13537483.35545  21977553.5474                   21977551.1174
        45.2504         33.0004
 25  7  2  2  8 30.0000000  0  9G09G02G16G03G28G04G26G31G01
  -1605922.07446  -1154578.28145  24359831.8284                   24359833.2814
        36.5004         30.7504
 -10113620.28146  -7844229.79743  23855250.6414                   23855248.6804
        39.2504         22.0004
 -10839486.27347  -8399725.02744  22870721.9924                   22870718.8914
        42.2504         26.7504
 -25767039.62148 -20059423.33248  19990028.8134                   19990026.5664
        48.2504         51.7504
 -11763061.75046  -9141399.98444  23448168.1884                   23448165.2464
        40.2504         27.5004
 -18126088.14847 -14105166.76645  21605521.0164                   21605518.5904
        45.2504         34.5004
 -18736691.56647 -14580426.39147  21556055.5554                   21556055.0004
        46.2504         43.5004
 -23773279.67247 -18500698.05147  20952382.6484                   20952378.0864
        47.2504         46.5004
 -17352442.11347 -13486592.85245  21989981.5004                   21989979.0984
        45.0004         32.7504
