     2.11           OBSERVATION DATA    G (GPS)             RINEX VERSION / TYPE
teqc  2019Feb25     K Rivera            20250821 09:28:45UTCPGM / RUN BY / DATE
Linux 2.6.32-573.12.1.x86_64|x86_64|gcc -static|Linux 64|=+ COMMENT
teqc  2019Feb25                         20250821 09:25:46UTCCOMMENT
BIT 2 OF LLI FLAGS DATA COLLECTED UNDER A/S CONDITION       COMMENT
6025                                                        MARKER NAME
                                                            MARKER NUMBER
KMR & KMB           University of California, Riverside     OBSERVER / AGENCY
0220413516          TRIMBLE R7          2.32                REC # / TYPE / VERS
0220413516          TRM41249.00                             ANT # / TYPE
 -2433061.0252 -4666213.3685  3593449.0112                  APPROX POSITION XYZ
        1.1849        0.0000        0.0000                  ANTENNA: DELTA H/E/N
     1     1                                                WAVELENGTH FACT L1/2
     7    L1    L2    C1    P1    P2    S1    S2            # / TYPES OF OBSERV
    18                                                      LEAP SECONDS
 SNR is mapped to RINEX snr flag value [0-9]                COMMENT
  L1 & L2: min(max(int(snr_dBHz/6), 0), 9)                  COMMENT
  2025     6    30    19     2   30.0000000     GPS         TIME OF FIRST OBS
                                                            END OF HEADER
 25  6 30 19  2 30.0000000  0  5G13G23G15G18G10
    -42517.49656    -21481.21953  23425833.4614                   23425833.9304
        40.2504         22.5004
   -151214.68057    -95893.02756  20513364.6024                   20513363.3754
        47.0004         40.7504
   -103500.98857    -65708.44157  21174794.5864                   21174793.6644
        45.0004         44.0004
   -172177.99657   -122921.84056  21038755.5164                   21038754.5984
        45.7504         38.5004
   -321309.22357   -203332.33657  22965218.0394                   22965220.7704
        43.5004         42.5004
 25  6 30 19  3  0.0000000  0  6G13G23G15G29G18G10
    -72072.08646    -44510.84843  23420210.1484                   23420210.4184
        39.7504         22.7504
   -247552.53147   -170961.50446  20495032.3594                   20495030.8984
        47.0004         40.5004
   -168941.57847   -116701.11747  21162341.8204                   21162340.9414
        46.5004         44.0004
     -7196.28157     -4822.09057  21893946.2504                   21893945.9104
        45.2504         43.5004
   -265882.42247   -195938.30146  21020924.5004                   21020923.1214
        47.0004         38.2504
   -475192.67247   -323241.49646  22935934.3984                   22935937.2274
        42.5004         41.2504
 25  6 30 19  3 30.0000000  0  7G13G23G15G16G29G18G10
   -101566.82846    -67493.79743  23414597.1174                   23414597.5394
        40.2504         22.7504
   -343977.77747   -246098.07446  20476683.1024                   20476681.6764
        47.5004         40.7504
   -234216.44547   -167564.68047  21149920.6564                   21149919.1024
        46.5004         44.0004
   -354106.25856   -240723.51653  23543841.4694                   23543840.8164
        40.7504         21.5004
    -11487.43747     -8165.94147  21893130.4774                   21893129.5234
        46.2504         43.5004
   -359862.16848   -269169.29746  21003040.9304                   21003039.1134
        48.0004         38.0004
   -629270.93047   -443302.45346  22906614.5704                   22906617.1804
        43.7504         41.7504
 25  6 30 19  4  0.0000000  0  7G13G23G15G16G29G18G10
   -131003.95346    -90431.91843  23408996.2734                   23408996.1414
        40.5004         22.5004
   -440491.86347   -321303.88346  20458317.2584                   20458315.6844
        47.0004         41.0004
   -299326.48847   -218299.80947  21137530.7034                   21137528.7894
        47.0004         44.2504
   -436620.31246   -305020.18043  23528139.0704                   23528138.9384
        39.0004         20.5004
    -15869.54747    -11580.66047  21892296.6094                   21892295.8594
        46.2504         43.5004
   -454117.08647   -342614.70746  20985104.7584                   20985103.4304
        46.2504         38.7504
   -783544.10247   -563515.28546  22877257.1254                   22877259.8554
        44.7504         41.0004
 25  6 30 19  4 30.0000000  0  7G13G23G15G16G29G18G10
   -160392.03946   -113331.72343  23403402.6094                   23403403.7814
        38.0004         22.5004
   -537102.62147   -396585.01246  20439932.6484                   20439931.3834
        46.7504         40.5004
   -364279.48447   -268912.58247  21125170.4614                   21125169.0554
        47.5004         44.0004
   -519069.27746   -369266.20743  23512450.3054                   23512449.3244
        40.5004         20.0004
    -20351.11347    -15072.89147  21891443.5474                   21891442.9184
        46.2504         42.7504
   -548653.40647   -416279.40246  20967115.0784                   20967113.7304
        47.0004         38.5004
   -938018.77047   -683885.12546  22847861.8834                   22847863.5904
        43.7504         40.7504
 25  6 30 19  5  0.0000000  0  8G13G23G15G16G29G18G10G05
   -189671.74246   -136147.17643  23397831.5944                   23397833.0784
        39.5004         22.7504
   -633749.87147   -471894.57846  20421541.5314                   20421540.0204
        46.5004         40.7504
   -429015.14847   -319355.99247  21112851.6094                   21112850.1054
        47.0004         44.0004
   -601392.55146   -433414.23043  23496784.5084                   23496783.5274
        40.5004         20.5004
    -24872.83247    -18596.38747  21890583.2194                   21890582.3014
        45.7504         43.0004
   -643409.28147   -490115.17646  20949083.4844                   20949082.2934
        45.7504         38.5004
  -1092633.35247   -804364.00446  22818439.5004                   22818441.5824
        44.7504         40.2504
     23453.72356     15680.98852  25088760.0784                   25088763.8954
        40.0004         17.7504
 25  6 30 19  5 30.0000000  0  8G13G23G15G16G29G18G10G05
   -218816.61346   -158857.55543  23392286.2274                   23392286.6844
        39.5004         23.5004
   -730405.87547   -547210.95746  20403148.4924                   20403146.8594
        47.0004         40.5004
   -493505.37147   -369608.14847  21100579.8594                   21100578.4804
        45.7504         43.5004
   -683562.54746   -497442.82443  23481147.7734                   23481147.2704
        41.0004         20.7504
    -29407.74647    -22130.18447  21889720.5634                   21889719.6294
        46.2504         42.7504
   -738355.35947   -564099.15246  20931015.7814                   20931014.5004
        47.0004         38.2504
  -1247358.92247   -924929.34846  22788996.3524                   22788998.2734
        45.0004         39.5004
     36006.68446     22659.73853  25091149.8674                   25091147.1214
        41.0004         21.0004
 25  6 30 19  6  0.0000000  0  8G13G23G15G16G29G18G10G05
   -247803.69546   -181444.98043  23386770.1484                   23386770.7504
        41.5004         23.0004
   -827046.75447   -622515.55146  20384758.3364                   20384756.7034
        46.5004         41.5004
   -557726.42247   -419650.55147  21088358.9774                   21088357.7154
        47.0004         43.5004
   -765555.59046   -561333.57843  23465545.4304                   23465544.8014
        39.5004         21.7504
    -33932.47347    -25656.04747  21888859.3594                   21888858.4654
        45.5004         42.5004
   -833466.08647   -638211.43046  20912916.8524                   20912915.6414
        47.0004         37.7504
  -1402170.19547  -1045561.45346  22759536.8204                   22759538.9144
        45.0004         40.0004
     48137.59046     32112.32844  25093458.6724                   25093458.6414
        40.7504         25.0004
 25  6 30 19  6 30.0000000  0  8G13G23G15G16G29G18G10G05
   -276615.69146   -203895.93743  23381286.6564                   23381287.0744
        40.5004         22.0004
   -923654.53547   -697794.36346  20366374.1094                   20366372.6994
        47.2504         40.5004
   -621659.88347   -469468.85247  21076192.6094                   21076191.5124
        45.2504         43.7504
   -847353.27746   -625072.09043  23449980.3134                   23449979.7664
        40.7504         21.0004
    -38430.04747    -29160.74646  21888003.6804                   21888002.4694
        44.7504         40.7504
   -928721.80947   -712436.69546  20894790.1564                   20894788.6804
        46.5004         38.0004
  -1557047.99247  -1166245.40246  22730064.3674                   22730066.2194
        45.2504         40.0004
     59863.51646     41249.28544  25095689.9454                   25095690.5824
        40.0004         25.5004
 25  6 30 19  7  0.0000000  0  8G13G23G15G16G29G18G10G05
   -305239.36346   -226200.12943  23375839.7194                   23375840.7734
        39.5004         20.0004
  -1020214.80547   -773036.14846  20347999.6484                   20347998.5554
        46.0004         40.7504
   -685291.37147   -519051.85547  21064084.1484                   21064082.8874
        45.7504         44.0004
   -928941.62146   -688647.46543  23434454.4064                   23434454.2544
        39.7504         21.2504
    -42886.82047    -32633.66846  21887155.2034                   21887154.4694
        43.7504         41.0004
  -1024106.44947   -786762.42246  20876639.4304                   20876637.7344
        46.5004         38.2504
  -1711976.54347  -1286968.89146  22700582.6024                   22700584.2384
        47.2504         41.2504
     71198.91046     50081.97345  25097847.0864                   25097848.1764
        40.5004         30.5004
 25  6 30 19  7 30.0000000  0  8G13G23G15G16G29G18G10G05
   -333656.61746   -248343.48043  23370432.1954                   23370432.9104
        41.0004         22.0004
  -1116708.82047   -848226.30546  20329637.5864                   20329636.1214
        47.0004         39.7504
   -748601.97747   -568384.82447  21052036.5944                   21052035.2704
        46.0004         44.5004
  -1010301.52746   -752044.84843  23418971.6024                   23418972.1764
        40.2504         21.5004
    -47285.24647    -36061.10246  21886318.4844                   21886317.7344
        44.5004         41.5004
  -1119599.50447   -861172.61746  20858467.1644                   20858465.8284
        45.7504         37.7504
  -1866935.82847  -1407716.34047  22671094.8284                   22671096.5704
        46.5004         42.0004
     82161.89846     58624.48044  25099933.5784                   25099934.2234
        39.0004         29.0004
 25  6 30 19  8  0.0000000  0  8G13G23G15G16G29G18G10G05
   -361829.94946   -270296.80543  23365072.0164                   23365072.6524
        41.5004         22.0004
  -1213097.94547   -923334.73046  20311295.3594                   20311293.4694
        47.5004         40.2504
   -811553.31647   -617437.84047  21040057.1174                   21040055.8404
        45.7504         44.2504
  -1091394.44146   -815234.25443  23403540.3444                   23403539.9264
        40.0004         20.7504
    -51587.18747    -39413.35547  21885500.1334                   21885499.4184
        44.7504         43.0004
  -1215160.66847   -935635.88346  20840282.5554                   20840281.5634
        47.2504         38.0004
  -2021885.82447  -1528456.55547  22641609.0004                   22641610.8754
        45.5004         42.5004
     92791.47346     66907.16044  25101956.4614                   25101957.7464
        37.2504         29.2504
 25  6 30 19  8 30.0000000  0  8G13G23G15G16G29G18G10G05
   -389728.70746   -292036.15643  23359762.8444                   23359762.7734
        41.2504         22.0004
  -1309350.52047   -998336.75046  20292979.0704                   20292977.4104
        46.2504         40.2504
   -874113.98847   -666186.44947  21028152.5004                   21028150.8874
        46.2504         44.0004
  -1172189.16846   -878191.19943  23388165.9924                   23388164.8404
        41.0004         19.7504
    -55761.41447    -42666.09047  21884705.8284                   21884705.3014
        45.0004         43.2504
  -1310756.57047  -1010126.21946  20822091.6954                   20822089.9844
        47.2504         37.7504
  -2176793.66047  -1649163.92247  22612130.8134                   22612132.2544
        45.7504         43.0004
    103118.48045     74954.05144  25103920.2424                   25103922.8204
        33.2504         26.5004
 25  6 30 19  9  0.0000000  0  9G13G23G15G27G16G29G18G10G05
   -417379.69946   -313582.43043  23354500.6024                   23354499.7584
        41.5004         20.5004
  -1405492.05547  -1073252.24246  20274683.8834                   20274682.6454
        47.5004         39.5004
   -936308.45747   -714649.69947  21016316.8834                   21016315.6334
        45.0004         43.5004
   -767012.55156   -548330.02055  23915630.3054                   23915631.9844
        39.2504         31.7504
  -1252710.98046   -940935.49643  23372843.9064                   23372842.5594
        41.0004         21.5004
    -59834.59847    -45840.10247  21883930.6884                   21883930.2704
        45.7504         43.2504
  -1406411.01647  -1084662.17246  20803889.0164                   20803887.3554
        47.2504         38.0004
  -2331683.60547  -1769857.37547  22582656.1884                   22582657.9574
        45.0004         43.0004
                                  25105824.4694                   25105826.4304
        30.5004         22.5004
 25  6 30 19  9 30.0000000  0 10G13G23G15G27G26G16G29G18G10G05
   -444797.13746   -334946.75443  23349283.9384                   23349283.3284
        40.7504         20.5004
  -1501536.03547  -1148091.71146  20256407.1334                   20256405.7894
        46.2504         39.5004
   -998150.81647   -762838.57447  21004549.0704                   21004547.6684
        45.0004         43.2504
   -956695.37146   -696134.71545  23879534.4384                   23879536.4964
        39.0004         31.7504
    -38193.04355    -21694.07854  23946825.3594                   23946829.6484
        35.2504         25.0004
  -1332973.73846  -1003477.98043  23357569.6174                   23357569.3164
        40.2504         19.5004
    -63821.03147    -48946.49247  21883172.1564                   21883171.8164
        44.5004         43.0004
  -1502135.70347  -1159252.85946  20785673.2034                   20785671.6954
        47.2504         38.2504
  -2486567.74247  -1890546.29747  22553183.0394                   22553184.8204
        43.7504         43.0004
                                  25107662.0084                   25107663.9614
        34.0004         21.7504
 25  6 30 19 10  0.0000000  0  9G13G23G15G27G26G16G29G18G10
   -471972.52746   -356122.42643  23344111.9224                   23344112.2424
        40.7504         22.7504
  -1597473.30547  -1222848.03946  20238151.0394                   20238149.4844
        47.7504         39.5004
  -1059631.87947   -810745.92247  20992849.2974                   20992848.1374
        45.5004         44.0004
  -1146451.30546   -843996.41445  23843425.1644                   23843427.4414
        39.0004         31.2504
    -71076.46945    -47317.66444  23940568.3524                   23940571.9884
        35.5004         24.2504
  -1412967.84446  -1065811.08643  23342347.6094                   23342347.2664
        39.5004         20.5004
    -67712.46947    -51978.87547  21882431.4304                   21882431.8164
        44.0004         42.2504
  -1597919.71147  -1233889.76646  20767446.1094                   20767444.7854
        46.5004         38.0004
  -2641435.67247  -2011222.59447  22523712.2504                   22523714.4734
        44.0004         42.7504
 25  6 30 19 10 30.0000000  0  9G13G23G15G27G26G16G29G18G10
   -498898.26246   -377103.59443  23338988.1884                   23338988.5084
        40.7504         21.5004
  -1693294.96547  -1297514.28146  20219916.7664                   20219915.1804
        47.5004         40.0004
  -1120742.89847   -858364.93447  20981220.6094                   20981219.2664
        46.5004         44.0004
  -1336267.87546   -991905.38345  23807304.4694                   23807307.4304
        38.7504         33.0004
   -103956.23046    -72938.33644  23934311.5554                   23934314.3284
        36.5004         24.7504
  -1492684.75046  -1127928.25843  23327178.0704                   23327177.4924
        40.5004         20.0004
    -71500.76247    -54930.87947  21881711.0234                   21881710.8324
        45.0004         42.5004
  -1693752.33647  -1308564.55146  20749209.8984                   20749208.7504
        47.2504         37.5004
  -2796277.18447  -2131878.28947  22494246.9614                   22494248.6294
        44.0004         42.5004
 25  6 30 19 11  0.0000000  0  9G13G23G15G27G26G16G29G18G10
   -525567.21546   -397884.62143  23333912.6644                   23333913.7154
        39.5004         21.5004
  -1788992.42647  -1372083.75046  20201705.8524                   20201704.4774
        47.2504         39.5004
  -1181475.18047   -905688.81647  20969663.5394                   20969662.1374
        47.7504         44.5004
  -1526133.00846  -1139852.19145  23771174.0704                   23771177.1954
        38.0004         31.7504
   -136825.42246    -98550.81644  23928056.0474                   23928061.0904
        36.5004         26.0004
  -1572115.96946  -1189822.76243  23312062.6094                   23312061.5664
        40.5004         20.7504
    -75178.37947    -57796.66846  21881011.2034                   21881011.1174
        45.0004         41.5004
  -1789623.25847  -1383269.18446  20730966.3984                   20730964.9224
        46.5004         37.7504
  -2951082.41047  -2252505.72347  22464788.6334                   22464790.2114
        44.2504         43.2504
 25  6 30 19 11 30.0000000  0  9G13G23G15G27G26G16G29G18G10
   1023448.64146    809140.65643  23628681.1644                   23628681.6254
        38.2504         20.5004
   -309134.87947   -218948.01246  20483313.8594                   20483311.9734
        47.7504         40.0004
    333600.75447    274889.80547  21257973.3054                   21257971.9494
        47.0004         44.0004
   -140608.96146    -60223.06645  24034830.3204                   24034833.1294
        37.5004         30.7504
   1405742.97346   1103450.42644  24221597.7504                   24221601.7974
        37.5004         27.2504
    -75831.69946    -23886.98843  23596796.3054                   23596795.4304
        41.2504         22.5004
   1496681.89847   1167029.41046  22180126.2974                   22180125.5554
        44.5004         41.0004
   -310099.79347   -230393.78146  21012510.0084                   21012508.9104
        46.7504         37.7504
  -1530417.23847  -1145493.88747  22735131.7814                   22735133.6844
        44.0004         43.0004
 25  6 30 19 12  0.0000000  0  9G13G23G15G27G26G16G29G18G10
    997313.87546    788775.82043  23623708.2584                   23623707.9694
        38.0004         18.2504
   -404561.02047   -293306.06246  20465154.5474                   20465152.9384
        46.5004         40.0004
    273648.55547    228173.78147  21246564.5394                   21246563.0234
        47.0004         43.7504
   -330537.10946   -208218.96945  23998687.8284                   23998690.0864
        38.2504         31.2504
   1372912.73446   1077868.28144  24215350.3524                   24215355.3594
        38.0004         27.7504
   -154669.26246    -85318.89843  23581794.0704                   23581793.8714
        41.2504         22.2504
   1493246.77747   1164352.59046  22179472.9224                   22179471.6054
        44.5004         40.5004
   -406018.91047   -305135.96146  20994257.1024                   20994255.8914
        46.5004         38.2504
  -1685123.11347  -1266043.89847  22705692.6484                   22705694.5984
        44.5004         43.5004
 25  6 30 19 12 30.0000000  0  9G13G23G15G27G26G16G29G18G10
    971454.79346    768625.84042  23618787.0314                   23618786.5234
        38.2504         17.7504
   -499841.12548   -367550.30546  20447023.2664                   20447021.7584
        49.2504         39.7504
    214096.67247    181769.68447  21235232.1174                   21235230.6524
        46.5004         43.5004
   -520480.95746   -356227.04745  23962543.1174                   23962545.6564
        38.5004         31.0004
   1340109.73846   1052307.37144  24209107.8674                   24209112.3094
        37.2504         25.2504
   -233199.90646   -146511.71943  23566850.0554                   23566849.5824
        40.5004         21.0004
   1489942.05947   1161777.38746  22178843.7344                   22178842.8914
        44.2504         41.2504
   -501948.98047   -379886.69146  20976002.2584                   20976001.3094
        46.7504         37.2504
  -1839767.00447  -1386545.60947  22676264.6644                   22676266.6684
        45.0004         44.0004
 25  6 30 19 13  0.0000000  0  9G13G23G15G27G26G16G29G18G10
    945876.74646    748694.74643  23613919.9924                   23613919.7344
        38.2504         19.2504
   -594969.01248   -441675.95746  20428921.2274                   20428919.6454
        48.0004         39.5004
    154951.10547    135682.19547  21223977.4384                   21223975.5664
        47.2504         43.7504
   -710430.69546   -504239.79345  23926395.9614                   23926400.0784
        36.2504         30.2504
   1307338.46546   1026771.21544  24202871.0474                   24202875.7894
        36.2504         24.5004
   -311417.47346   -207460.54343  23551965.2034                   23551965.0124
        39.5004         19.5004
   1486772.88747   1159307.80947  22178240.7504                   22178240.7154
        44.5004         42.0004
   -597882.05147   -454639.74646  20957746.9064                   20957745.8364
        46.5004         37.0004
  -1994341.42247  -1506993.18447  22646850.2194                   22646851.6994
        45.2504         44.5004
 25  6 30 19 13 30.0000000  0  9G13G23G15G27G26G16G29G18G10
    920582.23846    728984.69943  23609106.6884                   23609106.5434
        39.5004         18.5004
   -689941.00048   -515680.12946  20410848.7734                   20410846.8754
        49.7504         40.0004
     96215.44147     89914.10947  21212800.0004                   21212798.4494
        47.7504         43.5004
   -900378.85946   -652251.29344  23890250.5784                   23890253.6844
        38.2504         29.7504
   1274600.85545   1001261.33244  24196641.3054                   24196645.9264
        35.2504         24.0004
   -389318.69946   -268162.82843  23537141.2034                   23537141.1094
        39.2504         20.2504
   1483741.68047   1156945.73847  22177664.2114                   22177664.1954
        45.5004         43.2504
   -693812.59847   -529390.84046  20939492.0164                   20939490.5394
        45.5004         37.7504
  -2148841.47347  -1627382.79347  22617449.5784                   22617451.3204
        46.2504         44.7504
 25  6 30 19 14  0.0000000  0  9G13G23G15G27G26G16G29G18G10
    895583.15646    709504.78943  23604349.3134                   23604349.4224
        37.5004         19.5004
   -784744.15248   -589552.73446  20392808.2034                   20392806.3634
        48.0004         40.0004
     37902.37947     44475.33247  21201703.7114                   21201701.9774
        47.2504         43.5004
  -1090308.88746   -800248.69545  23854108.6724                   23854110.7034
        39.5004         30.5004
   1241908.12545    975786.41044  24190421.0864                   24190426.2194
        34.2504         24.7504
   -466890.57846   -328608.52743  23522379.5704                   23522379.2734
        39.0004         19.2504
   1480861.34047   1154701.22347  22177116.2664                   22177115.5004
        44.7504         42.0004
   -789725.78547   -604128.40246  20921240.4064                   20921238.9384
        46.7504         37.7504
  -2303252.90647  -1747703.35947  22588066.8444                   22588067.6914
        45.7504         44.0004
 25  6 30 19 14 30.0000000  0  9G13G23G15G27G26G16G29G18G10
    870887.55946    690261.42643  23599650.3054                   23599650.6604
        39.0004         18.2504
   -879369.14548   -663286.50846  20374801.6724                   20374799.7344
        48.0004         40.0004
    -19978.98447      -627.05947  21190689.0554                   21190687.7974
        47.7504         43.5004
  -1280207.72346   -948221.76244  23817971.3204                   23817974.2234
        39.0004         29.7504
   1209267.96945    950352.42244  24184208.9454                   24184214.9144
        33.5004         25.7504
   -544124.29346   -388790.70743  23507683.0314                   23507682.8984
        40.0004         21.0004
   1478140.09847   1152580.66446  22176598.5394                   22176597.4884
        44.5004         41.5004
   -885610.44547   -678843.73446  20902994.1024                   20902992.7974
        47.0004         37.7504
  -2457565.10247  -1867946.60547  22558701.5004                   22558703.0124
        46.5004         44.0004
 25  6 30 19 15  0.0000000  0  9G13G23G15G27G26G16G29G18G10
    846503.68446    671260.94142  23595010.2194                   23595009.8094
        38.0004         16.2504
   -973806.53547   -736874.10546  20356831.1334                   20356829.1804
        46.7504         40.0004
    -77419.26247    -45385.74247  21179758.2814                   21179757.2774
        47.5004         43.2504
  -1470062.21946  -1096160.31644  23781842.8754                   23781845.2034
        37.7504         29.0004
   1176688.18045    924965.44144  24178009.5554                   24178014.7734
        35.0004         26.0004
   -621010.54746   -448702.12143  23493052.5634                   23493051.9924
        41.0004         22.5004
   1475586.56647   1150590.79746  22176112.2814                   22176111.8094
        45.0004         40.5004
   -981455.19547   -753527.97746  20884755.6174                   20884753.9534
        45.5004         37.0004
  -2611767.43747  -1988104.23047  22529357.6724                   22529359.2854
        47.0004         43.5004
 25  6 30 19 15 30.0000000  0  9G13G23G15G27G26G16G29G18G10
    822430.81646    652502.84842  23590429.0394                   23590428.9024
        39.2504         17.7504
  -1068056.33647   -810315.52346  20338895.6564                   20338894.4264
        47.0004         40.5004
   -134418.62147    -89800.85547  21168911.8054                   21168910.9574
        47.2504         43.7504
  -1659868.70346  -1244061.44145  23745724.4924                   23745726.2114
        40.2504         31.7504
   1144167.01246    899624.12944  24171821.3674                   24171826.6524
        36.0004         28.2504
   -697549.57446   -508342.95343  23478487.5944                   23478486.8674
        41.0004         21.5004
   1473199.74647   1148730.81646  22175658.0394                   22175657.9774
        44.0004         40.5004
  -1077258.27047   -828179.73046  20866524.9064                   20866523.5594
        46.2504         38.0004
  -2765858.52347  -2108175.16047  22500035.0634                   22500037.1174
        46.0004         43.2504
 25  6 30 19 16  0.0000000  0  9G13G23G15G27G26G16G29G18G10
    798669.58246    633987.48443  23585907.7114                   23585907.4694
        39.2504         18.2504
  -1162116.54347   -883609.20346  20320996.8524                   20320994.8284
        46.7504         40.5004
   -190975.66047   -133871.30147  21158149.3204                   21158148.2734
        47.0004         44.0004
  -1849621.43046  -1391920.64545  23709615.5474                   23709617.2584
        40.2504         32.0004
   1111704.80146    874328.76644  24165645.2194                   24165648.2304
        36.5004         28.2504
   -773739.55146   -567711.82443  23463988.7974                   23463988.3134
        39.2504         20.7504
   1470980.61747   1147001.53146  22175236.2664                   22175236.0554
        44.0004         41.0004
  -1173015.64847   -902795.88346  20848303.0784                   20848301.3554
        47.2504         38.2504
  -2919835.12947  -2228156.88747  22470734.6414                   22470736.3134
        46.5004         42.5004
 25  6 30 19 16 30.0000000  0  9G13G23G15G27G26G16G29G18G10
    775220.47746    615715.38742  23581445.9924                   23581444.7704
        39.7504         17.2504
  -1255985.68048   -956753.99646  20303134.5004                   20303132.3244
        48.5004         40.5004
   -247088.95347   -177595.96147  21147471.6884                   21147470.4844
        47.2504         44.0004
  -2039315.17646  -1539733.93045  23673517.6644                   23673519.3914
        40.2504         32.2504
   1079301.23046    849079.12544  24159478.6024                   24159482.3954
        37.0004         28.7504
   -849579.59046   -626808.02043  23449557.4614                   23449557.0824
        40.0004         22.0004
   1468930.18047   1145403.69146  22174846.1644                   22174845.7154
        44.7504         41.0004
  -1268724.00447   -977373.84046  20830090.5164                   20830089.0944
        45.7504         37.5004
  -3073694.55947  -2348047.31247  22441455.8524                   22441457.4454
        47.0004         42.0004
 25  6 30 19 17  0.0000000  0 10G13G23G15G27G26G16G29G32G18G10
    752079.97346    597683.82042  23577041.7344                   23577041.7704
        38.0004         17.7504
  -1349666.06247  -1029751.70346  20285307.0234                   20285305.4224
        46.0004         40.5004
   -302760.77347   -220976.62947  21136877.6024                   21136876.3714
        47.7504         43.2504
  -2228948.44146  -1687500.10945  23637432.7734                   23637434.3014
        41.0004         33.0004
   1046952.40246    823872.11744  24153322.1484                   24153327.1684
        36.5004         29.5004
   -925071.97346   -685633.32043  23435191.1564                   23435191.6724
        40.0004         22.0004
   1467045.02347   1143934.64846  22174487.4304                   22174487.0124
        43.2504         40.7504
   1208586.10255    991878.68453  25172052.2584                   25172061.6604
        33.0004         22.0004
  -1364383.68047  -1051913.85946  20811886.7664                   20811885.6844
        45.7504         38.0004
  -3227437.80947  -2467847.18746  22412199.4224                   22412201.1484
        46.5004         41.5004
 25  6 30 19 17 30.0000000  0 10G13G23G15G27G26G16G29G32G18G10
    729249.12146    579893.49642  23572697.1334                   23572697.2774
        37.7504         17.2504
  -1443155.21947  -1102600.40246  20267517.1254                   20267515.4224
        47.0004         40.5004
   -357989.54347   -264012.06247  21126367.7504                   21126366.7464
        46.5004         43.5004
  -2418515.12146  -1835214.37945  23601359.3524                   23601361.0944
        41.7504         35.5004
   1014659.10546    798708.37145  24147178.0084                   24147182.7704
        37.2504         30.2504
  -1000214.57846   -744186.04743  23420893.0004                   23420892.0554
        40.0004         20.2504
   1465326.79747   1142595.66046  22174160.2974                   22174160.6644
        43.2504         40.5004
   1007528.42656    835210.59054  25133793.0084                   25133801.7274
        37.7504         26.0004
  -1459990.32047  -1126412.55946  20793693.4224                   20793691.8404
        47.5004         37.5004
  -3381061.19947  -2587553.67646  22382965.8674                   22382967.5434
        47.2504         41.0004
 25  6 30 19 18  0.0000000  0 10G13G23G15G27G26G16G29G32G18G10
    706723.18446    562340.77043  23568411.4224                   23568410.5864
        39.7504         18.5004
  -1536457.16047  -1175303.22746  20249762.0314                   20249760.6484
        47.7504         40.5004
   -412779.28947   -306705.40247  21115942.0164                   21115940.3554
        47.2504         43.5004
  -2608015.41046  -1982876.87945  23565298.5474                   23565300.7464
        41.2504         35.5004
    982415.62546    773583.45745  24141041.8984                   24141047.0084
        37.5004         31.5004
  -1075011.84046   -802469.72343  23406658.5704                   23406658.2894
        39.2504         20.0004
   1463770.30947   1141382.71546  22173864.8674                   22173863.6954
        43.5004         40.0004
    806248.48046    678369.26244  25095491.5784                   25095499.3444
        39.0004         25.0004
  -1555545.95747  -1200871.50846  20775509.8134                   20775508.3874
        46.7504         38.0004
  -3534567.41847  -2707168.87146  22353754.2114                   22353755.8674
        46.2504         41.0004
 25  6 30 19 18 30.0000000  0 10G13G23G15G27G26G16G29G32G18G10
    684502.16846    545025.58243  23564182.9774                   23564182.0234
        38.7504         18.5004
  -1629570.63747  -1247859.18746  20232043.2664                   20232041.7584
        47.0004         40.5004
   -467129.27047   -349056.07047  21105599.3914                   21105597.8134
        47.2504         43.5004
  -2797444.19546  -2130483.62945  23529251.0784                   23529253.2854
        40.7504         34.5004
    950221.57046    748497.03145  24134915.7504                   24134920.7584
        37.5004         32.0004
  -1149463.14146   -860483.77043  23392491.7504                   23392490.7974
        38.5004         20.0004
   1462376.51247   1140296.54346  22173599.6254                   22173599.0864
        44.2504         41.0004
    604751.00046    521358.41844  25057147.6884                   25057156.0514
        39.0004         24.0004
  -1651047.40647  -1275288.24246  20757336.3674                   20757335.1564
        45.5004         38.0004
  -3687954.00847  -2826690.84846  22324565.8204                   22324567.2734
        46.0004         40.5004
 25  6 30 19 19  0.0000000  0 10G13G23G15G27G26G16G29G32G18G10
    662587.78546    527949.36742  23560012.4064                   23560011.5824
        38.7504         16.7504
  -1722492.65247  -1320265.96546  20214360.8284                   20214359.0394
        46.5004         40.5004
   -521036.60947   -391061.82447  21095341.2194                   21095339.8914
        47.2504         43.5004
  -2986794.75846  -2278029.45345  23493217.4454                   23493220.6334
        39.0004         33.5004
    918078.15246    723450.11345  24128798.5784                   24128803.2274
        37.7504         32.5004
  -1223565.60946   -918226.02043  23378389.9844                   23378389.4304
        39.7504         19.2504
   1461147.39147   1139338.67246  22173365.2194                   22173365.3954
        43.7504         40.7504
    403042.59446    364183.15644  25018763.4694                   25018773.8754
        40.5004         27.0004
  -1746489.70347  -1349658.87946  20739174.4534                   20739173.5824
        45.2504         38.0004
  -3841216.71147  -2946116.28146  22295401.1094                   22295402.6804
        44.5004         41.0004
 25  6 30 19 19 30.0000000  0 10G13G23G15G27G26G16G29G32G18G10
    640979.12946    511111.37542  23555899.8134                   23555900.2194
        36.5004         17.7504
  -1815222.65247  -1392523.12546  20196714.8754                   20196713.2154
        46.5004         40.0004
   -574501.07447   -432722.47747  21085167.1414                   21085165.9064
        47.0004         43.0004
  -3176062.77046  -2425510.94545  23457201.9694                   23457205.2894
        39.0004         34.0004
    885984.42246    698441.90645  24122691.9384                   24122696.4304
        39.2504         34.7504
  -1297319.09446   -975696.29743  23364354.7584                   23364354.9804
        39.0004         19.5004
   1460082.52347   1138508.78946  22173162.8984                   22173162.6844
        44.0004         40.2504
    201127.21546    206846.78144  24980339.5864                   24980348.8324
        39.0004         26.5004
  -1841870.35947  -1423981.49246  20721024.0084                   20721022.6334
        45.2504         38.5004
  -3994353.69947  -3065443.78546  22266259.5474                   22266261.5514
        44.2504         41.2504
 25  6 30 19 20  0.0000000  0 10G13G23G15G27G26G16G29G32G18G10
   2195099.65246   1722114.29343  23851639.8364                   23851639.7664
        39.0004         20.5004
   -332334.10947   -237025.57846  20478899.1724                   20478897.6174
        46.5004         40.5004
    947902.03547    753565.64147  21374871.0004                   21374870.0164
        47.2504         43.2504
  -1789814.68746  -1345317.61345  23720995.6724                   23720999.5314
        38.5004         33.5004
   2429363.11746   1901074.52746  24416387.5474                   24416391.8444
        40.2504         36.5004
    204701.94946    194709.66443  23650180.5394                   23650179.5864
        39.7504         21.0004
   3034604.51247   2365408.94546  22472784.4694                   22472783.9414
        43.0004         39.2504
   1574438.77346   1276959.95344  25241672.0634                   25241679.0234
        39.7504         25.5004
   -361760.68447   -270649.29346  21002679.8984                   21002678.0594
        46.0004         38.5004
  -2571935.22747  -1957065.73046  22536937.4614                   22536938.7704
        43.0004         41.2504
 25  6 30 19 20 30.0000000  0 10G13G23G15G27G26G16G29G32G18G10
   2174109.69946   1705758.37143  23847646.7584                   23847646.7384
        40.0004         21.5004
   -424669.75447   -308975.44546  20461328.0864                   20461326.6454
        47.0004         40.0004
    895332.28147    712602.17247  21364867.1024                   21364866.2424
        47.7504         43.7504
  -1978895.84446  -1492653.55945  23685014.1804                   23685017.6724
        36.5004         33.5004
   2397373.99646   1876147.80546  24410300.1334                   24410304.8094
        40.7504         37.5004
    131655.66846    137790.40643  23636280.6884                   23636279.9964
        39.5004         21.2504
   3033875.82847   2364841.02746  22472645.8364                   22472645.2464
        44.5004         39.5004
   1372130.74646   1119317.55944  25203173.6484                   25203180.9574
        38.2504         24.7504
   -457001.67647   -344863.07846  20984555.9384                   20984554.3244
        47.2504         38.5004
  -2724806.82047  -2076186.44546  22507846.1644                   22507848.4574
        43.2504         41.7504
 25  6 30 19 21  0.0000000  0 10G13G23G15G27G26G16G29G32G18G10
   2153431.67246   1689645.57043  23843710.7664                   23843711.3284
        39.2504         20.7504
   -516804.05547   -380768.41446  20443795.6334                   20443794.0474
        47.0004         39.7504
    843213.70748    671990.27047  21354949.5784                   21354948.5744
        48.0004         43.5004
  -2167873.61746  -1639908.92245  23649053.3594                   23649056.3014
        39.0004         33.5004
   2365438.82446   1851263.11746  24404223.6334                   24404228.2704
        41.0004         36.5004
     58966.33246     81149.28943  23622448.2424                   23622447.7464
        40.0004         22.2504
   3033317.89547   2364406.15246  22472540.0234                   22472539.3834
        45.0004         40.5004
   1169635.88346    961529.56344  25164640.2114                   25164649.4024
        37.0004         27.5004
   -552165.68747   -419016.86746  20966447.0314                   20966445.1604
        46.5004         39.0004
  -2877539.62547  -2195199.00047  22478782.4304                   22478784.3324
        43.0004         42.0004
 25  6 30 19 21 30.0000000  0 10G13G23G15G27G26G16G29G32G18G10
   2133062.60946   1673773.51643  23839833.8594                   23839835.7074
        37.0004         19.7504
   -608738.64547   -452405.77346  20426301.1414                   20426299.6484
        47.0004         39.7504
    791543.82047    631727.99647  21345117.1564                   21345115.6024
        47.5004         43.0004
  -2356745.80946  -1787082.01645  23613112.6644                   23613114.3324
        40.0004         33.5004
   2333554.29746   1826417.89146  24398155.9384                   24398160.7974
        40.2504         36.0004
    -13367.70346     24785.04743  23608683.6024                   23608683.0084
        40.5004         22.0004
   3032928.41847   2364102.55146  22472465.9454                   22472465.1054
        45.0004         40.7504
    966956.15646    803597.56345  25126072.5004                   25126080.4844
        41.0004         31.5004
   -647252.34847   -493110.37546  20948352.3364                   20948351.2424
        46.2504         39.0004
  -3030134.09447  -2314103.76247  22449744.0084                   22449746.4924
        42.5004         43.0004
 25  6 30 19 22  0.0000000  0 10G13G23G15G27G26G16G29G32G18G10
   2113003.84446   1658143.19943  23836017.9844                   23836018.9344
        38.5004         20.7504
   -700470.96147   -523885.51646  20408845.2194                   20408843.6094
        47.7504         40.0004
    740324.75447    591817.01647  21335370.4774                   21335369.0784
        47.5004         42.7504
  -2545506.16046  -1934167.92645  23577192.4064                   23577194.9534
        37.7504         33.0004
   2301721.34046   1801612.87145  24392097.9924                   24392102.8204
        38.7504         35.5004
    -85344.71946    -31301.00443  23594986.6564                   23594986.4024
        39.5004         21.5004
   3032709.05147   2363931.51246  22472424.4844                   22472424.0394
        43.2504         40.2504
    764097.65646    645526.24644  25087468.9384                   25087476.7074
        39.0004         29.7504
   -742257.09447   -567140.06246  20930273.6644                   20930272.2734
        47.2504         38.5004
  -3182586.50447  -2432897.83247  22420733.8834                   22420735.6564
        43.0004         43.5004
 25  6 30 19 22 30.0000000  0 11G13G23G15G27G26G16G29G32G18G24G10
   2093253.87146   1642753.52043  23832259.9694                   23832259.5704
        40.2504         20.7504
   -792001.08648   -595207.70346  20391427.3364                   20391425.6844
        48.0004         40.2504
    689556.35548    552257.19147  21325709.2344                   21325707.7584
        48.0004         42.5004
  -2734150.76246  -2081163.65645  23541294.7974                   23541297.6054
        39.0004         33.2504
   2269938.35946   1776846.78945  24386050.2584                   24386054.5664
        38.2504         34.5004
   -156965.18446    -87109.23843  23581358.2664                   23581357.2344
        38.5004         21.2504
   3032658.87547   2363892.30546  22472414.4144                   22472415.0164
        43.0004         40.2504
    561064.06346    487318.50044  25048831.3754                   25048838.2704
        37.5004         25.0004
   -837177.91447   -641104.35246  20912210.8284                   20912209.4574
        47.2504         38.0004
   2837378.07456   2250649.31655  25214769.2894                   25214776.0864
        38.2504         30.5004
  -3334895.55147  -2551580.19147  22391750.2344                   22391752.0864
        43.7504         43.5004
 25  6 30 19 23  0.0000000  0 11G13G23G15G27G26G16G29G32G18G24G10
   2073808.16446   1627600.94143  23828559.6414                   23828559.4654
        41.0004         21.7504
   -883332.32447   -666374.92246  20374047.5164                   20374045.9104
        46.7504         40.0004
    639234.43848    513045.28547  21316133.2584                   21316132.0234
        48.0004         42.5004
  -2922679.15246  -2228068.87145  23505419.2424                   23505421.0084
        39.7504         34.7504
   2238200.24646   1752115.68845  24380011.0474                   24380015.4964
        39.2504         35.7504
   -228232.87546   -142642.61343  23567796.2734                   23567796.0634
        39.5004         20.5004
   3032773.59847   2363981.58646  22472436.6174                   22472436.0354
        44.5004         40.0004
    357855.54746    328974.42244  25010162.1884                   25010169.3014
        38.0004         27.0004
   -932016.14147   -715004.28146  20894163.4844                   20894162.2584
        46.0004         38.0004
   2667516.44946   2118289.69545  25182446.3914                   25182452.1454
        39.0004         31.0004
  -3487063.47347  -2670152.57047  22362793.4774                   22362795.1484
        44.7504         44.2504
 25  6 30 19 23 30.0000000  0 11G13G23G15G27G26G16G29G32G18G24G10
   2054665.45746   1612684.48043  23824916.2584                   23824916.6174
        40.2504         20.2504
   -974465.14847   -737387.52046  20356705.6804                   20356703.7344
        47.2504         40.0004
    589358.00447    474180.48447  21306642.1804                   21306640.8094
        47.7504         42.5004
  -3111087.98046  -2374880.88345  23469566.5474                   23469567.6604
        39.7504         33.7504
   2206504.96946   1727417.94146  24373979.0554                   24373984.2934
        40.2504         36.2504
   -299148.64146   -197901.71943  23554301.8914                   23554301.2194
        41.5004         20.7504
   3033051.82847   2364198.25046  22472489.6644                   22472489.5004
        45.2504         40.0004
    154475.39146    170496.63744  24971460.5554                   24971467.7464
        38.5004         26.7504
  -1026770.25047   -788838.66446  20876132.3834                   20876131.1294
        45.5004         37.0004
   2497549.96546   1985848.38345  25150101.7584                   25150108.5864
        38.2504         30.0004
  -3639089.43447  -2788614.33647  22333864.2814                   22333865.7504
        45.0004         44.7504
 25  6 30 19 24  0.0000000  0 11G13G23G15G27G26G16G29G32G18G24G10
   2035826.57446   1598004.74643  23821331.7584                   23821331.2154
        41.0004         20.7504
  -1065397.14547   -808243.64546  20339402.0314                   20339400.5274
        46.5004         39.5004
    539929.19548    435664.48047  21297236.8444                   21297235.2074
        48.5004         43.5004
  -3299370.87146  -2521594.77345  23433736.4774                   23433738.3204
        40.2504         34.0004
   2174853.27046   1702754.14546  24367957.0234                   24367961.5474
        40.2504         36.0004
   -369710.90246   -252885.31643  23540874.1254                   23540873.5274
        40.0004         20.5004
   3033495.05947   2364543.49246  22472574.1884                   22472574.1604
        44.5004         39.7504
    -49070.50046     11889.71145  24932727.6884                   24932735.5944
        41.2504         32.5004
  -1121435.67247   -862603.93446  20858118.2114                   20858117.0984
        45.5004         37.2504
   2327485.27746   1853330.54345  25117740.8914                   25117745.7464
        38.2504         30.0004
  -3790969.80147  -2906962.64847  22304962.2424                   22304963.8134
        46.5004         45.5004
 25  6 30 19 24 30.0000000  0 11G13G23G15G27G26G16G29G32G18G24G10
   2017288.85946   1583559.74643  23817804.1484                   23817804.4454
        41.0004         21.2504
  -1156129.66048   -878944.32046  20322136.3594                   20322134.5944
        48.2504         40.0004
    490946.09048    397495.78947  21287914.9694                   21287913.6484
        48.2504         43.5004
  -3487525.29346  -2668208.56245  23397932.0554                   23397935.1604
        38.5004         34.0004
   2143242.20346   1678122.02045  24361941.9384                   24361946.1564
        37.7504         34.5004
   -439921.18746   -307594.68743  23527513.3914                   23527513.1764
        39.5004         21.0004
   3034100.94147   2365015.48846  22472689.4534                   22472689.8444
        43.7504         39.0004
   -252779.78946   -146844.49645  24893962.9064                   24893970.7114
        41.0004         32.2504
  -1216011.71147   -936299.57446  20840121.1804                   20840119.4264
        46.5004         37.2504
   2157325.34445   1720738.50844  25085359.2974                   25085365.0474
        34.2504         26.5004
  -3942704.70747  -3025197.61347  22276088.2194                   22276089.5434
        47.0004         46.0004
 25  6 30 19 25  0.0000000  0 11G13G23G15G27G26G16G29G32G18G24G10
   1999056.38346   1569352.54743  23814334.9774                   23814334.4734
        40.5004         21.0004
  -1246657.62148   -949485.60546  20304909.2344                   20304907.4414
        48.0004         39.5004
    442413.03548    359677.80547  21278680.1484                   21278678.6884
        48.0004         42.7504
  -3675542.35246  -2814715.31645  23362152.8134                   23362156.2304
        38.2504         32.0004
   2111675.23445   1653524.25845  24355935.0554                   24355940.2584
        35.5004         32.2504
   -509774.96946   -362026.28543  23514220.3674                   23514220.0634
        38.7504         20.0004
   3034873.75447   2365617.55946  22472836.5864                   22472837.0164
        42.5004         38.5004
   -456643.74646   -305699.24245  24855168.2034                   24855176.8834
        40.2504         31.0004
  -1310491.23847  -1009920.00446  20822142.0004                   20822140.9494
        46.5004         37.5004
   1987079.57045   1588079.63344  25052961.3674                   25052968.3634
        31.2504         24.0004
  -4094287.92247  -3143314.37147  22247243.2194                   22247244.5904
        47.7504         46.5004
 25  6 30 19 25 30.0000000  0 11G13G23G15G27G26G16G29G32G18G24G10
   1981128.72347   1555382.88743  23810923.5944                   23810923.4184
        42.0004         20.7504
  -1336979.93047  -1019866.63746  20287721.4304                   20287719.7544
        47.2504         39.0004
    394330.46147    322210.84847  21269529.8524                   21269528.8244
        46.5004         42.5004
  -3863417.03146  -2961111.15645  23326402.0474                   23326403.3134
        38.2504         32.2504
   2080151.85545   1628960.48044  24349934.5314                   24349941.3404
        34.5004         29.2504
   -579271.92246   -416179.80543  23500995.7894                   23500995.6644
        38.7504         19.5004
   3035813.85247   2366350.00446  22473015.2274                   22473015.9064
        43.2504         39.7504
   -660657.44946   -464670.70744  24816344.6174                   24816353.3484
        38.2504         25.2504
  -1404871.11347  -1083462.78146  20804182.3054                   20804180.5744
        45.5004         37.5004
   1816753.43845   1455358.04744  25020550.8204                   25020557.4064
        33.2504         27.5004
  -4245717.10548  -3261311.10247  22218426.5634                   22218427.9534
        48.2504         46.5004
 25  6 30 19 26  0.0000000  0 11G13G23G15G27G26G16G29G32G18G24G10
   1963501.73446   1541647.48843  23807568.7194                   23807569.2774
        40.7504         20.5004
  -1427099.49248  -1090089.69946  20270572.3444                   20270570.3754
        48.2504         39.2504
    346695.32047    285092.55947  21260465.2114                   21260463.8244
        47.5004         42.5004
  -4051148.40246  -3107395.29345  23290677.7344                   23290679.3484
        38.7504         32.2504
   2048667.45745   1604427.05944  24343943.5164                   24343949.4144
        35.0004         29.7504
   -648415.10546   -470057.69943  23487838.0864                   23487838.4844
        38.0004         20.2504
   3036916.98047   2367209.44546  22473224.9844                   22473225.4344
        42.5004         38.0004
   -864820.27346   -623758.26644  24777494.2114                   24777500.8594
        37.7504         27.0004
  -1499152.20347  -1156928.57446  20786241.1024                   20786239.5864
        45.2504         37.5004
   1646348.28145   1322574.91844  24988124.9064                   24988130.1844
        34.5004         27.5004
  -4396994.00048  -3379189.16847  22189639.5554                   22189641.3444
        49.0004         46.5004
 25  6 30 19 26 30.0000000  0 11G13G23G15G27G26G16G29G32G18G24G10
   1946175.90646   1528146.81643  23804270.8204                   23804272.9574
        37.5004         19.2504
  -1517014.53548  -1160153.37946  20253461.8364                   20253460.0274
        48.0004         39.5004
    299508.68847    248323.72347  21251485.6644                   21251484.3054
        47.5004         42.7504
  -4238730.80546  -3253563.30946  23254982.8134                   23254985.4224
        41.5004         36.5004
   2017222.29345   1579924.21144  24337960.2424                   24337965.0314
        35.5004         29.2504
   -717203.93746   -523659.45343  23474748.5394                   23474748.3404
        39.5004         21.7504
   3038184.44947   2368196.96546  22473466.6334                   22473466.5004
        43.5004         39.5004
  -1069126.59846   -782957.68745  24738615.7034                   24738623.6134
        39.7504         30.5004
  -1593330.51647  -1230314.29346  20768319.9614                   20768317.9534
        46.5004         37.5004
   1475870.31345   1189735.07044  24955683.1954                   24955688.6564
        33.0004         25.5004
  -4548115.55148  -3496946.18447  22160882.0784                   22160883.6374
        48.5004         46.5004
 25  6 30 19 27  0.0000000  0 11G13G23G15G27G26G16G29G32G18G24G10
   1929154.73446   1514883.50842  23801033.0164                   23801034.3284
        36.5004         16.2504
  -1606720.34447  -1230054.02746  20236391.6094                   20236389.9534
        46.5004         39.7504
    252774.38347    211907.33247  21242592.7894                   21242591.1134
        47.5004         42.5004
  -4426155.57446  -3399608.53546  23219316.6174                   23219319.4774
        41.0004         36.0004
   1985819.44146   1555454.30144  24331985.1644                   24331990.2704
        37.7504         29.7504
   -785634.35946   -576981.93043  23461726.7194                   23461726.3954
        39.2504         22.7504
   3039619.87147   2369315.32446  22473740.4534                   22473740.1054
        44.2504         40.0004
  -1273568.18446   -942262.55544  24699711.4384                   24699720.2154
        38.0004         26.5004
  -1687399.37947  -1303614.73046  20750419.4774                   20750417.5394
        47.5004         37.2504
   1305328.69144   1056845.59043  24923227.1484                   24923235.1374
        28.5004         22.7504
  -4699075.89847  -3614577.59047  22132155.7814                   22132156.7974
        47.5004         46.0004
 25  6 30 19 27 30.0000000  0 11G13G23G15G27G26G16G29G32G18G24G10
   1912433.98846   1501854.29342  23797850.4694                   23797853.2344
        37.0004         15.5004
  -1696219.68748  -1299793.79346  20219360.5394                   20219359.1024
        48.5004         40.5004
    206489.13347    175840.86747  21233784.9534                   21233783.6914
        47.5004         42.2504
  -4613421.56646  -3545530.09845  23183680.3524                   23183683.3954
        38.5004         34.7504
   1954454.43846   1531013.94944  24326016.8594                   24326021.2344
        37.0004         28.7504
   -853709.36746   -630027.45743  23448773.0784                   23448772.3554
        39.0004         22.7504
   3041219.57447   2370561.71946  22474045.0314                   22474044.5744
        43.0004         39.2504
  -1478144.02346  -1101672.06244  24660782.0864                   24660791.1294
        38.2504         29.5004
  -1781359.39847  -1376830.34846  20732539.0394                   20732537.6254
        47.7504         37.5004
   1134724.77045    923907.57444  24890764.9304                   24890770.7584
        30.0004         24.0004
  -4849876.67648  -3732084.65247  22103459.0704                   22103460.4104
        48.0004         45.5004
 25  6 30 19 28  0.0000000  0 11G13G23G15G27G26G16G29G32G18G24G10
   1896013.15645   1489058.68842  23794725.7504                   23794728.9494
        34.7504         15.5004
  -1785512.11748  -1369372.32046  20202368.9614                   20202366.8794
        48.5004         40.5004
    160652.89547    140124.27747  21225062.6954                   21225061.2624
        47.5004         42.2504
  -4800524.46946  -3691324.53545  23148077.7194                   23148078.0084
        40.7504         35.0004
   1923126.20346   1506602.19944  24320055.0234                   24320059.8714
        37.2504         29.0004
   -921428.95746   -682796.03943  23435885.6564                   23435885.2854
        39.2504         21.7504
   3042982.96546   2371935.65246  22474380.1334                   22474380.0354
        41.7504         37.2504
  -1682849.95346  -1261182.87144  24621826.7734                   24621835.2734
        38.0004         28.0004
  -1875208.03147  -1449959.16046  20714680.3914                   20714678.5744
        46.0004         37.7504
                                  24858288.6254                   24858295.2274
        27.2504         22.7504
  -5000516.14847  -3849466.02747  22074793.3754                   22074794.8364
        47.0004         44.7504
 25  6 30 19 28 30.0000000  0 10G13G23G15G27G26G16G29G32G18G10
   3455310.73846   2704095.75842  24091451.0394                   24091453.5824
        36.5004         16.2504
   -299175.08648   -211187.64846  20485209.0234                   20485207.5004
        48.0004         40.5004
   1690685.80947   1332357.68847  21516218.2274                   21516217.0904
        47.0004         42.0004
  -3412034.65647  -2609384.34046  23412298.1804                   23412298.8054
        43.2504         36.2504
   3467253.80146   2709818.35944  24613892.9224                   24613898.3444
        37.5004         29.2504
    586628.00446    492313.19543  23722859.1724                   23722859.4964
        37.7504         22.0004
   4620328.55146   3601035.98046  22774538.9064                   22774539.9414
        41.7504         37.0004
   -312256.04346   -193187.23044  24882641.2194                   24882648.0474
        38.0004         24.5004
   -393520.44947   -295397.43046  20996636.1564                   20996634.4964
        46.5004         38.0004
  -3575568.69147  -2739117.32847  22345951.4384                   22345952.7034
        47.0004         44.0004
 25  6 30 19 29  0.0000000  0 10G13G23G15G27G26G16G29G32G18G10
   3439484.62946   2691763.68842  24088439.8444                   24088441.5704
        38.0004         16.2504
   -388054.39148   -280444.26246  20468295.8444                   20468294.5004
        48.2504         40.7504
   1645744.41847   1297338.39147  21507666.3444                   21507665.1994
        46.5004         42.5004
  -3598800.34047  -2754915.93445  23376757.4774                   23376759.1804
        42.2504         35.0004
   3435993.64846   2685459.62944  24607944.0554                   24607949.5004
        36.2504         28.0004
    519616.35946    440096.25043  23710107.6174                   23710107.7194
        38.0004         21.0004
   4622416.04347   3602662.46946  22774936.4224                   22774936.5084
        43.0004         38.5004
   -517211.76646   -352892.74644  24843640.1254                   24843647.4224
        39.2504         28.5004
   -487140.60547   -368348.21146  20978820.5864                   20978818.8874
        47.7504         38.0004
  -3725882.91447  -2856245.26647  22317347.7504                   22317349.0984
        46.7504         43.5004
 25  6 30 19 29 30.0000000  0 10G13G23G15G27G26G16G29G32G18G10
   3423955.43045   2679662.90242  24085484.3754                   24085485.8594
        35.7504         16.2504
   -476725.52747   -349538.67246  20451422.2034                   20451420.7274
        47.5004         40.0004
   1601250.94947   1262668.12547  21499199.2424                   21499198.2344
        47.2504         42.5004
  -3785389.92246  -2900310.33645  23341249.6484                   23341251.6524
        39.5004         35.0004
   3404766.66046   2661126.77344  24602002.5084                   24602008.0904
        36.5004         25.7504
    452958.85946    388155.24643  23697423.3204                   23697423.3554
        37.7504         20.0004
   4624665.55547   3604415.21146  22775365.2424                   22775364.7194
        43.0004         38.0004
   -722285.16446   -512690.00845  24804615.8914                   24804623.6054
        39.5004         30.5004
   -580641.77747   -441206.28946  20961028.1254                   20961026.4534
        46.2504         37.7504
  -3876031.09847  -2973243.81247  22288775.6174                   22288776.9614
        46.5004         43.0004
 25  6 30 19 30  0.0000000  0 11G13G23G15G27G26G16G29G32G18G24G10
   3408722.05945   2667792.66042  24082584.1884                   24082587.0744
        32.7504         16.7504
   -565188.68747   -418471.00846  20434588.3594                   20434586.8914
        47.5004         40.5004
   1557204.84447   1228346.44947  21490817.9614                   21490816.6174
        47.0004         42.5004
  -3971799.65246  -3045564.68045  23305776.8444                   23305778.9064
        39.7504         34.5004
   3373571.22745   2636818.42243  24596065.3284                   24596071.1914
        35.2504         22.5004
    386654.96546    336489.80943  23684806.0394                   23684805.3594
        37.2504         19.7504
   4627076.11747   3606293.42246  22775823.3444                   22775824.0234
        43.7504         39.5004
   -927472.74646   -672576.17645  24765571.1884                   24765578.2814
        39.0004         32.2504
   -674021.97347   -513970.08646  20943258.4454                   20943256.7544
        45.7504         37.2504
   4566684.60555   1829568.07054  25028087.4844                   25028092.6914
        34.7504         28.5004
  -4026012.28947  -3090112.24647  22260235.4144                   22260236.2504
        45.5004         42.2504
 25  6 30 19 30 30.0000000  0 11G13G23G15G27G26G16G29G32G18G24G10
   3393783.99646   2656152.54742  24079742.8364                   24079743.2584
        36.5004         17.2504
   -653442.33247   -487240.09046  20417794.5234                   20417793.0594
        47.0004         39.7504
   1513606.54347   1194373.72347  21482521.3674                   21482520.1954
        47.0004         43.0004
  -4158024.12946  -3190674.60245  23270339.6954                   23270341.2704
        38.7504         34.2504
   3342407.16845   2612534.54743  24590135.8914                   24590140.6804
        35.0004         20.7504
    320705.52346    285100.57443  23672256.0704                   23672256.4924
        37.5004         18.5004
   4629648.32447   3608297.59446  22776313.4224                   22776314.0634
        43.7504         38.7504
  -1132769.14846   -832547.06245  24726504.8834                   24726510.6374
        39.0004         33.0004
   -767277.52047   -586636.75446  20925512.3594                   20925511.0204
        47.7504         37.2504
   4395806.99646   1696416.77044  24995569.7584                   24995575.5554
        36.0004         28.5004
  -4175823.80147  -3206848.45347  22231726.9384                   22231728.0984
        45.7504         42.0004
 25  6 30 19 31  0.0000000  0 11G13G23G15G27G26G16G29G32G18G24G10
   3379141.19546   2644742.44543  24076957.4774                   24076956.5474
        39.0004         18.2504
   -741485.64547   -555845.28546  20401040.3594                   20401038.7114
        46.2504         39.7504
   1470456.15247   1160750.01247  21474309.9844                   21474308.3954
        47.0004         42.5004
  -4344058.66446  -3335636.52745  23234938.8834                   23234940.5704
        41.2504         35.7504
   3311273.69145   2588274.48843  24584210.7424                   24584216.8554
        33.0004         21.0004
    255110.24046    233987.30743  23659774.0474                   23659773.7114
        38.2504         18.5004
   4632382.21547   3610427.75846  22776834.2114                   22776833.8984
        43.2504         39.5004
  -1338169.91446   -992599.30544  24687416.6094                   24687422.5554
        36.7504         28.5004
   -860405.52747   -659204.04746  20907791.0704                   20907789.0594
        47.7504         37.7504
   4224901.86746   1563244.06344  24963047.3284                   24963052.8754
        36.5004         27.5004
  -4325463.69147  -3323450.94146  22203251.1724                   22203252.2704
        45.2504         40.5004
 25  6 30 19 31 30.0000000  0 11G13G23G15G27G26G16G29G32G18G24G10
   3364792.36746   2633561.48443  24074226.9534                   24074226.4384
        38.5004         19.0004
   -829318.68448   -624286.61746  20384326.4144                   20384324.7344
        48.2504         39.0004
   1427752.84047   1127474.66847  21466184.0944                   21466182.4414
        47.2504         42.2504
  -4529899.25046  -3480447.30945  23199575.0784                   23199576.5594
        40.5004         35.7504
   3280169.32045   2564037.20344  24578292.8984                   24578298.3634
        34.7504         24.5004
    189868.97346    183149.93442  23647358.6484                   23647358.7114
        37.5004         17.2504
   4635276.57447   3612682.96546  22777384.3984                   22777384.0434
        43.5004         37.7504
  -1543671.10545  -1152729.85944  24648309.3134                   24648316.7424
        35.0004         26.7504
   -953403.82047   -731670.26246  20890093.8674                   20890092.1724
        47.2504         37.7504
   4053973.64546   1430053.38344  24930521.2424                   24930527.4534
        36.2504         28.7504
  -4474930.75047  -3439918.74246  22174808.5474                   22174810.1604
        45.5004         40.5004
 25  6 30 19 32  0.0000000  0 11G13G23G15G27G26G16G29G32G18G24G10
   3350736.19546   2622608.56643  24071551.0864                   24071551.9964
        39.0004         19.2504
   -916941.02347   -692563.77746  20367652.0864                   20367650.4654
        47.7504         39.7504
   1385496.37947   1094547.51246  21458142.7034                   21458141.1024
        45.7504         41.2504
  -4715541.58646  -3625103.59046  23164248.4064                   23164249.6844
        41.0004         37.0004
   3249092.80945   2539821.57844  24572378.5004                   24572384.7504
        34.5004         24.2504
    124981.12546    132587.91443  23635012.1804                   23635011.5274
        38.0004         19.7504
   4638330.91847   3615062.85546  22777965.4454                   22777965.3404
        43.5004         37.0004
  -1749268.60946  -1312935.54345  24609186.7974                   24609194.0554
        38.2504         31.5004
  -1046269.89147   -804033.44546  20872421.9384                   20872420.8284
        47.2504         38.2504
   3883027.22346   1296848.49244  24897991.4304                   24897996.3714
        37.0004         27.7504
  -4624223.57447  -3556250.78146  22146399.0234                   22146400.1884
        44.5004         39.5004
 25  6 30 19 32 30.0000000  0 11G13G23G15G27G26G16G29G32G18G24G10
   3336969.76646   2611881.44143  24068932.0004                   24068932.2194
        39.2504         19.7504
  -1004354.43448   -760678.14546  20351017.9844                   20351016.5124
        48.0004         40.0004
   1343684.28547   1061966.61346  21450186.2114                   21450184.7304
        45.2504         41.5004
  -4900983.44146  -3769603.63746  23128959.1644                   23128961.3674
        40.2504         36.0004
   3218040.78545   2515625.08644  24566470.6954                   24566474.1334
        34.7504         24.0004
     60444.00446     82299.15643  23622731.0704                   23622730.2234
        37.5004         19.2504
   4641542.59847   3617565.30946  22778577.0944                   22778576.1604
        44.0004         36.0004
  -1954960.53946  -1473214.70345  24570044.5784                   24570052.3324
        39.5004         33.0004
  -1139003.28547   -876293.25446  20854775.5164                   20854773.9224
        47.0004         38.2504
   3712065.29746   1163631.45344  24865458.8444                   24865463.4774
        38.2504         27.7504
  -4773342.66847  -3672447.43746  22118022.6564                   22118023.7584
        44.2504         39.5004
 25  6 30 19 33  0.0000000  0 11G13G23G15G27G26G16G29G32G18G24G10
   3323489.56346   2601377.26243  24066367.2274                   24066367.3324
        40.0004         19.5004
  -1091561.10247   -828631.40246  20334422.9384                   20334421.6374
        47.5004         39.7504
   1302313.60947   1029729.68446  21442313.9064                   21442312.0044
        46.2504         41.0004
  -5086223.15246  -3913946.22746  23093709.4144                   23093711.4304
        40.2504         36.2504
   3187009.52345   2491444.75844  24560565.5394                   24560570.7504
        34.2504         25.2504
     -3745.16846     32281.56643  23610515.6954                   23610515.1134
        39.5004         21.5004
   4644908.24247   3620187.70746  22779217.7034                   22779217.6954
        44.0004         37.2504
  -2160745.23046  -1633566.14545  24530884.2664                   24530890.8094
        38.0004         31.5004
  -1231604.04347   -948449.69946  20837154.1254                   20837152.8714
        47.0004         37.5004
   3541090.19146   1030404.20344  24832922.6884                   24832926.7734
        38.2504         25.7504
  -4922289.13347  -3788509.58646  22089679.3914                   22089680.2814
        44.7504         39.0004
 25  6 30 19 33 30.0000000  0 11G13G23G15G27G26G16G29G32G18G24G10
   3310296.03146   2591096.51643  24063856.8594                   24063856.8594
        38.7504         20.0004
  -1178559.11348   -896422.07046  20317868.3674                   20317866.2894
        48.2504         40.0004
   1261385.28947    997837.43846  21434525.5314                   21434524.2934
        46.0004         41.7504
  -5271254.85546  -4058126.73046  23058498.9224                   23058500.6134
        40.5004         36.7504
   3155999.41445   2467280.93044  24554663.8834                   24554670.0044
        33.5004         24.5004
    -67585.34046    -17464.09043  23598367.1094                   23598366.8914
        39.2504         22.5004
   4648429.21547   3622931.19146  22779887.5394                   22779888.5904
        43.0004         37.7504
  -2366616.92646  -1793985.33645  24491708.2424                   24491713.6884
        38.7504         31.0004
  -1324068.12147  -1020499.64846  20819558.4304                   20819557.3204
        47.0004         38.2504
   3370108.16046    897171.62144  24800385.7894                   24800390.3714
        38.5004         24.2504
  -5071059.87947  -3904434.81246  22061369.1094                   22061369.9384
        43.2504         39.7504
 25  6 30 19 34  0.0000000  0 11G13G23G15G27G26G16G29G32G18G24G10
   3297387.07846   2581037.53142  24061400.3524                   24061400.5554
        36.5004         16.7504
  -1265349.35248   -964050.84846  20301352.3594                   20301350.9264
        49.0004         40.5004
   1220897.35547    966288.35547  21426821.1414                   21426819.4184
        47.0004         42.2504
  -5456075.52346  -4202142.79746  23023328.1884                   23023330.8134
        40.7504         36.7504
   3125007.85245   2443131.50444  24548766.6024                   24548772.0204
        34.0004         25.7504
   -131078.27746    -66939.18443  23586285.1564                   23586285.0004
        39.5004         22.2504
   4652103.44947   3625794.09046  22780586.6094                   22780587.6604
        44.0004         38.2504
  -2572572.68446  -1954470.06245  24452516.4384                   24452522.1134
        38.7504         32.0004
  -1416394.22347  -1092442.06646  20801990.0784                   20801988.4304
        47.2504         38.0004
   3199122.96946    763936.48044  24767847.7504                   24767852.6134
        38.5004         24.7504
  -5219654.80947  -4020223.02346  22033092.0864                   22033094.0904
        43.7504         39.0004
 25  6 30 19 34 30.0000000  0 11G13G23G15G27G26G16G29G32G18G24G10
   3284766.93845   2571203.57042  24058998.4774                   24058998.9694
        35.0004         17.2504
  -1351926.08248  -1031513.24646  20284877.2344                   20284875.9414
        48.7504         40.0004
   1180854.87547    935086.39147  21419201.0634                   21419199.8014
        47.0004         42.5004
  -5640675.47746  -4345986.86346  22988200.8594                   22988202.7854
        41.0004         36.5004
   3094039.29746   2419000.00844  24542874.6174                   24542879.7274
        37.2504         27.7504
   -194219.00446   -116139.84843  23574270.2274                   23574270.0084
        39.2504         22.5004
   4655935.49647   3628779.98046  22781315.8134                   22781316.8524
        44.2504         38.0004
  -2778603.09046  -2115012.95345  24413309.4774                   24413317.2424
        39.5004         33.7504
  -1508574.40248  -1164270.79346  20784448.7664                   20784446.9304
        48.0004         38.0004
   3028144.76646    630706.78144  24735312.5634                   24735317.3484
        38.5004         27.7504
  -5368066.85247  -4135868.73446  22004850.2584                   22004851.6884
        44.0004         39.2504
 25  6 30 19 35  0.0000000  0 11G13G23G15G27G26G16G29G32G18G24G10
   3272428.88746   2561589.43842  24056650.2424                   24056652.2584
        36.0004         15.5004
  -1438294.47348  -1098813.29346  20268442.3914                   20268440.5664
        49.0004         40.0004
   1141251.67247    904226.73847  21411664.6804                   21411663.4414
        46.7504         42.2504
  -5825055.81246  -4489659.82445  22953114.2584                   22953115.6094
        40.0004         35.5004
   3063086.80946   2394881.07044  24536983.8754                   24536989.7114
        38.0004         27.2504
   -257013.46946   -165070.67643  23562320.9064                   23562320.3674
        38.5004         21.7504
   4659919.40247   3631884.17646  22782074.1884                   22782075.0784
        44.5004         36.0004
  -2984709.46546  -2275615.08245  24374088.7504                   24374096.0704
        41.2504         34.7504
  -1600611.71147  -1235988.18746  20766933.9774                   20766932.4454
        47.7504         37.7504
   2857172.73046    497481.85944  24702777.2734                   24702782.3164
        38.0004         27.5004
  -5516300.23847  -4251375.25046  21976642.5234                   21976643.3134
        43.0004         39.7504
 25  6 30 19 35 30.0000000  0 11G13G23G15G27G26G16G29G32G18G24G10
   3260373.54346   2552195.57442  24054357.1724                   24054358.3204
        36.7504         17.2504
  -1524452.90248  -1165949.75046  20252046.6024                   20252045.1564
        48.5004         39.5004
   1102088.96147    873710.30147  21404212.2664                   21404210.4774
        46.5004         42.0004
  -6009211.16446  -4633157.42245  22918070.6254                   22918071.3554
        39.2504         34.2504
   3032150.62546   2370774.84044  24531097.0234                   24531102.7384
        37.7504         27.2504
   -319460.94546   -213731.13343  23550436.7344                   23550436.8674
        37.2504         20.5004
   4664055.74247   3635107.13746  22782862.0084                   22782861.5474
        43.7504         36.2504
  -3190886.34846  -2436272.10945  24334854.4844                   24334861.5274
        41.5004         34.2504
  -1692502.28148  -1307591.23446  20749448.5004                   20749446.6214
        48.2504         37.5004
   2686213.14546    364266.71144  24670245.4614                   24670248.8524
        38.7504         26.5004
  -5664352.16847  -4366740.35946  21948469.1254                   21948470.3984
        45.0004         40.2504
 25  6 30 19 36  0.0000000  0 11G13G23G15G27G26G16G29G32G18G24G10
   3248597.66045   2543019.47342  24052115.4384                   24052117.1054
        35.5004         16.2504
  -1610402.95748  -1232923.83246  20235690.8444                   20235689.1914
        48.2504         39.7504
   1063363.87147    843534.85946  21396843.2424                   21396841.7934
        46.7504         41.2504
  -6193139.04746  -4776477.75446  22883069.5634                   22883071.0204
        40.5004         36.0004
   3001227.50046   2346678.74644  24525212.0234                   24525218.1134
        37.0004         25.7504
   -381563.84046   -262123.10543  23538618.6884                   23538618.9924
        37.2504         19.5004
   4668342.03547   3638446.94146  22783677.8444                   22783677.8834
        44.5004         37.0004
  -3397131.49647  -2596982.31645  24295607.1804                   24295611.8594
        42.2504         32.5004
  -1784245.55947  -1379079.51246  20731990.3834                   20731988.8134
        47.5004         37.7504
   2515268.95746    231063.55143  24637714.8204                   24637717.8014
        38.5004         22.2504
  -5812223.12947  -4481964.45746  21920330.3054                   21920331.3364
        43.7504         40.5004
 25  6 30 19 36 30.0000000  0 11G13G23G15G27G26G16G29G32G18G24G10
   4812522.85945   3761662.42642  24349719.5944                   24349723.0704
        34.2504         16.2504
   -120719.21948    -72131.32846  20519168.3364                   20519166.3674
        48.5004         39.5004
   2600499.34847   2041302.72746  21689350.1414                   21689349.4804
        46.0004         41.0004
  -4801406.89146  -3692011.12146  23147907.6804                   23147909.2704
        41.0004         37.5004
   4545739.48846   3550194.52344  24819123.2424                   24819129.1374
        38.2504         27.5004
   1132101.74646    917356.52343  23826660.2584                   23826659.8204
        38.2504         20.7504
   6248199.69947   4869504.69546  23084315.1484                   23084315.3954
        44.7504         39.5004
  -2028011.66846  -1530135.47345  24556141.5314                   24556145.8204
        41.5004         32.0004
   -300413.70347   -222846.91046  21014353.7194                   21014352.4574
        47.5004         38.5004
   3919772.78146   1325482.21144  24904982.8754                   24904987.2114
        38.5004         25.7504
  -4384484.59447  -3369440.89546  22192019.7274                   22192020.7974
        44.5004         40.7504
 25  6 30 19 37  0.0000000  0 11G13G23G15G27G26G16G29G32G18G24G10
   4801304.641 5                  24347586.125
        34.750
   -206249.64848   -138778.43046  20502892.5704                   20502890.8714
        48.0004         39.5004
   2562649.67247   2011809.43846  21682147.6884                   21682146.5744
        45.5004         41.0004
  -4984865.19947  -3834965.62546  23112997.1174                   23112999.0434
        42.5004         37.7504
   4514840.84046   3526117.53944  24813243.5234                   24813249.5434
        37.7504         29.5004
   1070688.45746    869501.94143  23814974.0394                   23814974.2154
        38.0004         20.2504
   6252785.93047   4873078.22346  23085187.6724                   23085188.4844
        44.0004         39.0004
  -2234379.03546  -1690940.94145  24516870.6334                   24516877.3794
        40.5004         32.2504
   -391852.89147   -294098.23846  20996953.5004                   20996951.9384
        46.5004         38.2504
   3748875.65246   1192315.70343  24872462.3054                   24872466.0204
        38.7504         23.7504
  -4531987.53547  -3484378.22746  22163951.1094                   22163951.9384
        44.2504         41.2504
 25  6 30 19 37 30.0000000  0 11G13G23G15G27G26G16G29G32G18G24G10
   4790363.26646   3753548.14852  24345504.7424                   24345506.4024
        36.5004         17.7504
   -291570.02048   -205261.84846  20486656.8284                   20486654.8204
        48.2504         39.5004
   2525236.56647   1982656.33646  21675028.7734                   21675027.0124
        46.7504         40.7504
  -5168082.59447  -3977732.37946  23078132.2734                   23078133.6684
        42.0004         38.5004
   4483952.34446   3502048.46545  24807366.4304                   24807372.0164
        38.7504         30.7504
   1009618.61346    821914.95343  23803352.6884                   23803352.7154
        38.5004         18.2504
   6257520.63747   4876767.45346  23086088.4924                   23086089.3914
        43.7504         38.7504
  -2440801.57046  -1851789.44545  24477589.5864                   24477597.6804
        38.2504         31.2504
   -483136.55547   -365228.37146  20979582.8054                   20979581.1844
        47.7504         38.0004
   3578008.95746   1059172.89544  24839947.8834                   24839951.9654
        38.0004         26.5004
  -4679304.55547  -3599170.68747  22135917.4844                   22135918.5204
        45.5004         42.0004
 25  6 30 19 38  0.0000000  0 11G13G23G15G27G26G16G29G32G18G24G10
   4779698.02346   3745237.56342  24343474.9144                   24343477.0314
        36.0004         14.7504
   -376679.69948   -271581.08646  20470460.7344                   20470458.9964
        48.2504         39.2504
   2488259.74647   1953843.19546  21667992.0474                   21667990.1684
        46.0004         41.5004
  -5351054.50046  -4120307.82046  23043313.3054                   23043314.8634
        41.0004         37.5004
   4453073.17246   3477986.64145  24801490.8674                   24801495.7464
        40.0004         30.2504
    948891.98846    774595.42643  23791797.2894                   23791796.8364
        37.7504         19.0004
   6262403.62547   4880572.25446  23087017.5864                   23087018.2384
        43.5004         36.0004
  -2647274.78946  -2012677.39545  24438299.2034                   24438306.0044
        40.2504         32.2504
   -574261.76647   -436235.04746  20962242.5084                   20962240.8284
        47.7504         38.0004
   3407178.05146    926058.00844  24807439.0474                   24807444.4804
        36.5004         25.5004
  -4826433.93747  -3713816.93447  22107919.6644                   22107920.8634
        45.5004         42.0004
 25  6 30 19 38 30.0000000  0 11G13G23G15G27G26G16G29G32G18G24G10
   4769307.10246   3737140.69142  24341496.9534                   24341499.2664
        37.0004         16.2504
   -461579.49248   -337736.78546  20454304.7664                   20454302.9144
        48.0004         39.0004
   2451717.24647   1925368.46546  21661038.2034                   21661036.4224
        46.2504         41.5004
  -5533777.70346  -4262689.49246  23008542.5164                   23008543.0164
        41.2504         36.7504
   4422200.86346   3453930.15245  24795615.0084                   24795620.5944
        39.0004         30.5004
    888506.89846    727542.06643  23780306.0164                   23780306.3324
        37.7504         18.5004
   6267433.14847   4884491.17646  23087975.3914                   23087975.5474
        43.2504         36.7504
  -2853795.57446  -2173602.48444  24399000.6024                   24399004.5084
        41.0004         29.2504
   -665227.21547   -507117.21946  20944932.4144                   20944930.3054
        47.2504         37.2504
   3236386.57446    792973.84444  24774937.4774                   24774943.0164
        37.0004         25.0004
  -4973375.40647  -3828316.75847  22079957.9774                   22079958.1684
        45.0004         42.7504
 25  6 30 19 39  0.0000000  0 11G13G23G15G27G26G16G29G32G18G24G10
   4759185.20746   3729253.37542  24339570.9064                   24339572.5124
        39.0004         17.7504
   -546272.70347   -403731.50446  20438188.4384                   20438186.5634
        47.5004         39.0004
   2415604.86747   1897228.89846  21654166.5634                   21654165.1724
        46.0004         41.7504
  -5716251.67647  -4404876.98046  22973818.6884                   22973819.6764
        42.5004         37.2504
   4391330.72746   3429875.33645  24789740.7734                   24789747.0704
        40.7504         32.0004
    828459.14846    680751.54343  23768879.7734                   23768879.4534
        38.5004         18.5004
   6272604.73047   4888520.78946  23088959.7734                   23088960.4384
        44.2504         37.5004
  -3060363.53146  -2334564.28944  24359690.4694                   24359697.7894
        38.0004         27.7504
   -756033.98047   -577875.74646  20927652.2424                   20927650.2194
        47.0004         37.0004
   3065635.66846    659921.29344  24742445.2194                   24742450.3204
        36.7504         27.0004
  -5120131.30547  -3942671.98047  22052030.9924                   22052031.9454
        45.0004         43.0004
 25  6 30 19 39 30.0000000  0 11G13G23G15G27G26G16G29G32G18G24G10
   4749335.72746   3721578.35243  24337697.5234                   24337697.5904
        39.5004         18.5004
   -630754.87148   -469561.77046  20422111.7584                   20422110.0664
        48.5004         39.5004
   2379925.98047   1869427.13346  21647376.5474                   21647376.0944
        46.2504         41.7504
  -5898467.89847  -4546863.63346  22939144.1724                   22939145.1374
        42.5004         37.7504
   4360465.69946   3405824.53545  24783868.1484                   24783873.9574
        39.7504         31.7504
    768752.30146    634226.62943  23757517.8364                   23757517.7274
        38.5004         19.0004
   6277922.16847   4892664.09446  23089971.2734                   23089971.9804
        43.7504         37.2504
  -3266970.10545  -2495556.15643  24320372.3204                   24320379.7704
        31.0004         21.5004
   -846675.35247   -648505.39146  20910403.9844                   20910401.6294
        47.2504         37.0004
   2894934.53946    526907.58644  24709961.9924                   24709966.8914
        37.5004         27.0004
  -5266695.98047  -4056878.19147  22024140.1414                   22024141.4574
        45.2504         43.0004
 25  6 30 19 40  0.0000000  0 11G13G23G15G27G26G16G29G32G18G24G10
   4739756.08246   3714113.69543  24335874.0474                   24335875.7664
        38.2504         18.5004
   -715026.84048   -535228.24646  20406075.2894                   20406073.7734
        48.2504         39.5004
   2344679.03147   1841961.95347  21640669.6724                   21640669.0354
        47.0004         42.0004
  -6080423.44547  -4688647.12146  22904519.0704                   22904520.8484
        43.0004         37.0004
   4329603.36346   3381775.84445  24777995.1644                   24778000.9264
        40.0004         30.5004
    709384.38346    587965.84043  23746220.2584                   23746220.7074
        37.2504         19.7504
   6283383.31647   4896919.36746  23091010.1174                   23091011.0634
        42.0004         36.0004
  -3473612.64145  -2656575.99643  24281050.8524                   24281054.2934
        33.5004         21.7504
   -937150.05147   -719005.15646  20893187.3754                   20893185.5124
        47.0004         37.2504
   2724286.83246    393935.43044  24677488.7114                   24677493.6024
        36.0004         24.5004
  -5413069.26647  -4170935.26247  21996286.3054                   21996287.8014
        45.2504         43.0004
 25  6 30 19 40 30.0000000  0 11G13G23G15G27G26G16G29G32G18G24G10
   4730442.55346   3706856.36643  24334101.8444                   24334103.0704
        39.5004         18.5004
   -799091.49648   -600733.18046  20390078.5234                   20390076.8754
        48.2504         39.7504
   2309859.89547   1814830.12947  21634043.5474                   21634043.1024
        46.2504         42.0004
  -6262117.18046  -4830226.60246  22869943.5314                   22869944.3594
        41.5004         36.0004
   4298739.40246   3357725.87545  24772121.2584                   24772127.8914
        39.2504         30.2504
    650351.64546    541966.23043  23734987.0704                   23734986.8914
        37.7504         22.0004
   6288984.31246   4901283.59945  23092076.1334                   23092076.9844
        40.0004         34.2504
  -3680289.81946  -2817622.91144  24241723.5864                   24241726.7894
        38.2504         28.2504
  -1027458.63347   -789375.49246  20876002.0084                   20876000.2234
        47.5004         37.5004
   2553694.16445    261006.18043  24645025.5234                   24645030.9384
        34.5004         22.5004
  -5559253.03947  -4284844.66447  21968468.5864                   21968469.7894
        45.0004         43.5004
 25  6 30 19 41  0.0000000  0 11G13G23G15G27G26G16G29G32G18G24G10
   4721390.05146   3699802.37543  24332379.1644                   24332380.0124
        40.0004         20.0004
   -882951.68748   -666078.78946  20374120.6484                   20374118.9104
        48.5004         39.5004
   2275464.73447   1788028.66446  21627498.3054                   21627497.4224
        46.5004         41.5004
  -6443547.97346  -4971601.18046  22835417.8914                   22835419.1684
        41.7504         36.2504
   4267869.41046   3333671.16045  24766247.5474                   24766253.4574
        39.2504         30.7504
    591650.32446    496224.84843  23723817.3594                   23723816.7934
        38.0004         21.2504
   6294721.49247   4905753.99245  23093168.4534                   23093169.0744
        42.0004         35.5004
  -3887000.98046  -2978696.18744  24202386.7424                   24202391.1994
        38.5004         29.5004
  -1117601.82047   -859616.93746  20858848.2424                   20858846.8164
        46.5004         38.0004
   2383158.18445    128121.11743  24612574.2504                   24612578.2664
        35.7504         22.7504
  -5705249.06247  -4398607.78147  21940686.0784                   21940687.4734
        44.5004         43.0004
 25  6 30 19 41 30.0000000  0 11G13G23G15G27G26G16G29G32G18G24G10
   4712598.28146   3692951.57443  24330707.1254                   24330706.2424
        39.5004         20.7504
   -966606.60948   -731264.44946  20358201.4304                   20358199.7384
        48.0004         39.5004
   2241493.15647   1761557.25446  21621033.7734                   21621032.4184
        45.7504         41.0004
  -6624711.15247  -5112767.25046  22800944.6254                   22800945.5314
        42.0004         36.7504
   4236992.72346   3309611.23445  24760372.4614                   24760378.0124
        39.5004         32.0004
    533280.02746    450741.40643  23712708.8284                   23712709.5984
        36.7504         20.2504
   6300594.66847   4910330.32446  23094286.4534                   23094287.3594
        43.2504         37.2504
  -4093741.14846  -3139792.16445  24163045.2424                   24163048.7854
        40.2504         32.2504
  -1207576.55548   -929727.12546  20841726.8914                   20841725.1524
        48.0004         37.5004
   2212684.22346     -4715.50443  24580132.8984                   24580137.6174
        37.0004         22.7504
  -5851055.50447  -4512223.14547  21912940.8594                   21912941.7704
        44.7504         42.7504
 25  6 30 19 42  0.0000000  0 11G13G23G15G27G26G16G29G32G18G24G10
   4704068.45746   3686304.85243  24329083.3204                   24329083.7154
        39.0004         20.0004
  -1050053.83648   -796288.27346  20342322.0164                   20342320.2974
        48.5004         39.5004
   2207946.73047   1735417.14146  21614650.2194                   21614648.6484
        45.0004         39.7504
  -6805600.41447  -5253719.88746  22766522.3444                   22766524.1764
        42.0004         38.0004
   4206110.15246   3285546.75645  24754495.2734                   24754500.5664
        40.5004         31.5004
    475242.24645    405517.05543  23701664.8054                   23701665.0474
        35.2504         20.2504
   6306605.08647   4915013.54746  23095430.6724                   23095431.3054
        42.7504         36.5004
  -4300504.18446  -3300905.92645  24123697.8674                   24123704.1564
        38.7504         33.0004
  -1297378.32447   -999702.54746  20824637.9454                   20824635.9654
        47.5004         37.7504
   2042279.34846   -137498.41044  24547706.2344                   24547711.3984
        38.2504         28.0004
  -5996668.91447  -4625688.11347  21885231.3594                   21885232.0124
        45.7504         43.2504
 25  6 30 19 42 30.0000000  0 11G13G23G15G27G26G16G29G32G18G24G10
   4695799.05946   3679861.13743  24327510.1484                   24327510.8914
        39.0004         20.0004
  -1133292.93747   -861149.91846  20326482.0164                   20326480.3134
        47.7504         39.7504
   2174824.71147   1709607.75846  21608347.1644                   21608346.5704
        44.5004         40.2504
  -6986211.29347  -5394455.58646  22732153.1174                   22732154.6414
        42.2504         38.0004
   4175220.78946   3261477.01245  24748617.6884                   24748623.4654
        39.5004         30.0004
    417536.56645    360551.44943  23690684.8054                   23690684.4104
        35.7504         20.2504
   6312751.93447   4919803.13745  23096600.3284                   23096601.0004
        43.0004         35.7504
  -4507285.65646  -3462034.05946  24084349.5634                   24084354.8014
        40.2504         36.2504
  -1387004.27047  -1069540.95746  20807582.7734                   20807581.0314
        47.0004         37.7504
   1871948.61346   -270223.56244  24515294.0864                   24515298.2154
        38.0004         28.0004
  -6142087.82447  -4739001.52047  21857558.4774                   21857559.8794
        44.5004         43.0004
 25  6 30 19 43  0.0000000  0 11G13G23G15G27G26G16G29G32G18G24G10
   4687787.56645   3673618.36743  24325984.7274                   24325986.2624
        33.5004         18.5004
  -1216325.34448   -925850.50446  20310681.6484                   20310679.3484
        48.5004         39.7504
   2142124.57847   1684127.09046  21602124.6644                   21602124.1954
        44.2504         41.0004
  -7166541.36347  -5534972.47746  22697837.2974                   22697838.3014
        43.0004         38.0004
   4144321.69946   3237399.65244  24742737.5784                   24742743.8554
        37.5004         29.5004
    360160.24646    315842.54343  23679765.8754                   23679766.0664
        36.7504         20.5004
   6319033.02346   4924697.32045  23097794.9454                   23097796.9264
        41.2504         35.7504
  -4714083.32846  -3623174.81646  24044996.6954                   24045002.9384
        41.5004         36.2504
  -1476453.76247  -1139241.88346  20790560.9694                   20790559.0824
        47.5004         38.5004
   1701695.10946   -402888.57045  24482895.7814                   24482900.9844
        38.0004         30.0004
  -6287312.59047  -4852163.64147  21829923.1804                   21829924.5044
        44.7504         42.7504
 25  6 30 19 43 30.0000000  0 11G13G23G15G27G26G16G29G32G18G24G10
   4680030.89555   3667574.13752  24324506.7664                   24324510.1644
        31.0004         16.7504
  -1299152.77047   -990391.36346  20294919.6884                   20294918.1414
        47.7504         39.5004
   2109843.35547   1658972.84846  21595982.4694                   21595980.9774
        44.5004         41.2504
  -7346588.53547  -5675268.91446  22663575.7664                   22663576.4774
        42.7504         37.5004
   4113409.62146   3213312.15644  24736855.4304                   24736861.5944
        36.5004         27.2504
    303110.38746    271387.99243  23668909.6174                   23668910.1134
        37.5004         21.2504
   6325445.47347   4929693.89146  23099015.3914                   23099017.0634
        42.0004         36.0004
  -4920894.85946  -3784326.41445  24005640.8754                   24005646.4964
        39.7504         35.2504
  -1565726.21947  -1208804.84846  20773572.8134                   20773571.2464
        47.2504         37.7504
   1531521.54346   -535491.19544  24450512.2894                   24450517.1954
        36.2504         27.5004
  -6432344.09847  -4965175.18447  21802324.7974                   21802325.6524
        43.7504         42.7504
 25  6 30 19 44  0.0000000  0 11G13G23G15G27G26G16G29G32G18G24G10
                                  24323078.906
        27.500
  -1381771.78147  -1054769.82446  20279197.8984                   20279196.3204
        47.2504         39.5004
   2077983.45347   1634146.90646  21589919.8444                   21589918.0944
        46.2504         41.5004
  -7526345.31646  -5815339.08646  22629369.0004                   22629370.3714
        41.5004         37.5004
   4082486.52045   3189216.09044  24730970.8674                   24730977.5634
        35.5004         28.0004
    246389.66046    227189.92243  23658116.2114                   23658116.3324
        36.7504         21.7504
   6331991.73847   4934794.68045  23100261.9614                   23100262.8364
        43.0004         35.5004
  -5127713.16046  -3945483.27345  23966284.9224                   23966289.8554
        40.0004         35.5004
  -1654816.07847  -1278225.52346  20756619.7114                   20756618.4264
        46.7504         38.0004
   1361436.06646   -668025.21144  24418146.6174                   24418150.6844
        36.5004         25.7504
  -6577177.75447  -5078032.55147  21774763.7664                   21774765.0904
        45.0004         43.5004
 25  6 30 19 44 30.0000000  0 11G13G23G15G27G26G16G29G32G18G24G10
   6240703.70715                  24621495.766
        34.500
    111237.83248    108614.28546  20563308.3674                   20563306.6564
        48.0004         39.2504
   3621962.47747   2837247.40246  21883729.2584                   21883727.6724
        45.7504         41.5004
  -6130384.43046  -4727577.33246  22895010.7974                   22895012.6724
        41.2504         37.0004
   5626969.43445   4392709.13344  25024876.0864                   25024882.7344
        34.2504         28.0004
   1765416.09046   1410846.78143  23947177.7034                   23947177.6094
        39.2504         22.2504
   7914088.16847   6167596.89545  23401324.7974                   23401325.0904
        43.0004         35.0004
  -3759109.77046  -2879038.80146  24226721.7664                   24226726.5514
        41.2504         37.0004
   -168300.63747   -119901.81646  21039494.3134                   21039492.7544
        47.0004         38.0004
   2766866.32446    427115.43444  24685590.7814                   24685595.0864
        36.5004         25.5004
  -5146390.27047  -3963133.19947  22047033.6174                   22047034.5554
        44.5004         43.2504
 25  6 30 19 45  0.0000000  0 11G13G23G15G27G26G16G29G32G18G24G10
   6233708.66445   4884893.84852  24620164.9304                   24620165.4224
        34.7504         17.7504
     29031.90647     44557.71146  20547665.1644                   20547663.5824
        47.0004         39.2504
   3590938.22747   2813072.60246  21877825.4454                   21877823.8404
        44.5004         40.5004
  -6309552.58646  -4867188.83646  22860916.5164                   22860918.5904
        41.5004         38.0004
   5596016.17645   4368589.55144  25018986.5394                   25018993.4184
        32.0004         26.2504
   1709346.43446   1367156.06343  23936507.9224                   23936507.6174
        39.7504         21.7504
   7920895.49247   6172901.11745  23402620.5864                   23402620.9384
        44.0004         35.5004
  -3965933.45746  -3040199.84846  24187363.5634                   24187369.5314
        40.5004         36.0004
   -257022.27747   -189035.57446  21022611.1414                   21022609.2664
        47.5004         37.5004
   2596966.87545    294726.40644  24653259.6804                   24653264.0704
        35.7504         26.7504
  -5290829.03947  -4075682.85947  22019548.0164                   22019548.9804
        45.0004         43.0004
 25  6 30 19 45 30.0000000  0 11G13G23G15G27G26G16G29G32G18G24G10
   6226960.85545   4879635.73842  24618880.1564                   24618881.9344
        33.0004         15.5004
    -52970.41047    -19340.21946  20532060.9534                   20532059.2584
        47.5004         39.2504
   3560327.03947   2789219.70746  21872000.0474                   21871999.3054
        46.0004         40.7504
  -6488423.56246  -5006568.74646  22826878.2974                   22826879.6294
        41.7504         37.7504
   5565042.68845   4344454.26244  25013091.8204                   25013098.7234
        33.5004         27.0004
   1653597.46946   1323715.23443  23925899.7584                   23925899.5354
        39.2504         22.0004
   7927828.80146   6178303.51245  23403940.1724                   23403940.6024
        41.5004         34.5004
  -4172756.91846  -3201360.75045  24148006.0554                   24148011.6294
        40.0004         35.2504
   -345559.46547   -258025.59446  21005762.9384                   21005761.3164
        46.5004         37.0004
   2427164.30146    162412.81344  24620947.1414                   24620951.8204
        36.2504         28.2504
  -5435071.82447  -4188079.81647  21992099.3444                   21992100.2704
        45.0004         43.2504
 25  6 30 19 46  0.0000000  0 11G13G23G15G27G26G16G29G32G18G24G10
   6220458.125 5                  24617640.961
        30.750
   -134770.02748    -83080.18446  20516494.6414                   20516492.8014
        48.0004         39.5004
   3530126.85547   2765687.03946  21866252.6484                   21866251.8484
        43.7504         39.5004
  -6666994.24647  -5145714.67646  22792897.6334                   22792898.5594
        43.0004         37.2504
   5534046.62545   4320301.27044  25007194.2274                   25007200.3554
        34.2504         27.0004
   1598167.46146   1280522.94143  23915351.7034                   23915351.1604
        39.2504         22.0004
   7934886.03546   6183802.49645  23405283.0234                   23405283.7344
        41.7504         34.5004
  -4379577.14546  -3362519.19145  24108648.5554                   24108655.5234
        38.2504         33.0004
   -433910.78147   -326870.78946  20988950.6174                   20988948.9454
        47.0004         37.0004
   2257462.43846     30177.69544  24588653.7504                   24588658.4614
        36.2504         27.7504
  -5579118.49647  -4300323.94547  21964687.7664                   21964689.1524
        44.2504         42.2504
 25  6 30 19 46 30.0000000  0 11G13G23G15G27G26G16G29G32G18G24G10
   6214201.047 5                  24616452.539
        34.500
   -216364.79347   -146660.53146  20500967.8524                   20500966.3244
        47.7504         39.0004
   3500338.55947   2742475.35246  21860584.4774                   21860583.5394
        44.7504         40.0004
  -6845258.77347  -5284622.05146  22758975.0394                   22758976.2074
        42.5004         38.5004
   5503028.57045   4296131.17644  25001291.7344                   25001298.9534
        34.7504         29.0004
   1543057.34046   1237579.90243  23904864.4304                   23904863.9144
        40.5004         22.5004
   7942068.24646   6189398.84045  23406649.4144                   23406650.4144
        40.0004         34.0004
  -4586388.25846  -3523670.48445  24069294.8674                   24069299.7814
        40.0004         31.5004
   -522071.99247   -395567.84446  20972173.7114                   20972172.0944
        47.0004         37.5004
   2087867.90245   -101973.79744  24556380.7894                   24556385.4144
        34.7504         27.2504
  -5722966.07847  -4412412.93747  21937314.6094                   21937315.9574
        44.0004         42.0004
 25  6 30 19 47  0.0000000  0 11G13G23G15G27G26G16G29G32G18G24G10
   6208186.902 6                  24615308.531
        39.000
   -297755.75848   -210082.07446  20485479.6804                   20485478.1844
        48.5004         39.0004
   3470960.00847   2719582.92246  21854994.4064                   21854993.2504
        45.5004         40.7504
  -7023214.26247  -5423288.61346  22725111.4064                   22725112.2894
        43.0004         39.5004
   5471986.12145   4271942.06344  24995385.1804                   24995391.3284
        35.0004         28.2504
   1488264.81346   1194884.34043  23894437.8204                   23894437.8754
        40.7504         22.7504
   7949373.43846   6195091.00045  23408039.5864                   23408041.0044
        41.2504         33.0004
  -4793187.43046  -3684812.41045  24029941.2274                   24029945.6334
        39.0004         30.5004
   -610041.83647   -464115.78946  20955433.8054                   20955432.1414
        47.0004         37.0004
   1918384.21545   -234038.85544  24524129.5164                   24524134.0004
        35.2504         26.2504
  -5866614.53547  -4524346.78146  21909979.1884                   21909980.4534
        45.0004         41.7504
 25  6 30 19 47 30.0000000  0 11G13G23G15G27G26G16G29G32G18G24G10
   6202416.699 6                  24614210.313
        37.750
   -378940.64148   -273343.03546  20470030.6724                   20470029.1024
        48.0004         39.0004
   3441992.28547   2697010.62546  21849482.0314                   21849480.9024
        47.2504         41.0004
  -7200854.52047  -5561709.54746  22691307.6564                   22691309.0204
        43.5004         39.7504
   5440920.05545   4247734.57844  24989472.8134                   24989480.1454
        35.0004         27.5004
   1433791.00846   1152437.13343  23884071.9614                   23884071.7464
        39.7504         22.0004
   7956802.97747   6200880.04345  23409453.9844                   23409455.0474
        42.2504         34.2504
  -4999968.35946  -3845940.14545  23990592.8674                   23990597.1454
        38.7504         31.5004
   -697815.87547   -532511.15646  20938730.6644                   20938729.2274
        46.7504         37.5004
   1749018.14545   -366012.24644  24491899.1804                   24491903.2504
        35.0004         26.0004
  -6010060.64847  -4636122.94146  21882682.5004                   21882683.4494
        44.7504         41.5004
 25  6 30 19 48  0.0000000  0 11G13G23G15G27G26G16G29G32G18G24G10
   6196890.895 6                  24613157.547
        37.500
   -459917.63748   -336442.01246  20454621.4144                   20454619.5314
        48.5004         39.5004
   3413435.89147   2674758.85246  21844048.0164                   21844046.7034
        46.0004         40.5004
  -7378173.89147  -5699880.44146  22657564.7344                   22657566.4844
        43.0004         39.7504
   5409830.69145   4223508.95344  24983556.7424                   24983563.1374
        35.0004         25.5004
   1379636.45746   1110238.72743  23873766.8594                   23873766.4774
        40.0004         21.5004
   7964357.56346   6206766.51645  23410891.6414                   23410893.2774
        41.0004         35.0004
  -5206725.43446  -4007049.37545  23951246.9774                   23951253.1454
        38.5004         30.0004
   -785390.00847   -600750.74246  20922066.4694                   20922064.3914
        47.2504         37.2504
   1579776.20346   -497888.94944  24459693.1564                   24459698.1644
        36.5004         26.0004
  -6153301.65647  -4747739.28547  21855424.4614                   21855425.7974
        45.2504         42.0004
 25  6 30 19 48 30.0000000  0 11G13G23G15G27G26G16G29G32G18G24G10
   6191603.293 6                  24612152.141
        40.000
   -540691.45748   -399382.66046  20439250.5084                   20439248.8754
        48.0004         39.0004
   3385284.89547   2652822.98046  21838690.8364                   21838689.7544
        45.5004         39.7504
  -7555173.28547  -5837802.00446  22623881.9774                   22623884.5004
        43.0004         39.2504
   5378711.92246   4199260.40644  24977635.4694                   24977641.6094
        36.0004         27.2504
   1325795.62546   1068284.75843  23863520.5634                   23863521.2734
        40.5004         20.0004
   7972030.97746   6212745.60245  23412352.2894                   23412354.0594
        41.0004         35.0004
  -5413459.42646  -4168140.60545  23911907.0634                   23911913.3874
        40.2504         33.2504
   -872766.80948   -668836.57446  20905438.9454                   20905437.3554
        48.0004         38.0004
   1410658.21945   -629669.07044  24427511.6414                   24427516.5744
        34.5004         28.5004
  -6296341.34447  -4859198.75447  21828205.1644                   21828205.8674
        45.0004         42.2504
 25  6 30 19 49  0.0000000  0 11G13G23G15G27G26G16G29G32G18G24G10
   6186553.41446   4873116.23853  24611190.8524                   24611193.0634
        37.7504         18.2504
   -621261.07047   -462164.19146  20423918.5554                   20423916.9924
        47.7504         39.2504
   3357539.00847   2631202.75846  21833410.7034                   21833409.7664
        45.2504         39.0004
  -7731847.74647  -5975470.39146  22590262.6564                   22590263.9774
        43.0004         39.2504
   5347563.37946   4174988.62544  24971709.0864                   24971715.2114
        37.5004         26.7504
   1272268.10246   1026574.94143  23853335.2814                   23853334.8324
        38.7504         18.5004
   7979823.57046   6218817.58245  23413834.5164                   23413836.9614
        40.7504         34.0004
  -5620165.48846  -4329210.06245  23872572.4454                   23872577.3484
        40.5004         34.0004
   -959943.06248   -736766.14546  20888850.2814                   20888848.3634
        48.0004         38.5004
   1241669.69145   -761348.29344  24395353.1804                   24395358.8204
        33.0004         29.0004
  -6439177.78947  -4970499.85246  21801024.5554                   21801024.8134
        45.0004         41.5004
 25  6 30 19 49 30.0000000  0 11G13G23G15G27G26G16G29G32G18G24G10
                                  24610276.5084                   24610277.8954
        40.2504         17.7504
   -701627.25048   -524787.20346  20408625.7344                   20408623.6804
        48.5004         39.0004
   3330196.27347   2609896.69546  21828208.0634                   21828206.6294
        45.5004         39.0004
  -7908194.25847  -6112883.21546  22556704.9694                   22556705.2274
        42.0004         38.5004
   5316382.68446   4150691.80143  24965774.7344                   24965780.2854
        36.0004         22.0004
   1219051.83246    985107.62543  23843208.6954                   23843208.6374
        39.2504         19.7504
   7987733.72346   6224981.11745  23415339.9774                   23415341.9384
        40.5004         35.0004
  -5826840.47347  -4490255.34045  23833243.8364                   23833247.4694
        43.0004         34.2504
  -1046917.30948   -804538.28946  20872299.2664                   20872297.6724
        48.2504         38.2504
   1072814.70745   -892923.52044  24363221.5314                   24363226.3874
        34.5004         29.0004
  -6581810.76647  -5081642.40246  21773882.0084                   21773882.7854
        45.5004         41.7504
 25  6 30 19 50  0.0000000  0 11G13G23G15G27G26G16G29G32G18G24G10
   6177159.30146   4865796.00042  24609404.2814                   24609405.4304
        39.2504         16.2504
   -781788.45347   -587250.48046  20393371.3444                   20393368.9614
        47.2504         38.7504
   3303257.01647   2588905.00846  21823081.7584                   21823080.7894
        46.5004         40.2504
  -8084207.43447  -6250036.28546  22523211.3054                   22523211.3984
        43.7504         38.5004
   5285170.12545   4126370.21543  24959835.6094                   24959841.4574
        33.2504         22.0004
   1166147.23046    943883.15243  23833141.4534                   23833142.0004
        39.0004         19.2504
   7995761.80146   6231236.54745  23416867.8364                   23416869.6604
        40.7504         33.5004
  -6033478.94146  -4651272.13745  23793921.4694                   23793925.9734
        41.2504         33.5004
  -1133685.76648   -872150.08646  20855788.0634                   20855785.6994
        48.2504         38.5004
    904099.06645  -1024390.13344  24331115.4924                   24331120.2194
        34.7504         28.2504
  -6724237.77347  -5192624.46546  21746779.0634                   21746780.0904
        46.2504         41.7504
 25  6 30 19 50 30.0000000  0 11G13G23G15G27G26G16G29G32G18G24G10
   6172813.60546   4862409.73442  24608576.2504                   24608578.2664
        38.0004         16.2504
   -861744.44147   -649553.85546  20378156.4224                   20378154.4064
        47.5004         38.2504
   3276720.10247   2568226.85946  21818032.0944                   21818030.4924
        45.7504         41.0004
  -8259883.14847  -6386926.39546  22489780.6094                   22489781.4774
        42.7504         39.5004
   5253924.49645   4102022.80143  24953889.5394                   24953894.2034
        35.2504         21.7504
   1113553.44946    902900.89543  23823132.2034                   23823133.7034
        36.7504         18.2504
   8003906.90647   6237583.13745  23418418.9224                   23418420.0084
        42.0004         35.0004
  -6240076.74247  -4812257.28545  23754607.4144                   23754611.1724
        42.0004         34.0004
  -1220245.97348   -939599.60546  20839315.6884                   20839314.0704
        48.2504         38.0004
    735527.68846  -1155744.26644  24299038.4534                   24299042.3954
        37.0004         28.5004
  -6866457.71547  -5303445.17647  21719715.6804                   21719716.1604
        46.2504         42.0004
 25  6 30 19 51  0.0000000  0 11G13G23G15G27G26G16G29G32G18G24G10
   6168702.06646   4859205.87542  24607794.8364                   24607795.7974
        37.7504         17.2504
   -941493.55147   -711696.02746  20362980.0164                   20362978.6884
        47.7504         38.2504
   3250585.98847   2547862.57846  21813058.4304                   21813057.5664
        45.0004         40.2504
  -8435216.07047  -6523549.40246  22456416.4534                   22456417.4344
        43.7504         41.0004
   5222645.95745   4077649.74643  24947937.5084                   24947944.1524
        35.5004         23.5004
   1061270.78946    862161.12543  23813183.8204                   23813184.9804
        37.5004         18.2504
   8012169.38747   6244021.20346  23419991.2504                   23419992.7194
        43.0004         36.5004
  -6446628.39846  -4973206.41045  23715301.7664                   23715305.9304
        41.5004         34.7504
  -1306594.10247  -1006883.87146  20822884.0704                   20822882.7774
        47.7504         37.2504
    567106.82446  -1286981.16445  24266989.7584                   24266993.0004
        37.7504         30.5004
  -7008468.02047  -5414102.53947  21692691.7734                   21692692.1294
        47.0004         42.0004
 25  6 30 19 51 30.0000000  0 11G13G23G15G27G26G16G29G32G18G24G10
   6164818.41846   4856179.61742  24607056.0784                   24607057.2464
        36.7504         16.7504
  -1021040.87147   -773680.96146  20347842.8134                   20347841.3164
        47.0004         38.7504
   3224848.36347   2527807.23046  21808160.5394                   21808160.2384
        45.7504         39.5004
  -8610207.33247  -6659906.19546  22423115.9774                   22423118.2194
        42.2504         40.7504
   5191328.00046   4053246.00444  24941979.0164                   24941984.7384
        37.5004         25.7504
   1009292.70746    821658.63343  23803293.2974                   23803293.1054
        36.7504         18.5004
   8020543.10946   6250545.96945  23421585.0004                   23421586.4734
        40.7504         34.2504
  -6653135.16446  -5134120.53545  23676004.7894                   23676008.8914
        40.2504         35.0004
  -1392733.05147  -1074005.14846  20806492.4534                   20806490.9924
        47.5004         37.2504
    398836.00446  -1418101.17644  24234968.6484                   24234971.4064
        37.2504         29.2504
  -7150272.88347  -5524599.82047  21665706.9534                   21665708.1724
        45.5004         42.5004
 25  6 30 19 52  0.0000000  0 11G13G23G15G27G26G16G29G32G18G24G10
   7736581.67645   6080930.14142  24906152.1024                   24906154.4184
        33.2504         15.5004
    475036.85548    392093.87546  20632537.2734                   20632535.2274
        48.0004         39.0004
   4774927.18847   3735660.81346  22103130.5944                   22103130.0434
        44.0004         38.5004
  -7209426.77047  -5568388.87146  22689675.4064                   22689677.7464
        42.5004         39.5004
   6735390.87546   5256411.66844  25235804.7344                   25235810.2424
        38.5004         25.5004
   2533040.34046   2008994.34042  24093252.2424                   24093253.4264
        36.2504         17.2504
   9604447.65246   7484757.09045  23722990.6954                   23722993.8554
        39.5004         33.0004
  -5284165.54346  -4067390.76245  23936509.3834                   23936514.9804
        39.0004         33.0004
     96762.87147     86641.02046  21089934.0004                   21089932.4884
        47.5004         36.7504
   1806145.89845   -321495.98844  24502770.2344                   24502774.2304
        35.5004         29.0004
  -5716446.03547  -4407332.11747  21938555.3284                   21938556.0634
        47.2504         42.7504
 25  6 30 19 52 30.0000000  0 11G13G23G15G27G26G16G29G32G18G24G10
   7733151.98045   6078257.54742  24905498.8594                   24905502.3674
        32.2504         14.7504
    395896.76247    330426.26246  20617477.2814                   20617476.0984
        47.7504         40.0004
   4749981.78147   3716222.78946  22098383.9304                   22098383.3014
        44.2504         39.0004
  -7383719.73047  -5704201.54746  22656509.8364                   22656509.2384
        44.2504         39.2504
   6703993.50046   5231946.01643  25229829.1564                   25229835.4964
        37.7504         22.7504
   2481671.59846   1968966.68042  24083476.9064                   24083478.1604
        37.2504         16.7504
   9613044.80146   7491455.93845  23724627.7664                   23724629.3834
        40.2504         34.0004
  -5490566.93046  -4228222.83645  23897233.3754                   23897237.8914
        40.5004         35.2504
     11052.55947     19853.75446  21073624.4694                   21073622.6644
        46.7504         36.7504
   1638192.35945   -452368.77744  24470809.3914                   24470813.6684
        35.5004         29.0004
  -5857833.62147  -4517504.25447  21911650.4384                   21911650.9454
        46.5004         43.5004
 25  6 30 19 53  0.0000000  0 11G13G23G15G27G26G16G29G32G18G24G10
   7729949.62545   6075762.16042  24904889.4384                   24904892.8634
        33.7504         14.7504
    316962.68848    268919.18046  20602456.9454                   20602454.7274
        48.0004         39.5004
   4725433.10247   3697093.89846  22093712.7504                   22093712.2464
        43.7504         39.7504
  -7557655.57047  -5839735.85946  22623410.6884                   22623410.4614
        44.0004         39.0004
   6672556.71546   5207449.61744  25223847.0704                   25223854.0164
        38.5004         26.5004
   2430608.24646   1929176.94542  24073759.7584                   24073761.0474
        36.5004         17.2504
   9621754.23046   7498242.24645  23726286.0164                   23726287.0084
        40.5004         35.5004
  -5696907.55947  -4389007.52046  23857967.8754                   23857972.2854
        42.0004         36.0004
    -74437.69147    -46762.03546  21057355.7274                   21057354.2894
        47.0004         37.0004
   1470406.71546   -583110.73045  24438880.8444                   24438884.6764
        37.0004         30.5004
  -5999008.85247  -4627510.89547  21884785.2584                   21884786.0274
        46.5004         43.5004
 25  6 30 19 53 30.0000000  0 11G13G23G15G27G26G16G29G32G18G24G10
   7726968.06345   6073438.91042  24904322.4304                   24904325.5434
        35.2504         15.5004
    238229.81648    207568.87946  20587474.3524                   20587472.3794
        48.5004         39.5004
   4701274.93047   3678269.30146  22089115.6334                   22089114.6484
        43.0004         40.0004
  -7731235.21546  -5974992.67246  22590378.2974                   22590379.6804
        40.7504         38.7504
   6641074.26246   5182917.73444  25217857.1414                   25217863.8014
        39.7504         26.0004
   2379843.65646   1889620.07042  24064100.4304                   24064101.0784
        36.0004         17.7504
   9630569.78946   7505111.28945  23727962.9304                   23727964.8674
        39.5004         34.0004
  -5903188.24247  -4549745.51646  23818714.5314                   23818718.3524
        43.7504         36.5004
   -159710.60548   -113208.46546  21041128.7894                   21041127.4264
        48.0004         37.2504
   1302788.74645   -713722.01244  24406984.7584                   24406988.6804
        35.5004         29.0004
  -6139975.69947  -4737355.16447  21857960.1644                   21857961.2974
        46.7504         44.5004
 25  6 30 19 54  0.0000000  0 11G13G23G15G27G26G16G29G32G18G24G10
   7724207.53555   6071824.17653  24903796.9224                   24903797.1454
        35.5004         18.2504
    159697.61347    146374.95346  20572530.2664                   20572528.5704
        47.7504         39.0004
   4677505.33247   3659747.50446  22084592.8594                   22084591.6524
        44.7504         40.0004
  -7904455.45346  -6109969.48846  22557415.7424                   22557417.6024
        40.7504         39.0004
   6609544.27346   5158348.66443  25211857.4304                   25211862.9774
        39.7504         23.7504
   2329376.11746   1850294.60542  24054496.6564                   24054496.9534
        36.7504         16.7504
   9639490.21946   7512062.05545  23729661.3674                   23729663.6484
        41.5004         35.7504
  -6109405.69547  -4710434.26245  23779472.0784                   23779475.5394
        43.5004         35.5004
   -244764.48447   -179484.21946  21024943.8364                   21024942.4454
        47.7504         37.7504
   1135342.37945   -844199.57444  24375119.9694                   24375123.5984
        34.0004         27.0004
  -6280733.77747  -4847036.75447  21831174.5084                   21831175.6804
        47.0004         44.5004
 25  6 30 19 54 30.0000000  0 10G23G15G27G26G16G29G32G18G24G10
     81370.91448     85341.14146  20557625.2504                   20557623.3554
        48.0004         39.2504
   4654127.59847   3641531.05146  22080143.7504                   22080142.8674
        43.7504         40.7504
  -8077307.68047  -6244659.50446  22524523.3674                   22524524.7274
        43.2504         39.2504
   6577970.10546   5133745.36744  25205849.1954                   25205855.7704
        40.7504         25.2504
   2279209.19946   1811203.43843  24044950.7034                   24044950.5474
        37.7504         19.7504
   9648519.54346   7519097.64845  23731379.0394                   23731381.2424
        40.7504         34.7504
  -6315551.19147  -4871066.89845  23740243.3524                   23740246.7624
        42.0004         34.0004
   -329592.28947   -245583.81646  21008801.8834                   21008799.4694
        47.0004         37.7504
    968077.08245   -974536.05144  24343290.5234                   24343294.6524
        33.2504         26.0004
  -6421277.37947  -4956551.22347  21804430.4534                   21804431.1214
        47.0004         45.2504
 25  6 30 19 55  0.0000000  0 10G23G15G27G26G16G29G32G18G24G10
      3250.51247     24468.09046  20542759.2504                   20542757.8444
        47.5004         39.5004
   4631141.20347   3623619.55946  22075769.7814                   22075768.5704
        44.0004         40.0004
  -8249787.44547  -6379059.27746  22491701.6024                   22491702.5004
        43.7504         40.7504
   6546351.09846   5109106.99643  25199830.8524                   25199838.1454
        38.2504         22.5004
   2229342.32046   1772346.03143  24035460.0784                   24035461.3324
        36.2504         18.5004
   9657656.96146   7526217.47745  23733118.1884                   23733120.0744
        41.0004         34.0004
  -6521620.01247  -5031639.82445  23701030.1644                   23701033.1484
        43.5004         34.7504
   -414191.06247   -311504.94146  20992703.0784                   20992701.2274
        47.2504         37.2504
    800998.23045  -1104727.24644  24311496.5554                   24311501.0514
        34.5004         27.5004
  -6561604.93747  -5065897.34447  21777726.8284                   21777727.7734
        47.7504         46.0004
 25  6 30 19 55 30.0000000  0 10G23G15G27G26G16G29G32G18G24G10
    -74667.17247    -36246.98846  20527932.0164                   20527930.3364
        47.0004         38.7504
   4608541.55947   3606009.40246  22071469.1884                   22071468.2854
        43.5004         39.2504
  -8421894.46947  -6513168.59046  22458950.4454                   22458951.9614
        43.0004         40.2504
   6514682.34846   5084429.93843  25193805.8984                   25193811.8204
        40.5004         22.5004
   2179770.53146   1733718.61743  24026027.8134                   24026027.8954
        37.7504         19.2504
   9666898.09446   7533418.11345  23734877.0704                   23734878.9534
        40.0004         33.0004
  -6727611.91447  -5192152.81246  23661830.6024                   23661834.3834
        43.2504         36.0004
   -498562.22347   -377248.71546  20976647.7814                   20976645.9694
        47.7504         37.2504
    634106.69945  -1234772.49245  24279737.8914                   24279741.7734
        35.7504         31.0004
  -6701719.05547  -5175077.13747  21751063.9844                   21751065.1844
        47.5004         46.5004
 25  6 30 19 56  0.0000000  0 10G23G15G27G26G16G29G32G18G24G10
   -152373.73847    -96797.57046  20513144.9144                   20513143.3714
        46.5004         39.0004
   4586335.39847   3588705.82846  22067243.2504                   22067242.6334
        43.7504         39.5004
  -8593616.73847  -6646978.12546  22426273.0084                   22426274.5394
        42.5004         40.5004
   6482970.85946   5059719.54343  25187771.1954                   25187777.6994
        38.5004         22.7504
   2130501.00046   1695326.67243  24016651.9064                   24016652.2154
        37.2504         18.5004
   9676249.95746   7540705.05545  23736656.8984                   23736658.2234
        39.5004         33.2504
  -6933514.61747  -5352596.27746  23622648.3674                   23622652.8594
        42.5004         36.0004
   -582695.16447   -442806.87146  20960637.8134                   20960636.1024
        47.0004         37.0004
    467415.43046  -1364661.67245  24248018.1254                   24248021.9264
        37.2504         32.0004
  -6841610.60248  -5284083.51647  21724443.3134                   21724444.2624
        48.0004         47.0004
 25  6 30 19 56 30.0000000  0 10G23G15G27G26G16G29G32G18G24G10
   -229866.87547   -157181.82446  20498398.7114                   20498396.9264
        47.0004         38.7504
   4564523.33246   3571709.35546  22063092.4304                   22063092.3244
        41.5004         39.0004
  -8764948.11347  -6780483.06246  22393669.5234                   22393670.8594
        43.2504         41.0004
   6451217.53146   5034976.55143  25181728.6724                   25181735.4844
        38.5004         23.2504
   2081534.57046   1657170.94143  24007334.5314                   24007334.3554
        38.5004         19.7504
   9685713.74646   7548079.16045  23738458.6884                   23738460.3484
        40.0004         33.2504
  -7139321.96146  -5512965.50845  23583484.8984                   23583488.7504
        41.5004         35.5004
   -666585.41447   -508175.91046  20944673.9454                   20944672.4144
        46.7504         37.5004
    300931.34846  -1494389.43045  24216337.2584                   24216340.5004
        38.2504         31.7504
  -6981276.41047  -5392913.98847  21697865.5084                   21697866.3284
        47.5004         47.2504
 25  6 30 19 57  0.0000000  0 10G23G15G27G26G16G29G32G18G24G10
   -307148.52047   -217401.29746  20483692.3444                   20483690.2384
        47.5004         38.5004
   4543102.62147   3555017.84046  22059016.0394                   22059016.4574
        42.0004         38.7504
  -8935886.95747  -6913682.12546  22361141.1884                   22361142.4884
        43.2504         40.5004
   6419419.13746   5010198.44544  25175677.5864                   25175684.5634
        39.7504         27.5004
   2032868.07846   1619248.91043  23998073.0634                   23998072.9534
        37.0004         19.2504
   9695286.44146   7555538.14545  23740279.5944                   23740281.9184
        40.0004         32.5004
  -7345032.03146  -5673258.89846  23544338.7194                   23544343.3014
        41.2504         36.0004
   -750232.76647   -573355.66446  20928756.2504                   20928754.8984
        47.0004         37.5004
    134657.06646  -1623953.72345  24184695.9224                   24184699.5704
        37.5004         30.7504
  -7120717.57848  -5501569.41447  21671331.2894                   21671331.9104
        48.2504         47.5004
 25  6 30 19 57 30.0000000  0 10G23G15G27G26G16G29G32G18G24G10
   -384223.98047   -277460.11746  20469025.3524                   20469023.5554
        46.7504         38.2504
   4522066.16047   3538625.75046  22055014.0634                   22055012.9964
        42.7504         38.7504
  -9106434.79347  -7046576.49646  22328686.9064                   22328687.6954
        43.5004         39.7504
   6387568.86746   4985379.89145  25169617.5864                   25169624.8444
        40.2504         31.0004
   1984494.51246   1581555.09443  23988868.3134                   23988868.4844
        37.2504         19.0004
   9704961.81646   7563077.16845  23742120.6564                   23742122.6024
        38.7504         30.5004
  -7550646.28946  -5833477.59445  23505212.3984                   23505215.4144
        41.2504         35.0004
   -833640.30947   -638348.56646  20912884.2734                   20912882.6684
        47.0004         37.5004
    -31408.32846  -1753355.22744  24153094.2974                   24153097.6024
        36.2504         28.7504
  -7259938.56248  -5610053.26248  21644837.9224                   21644838.6914
        48.5004         48.0004
 25  6 30 19 58  0.0000000  0 10G23G15G27G26G16G29G32G18G24G10
   -461090.20347   -337355.88346  20454398.1954                   20454396.9844
        47.5004         38.5004
   4501415.44947   3522534.26646  22051083.8834                   22051083.1094
        43.5004         39.0004
  -9276584.91847  -7179160.95346  22296307.8364                   22296309.6374
        42.7504         40.2504
   6355668.53146   4960522.29344  25163546.7894                   25163554.5744
        38.5004         29.0004
   1936415.55146   1544090.86743  23979719.6644                   23979719.8754
        38.2504         19.7504
   9714741.74646   7570697.62945  23743982.4384                   23743984.1804
        39.5004         30.2504
  -7756157.73446  -5993616.17245  23466103.7584                   23466107.6844
        40.7504         34.7504
   -916802.92247   -703150.60546  20897058.8524                   20897057.6644
        46.7504         37.5004
   -197257.14546  -1882587.95344  24121534.0394                   24121538.0784
        36.0004         28.5004
  -7398935.58248  -5718362.60248  21618387.8444                   21618388.5354
        48.5004         48.0004
 25  6 30 19 58 30.0000000  0 10G23G15G27G26G16G29G32G18G24G10
   -537749.02747   -397090.05946  20439810.8444                   20439808.8754
        47.5004         38.7504
   4481147.19147   3506740.74246  22047227.2274                   22047225.7384
        43.2504         37.7504
  -9446335.66447  -7311434.21146  22264006.0704                   22264007.2344
        43.5004         41.0004
   6323714.79746   4935623.07044  25157465.9064                   25157473.8834
        38.0004         29.2504
   1888628.03546   1506853.79343  23970625.7974                   23970625.5474
        37.2504         19.0004
   9724623.37946   7578397.32445  23745863.9534                   23745865.1414
        38.0004         30.5004
  -7961564.41447  -6153673.10246  23427016.1414                   23427020.3754
        42.0004         37.0004
   -999720.27047   -767761.53146  20881280.9614                   20881278.8094
        47.2504         38.0004
   -362886.78546  -2011649.87145  24090015.6254                   24090019.6254
        37.0004         31.5004
  -7537709.66048  -5826498.21547  21591979.8364                   21591980.8134
        48.7504         47.7504
 25  6 30 19 59  0.0000000  0 10G23G15G27G26G16G29G32G18G24G10
   -614203.49247   -456664.97746  20425261.6954                   20425259.8164
        47.5004         38.0004
   4461257.32446   3491242.10546  22043442.0394                   22043440.9304
        41.7504         37.2504
  -9615686.20747  -7443395.63746  22231779.3984                   22231780.7344
        43.0004         41.0004
   6291703.25046   4910678.85544  25151374.3134                   25151382.0354
        37.5004         27.5004
   1841127.58646   1469840.34043  23961586.3594                   23961586.8754
        37.0004         18.5004
   9734602.18446   7586172.70745  23747762.4534                   23747764.9614
        39.0004         32.0004
  -8166865.47347  -6313647.74646  23387948.9454                   23387952.6644
        42.5004         38.5004
  -1082393.24247   -832182.04346  20865548.5784                   20865547.0044
        47.0004         38.0004
   -528295.73046  -2140539.82045  24058539.5004                   24058543.5274
        37.5004         32.2504
  -7676263.01248  -5934461.84047  21565614.3054                   21565614.8164
        48.7504         47.7504
 25  6 30 19 59 30.0000000  0 10G23G15G27G26G16G29G32G18G24G10
   -690453.87147   -516080.86346  20410751.8674                   20410749.7974
        47.0004         38.5004
   4441743.69547   3476036.63346  22039728.8364                   22039728.1994
        42.5004         37.0004
  -9784633.24647  -7575042.66046  22199629.8134                   22199630.9414
        42.5004         40.5004
   6259632.35246   4885688.35944  25145272.3594                   25145279.7504
        38.7504         28.7504
   1793912.42246   1433049.23043  23952602.2734                   23952602.5984
        36.7504         19.0004
   9744676.84846   7594022.84844  23749679.0784                   23749682.0784
        37.7504         29.5004
  -8372057.37947  -6473537.37546  23348902.3594                   23348906.3244
        44.2504         38.7504
  -1164819.89547   -896410.61746  20849863.2114                   20849861.3874
        47.0004         37.5004
   -693479.79346  -2269254.54345  24027106.0314                   24027109.6334
        37.5004         32.5004
  -7814595.10947  -6042253.06247  21539290.6024                   21539291.1214
        47.7504         47.7504
 25  6 30 20  0  0.0000000  0 10G23G15G27G26G16G29G32G18G24G10
    808922.37147    652264.23046  20696073.3834                   20696072.0944
        46.7504         38.0004
   5998025.62947   4688723.82046  22335879.6254                   22335879.3834
        42.7504         38.5004
  -8377747.55947  -6478768.05946  22467351.4844                   22467351.9694
        43.5004         40.5004
   7802921.66846   6088251.27744  25438951.1174                   25438957.3404
        39.0004         28.2504
   3322402.47746   2624080.34042  24243464.0314                   24243464.9494
        37.0004         17.2504
  11330266.22346   8829546.79345  24051407.0004                   24051408.4614
        37.2504         30.2504
  -7001709.41447  -5405733.59446  23609670.7274                   23609674.2034
        44.0004         38.2504
    328424.52747    267156.44546  21134017.8754                   21134016.6334
        46.0004         37.5004
    716991.04746  -1170186.25845  24295509.8834                   24295512.8594
        37.7504         32.5004
  -6377280.61348  -4922267.71547  21812802.2424                   21812803.0204
        48.5004         47.5004
 25  6 30 20  0 30.0000000  0 10G23G15G27G26G16G29G32G18G24G10
    733083.34447    593168.86346  20681641.5554                   20681640.2854
        46.5004         37.5004
   5979263.53547   4674103.96146  22332309.7274                   22332308.4024
        44.5004         39.2504
  -8545873.67247  -6609775.38746  22435357.8834                   22435358.8714
        44.0004         41.2504
   7770730.98846   6063167.39844  25432825.5864                   25432832.5084
        36.2504         27.2504
   3275756.51646   2587732.75443  24234588.3284                   24234588.6884
        36.0004         18.2504
  11340532.86746   8837546.47744  24053361.1804                   24053363.0204
        39.0004         29.5004
  -7206668.30547  -5565441.64546  23570667.4304                   23570671.3014
        42.7504         36.0004
    246499.92247    203319.07846  21118428.4224                   21118426.4494
        46.7504         37.0004
    552273.46146  -1298537.52045  24264165.2344                   24264168.9184
        37.0004         31.2504
  -6515164.73047  -5029709.86347  21786563.7504                   21786564.6414
        47.7504         47.0004
 25  6 30 20  1  0.0000000  0 10G23G15G27G26G16G29G32G18G24G10
    657447.02747    534231.47346  20667248.4774                   20667247.0984
        46.0004         38.0004
   5960872.39847   4659773.15246  22328809.9844                   22328809.0904
        43.7504         39.0004
  -8713586.78947  -6740460.89546  22403443.2814                   22403444.3014
        43.5004         41.7504
   7738475.39845   6038032.98444  25426685.4454                   25426694.4024
        31.7504         24.7504
   3229390.23045   2551603.11742  24225764.2584                   24225766.3874
        35.7504         17.7504
  11350890.71146   8845617.20745  24055332.6024                   24055333.9534
        40.2504         30.2504
  -7411507.81647  -5725056.68745  23531687.8754                   23531690.6484
        42.0004         34.7504
    164826.62947    139677.53546  21102886.2584                   21102885.1994
        46.2504         37.2504
    387792.98045  -1426704.03944  24232863.6094                   24232868.5044
        34.7504         29.0004
  -6652826.64147  -5136978.85247  21760367.3364                   21760368.1414
        47.2504         46.7504
 25  6 30 20  1 30.0000000  0 10G23G15G27G26G16G29G32G18G24G10
    582016.63347    475454.52746  20652894.8834                   20652893.0664
        46.5004         38.0004
   5942853.23447   4645732.19946  22325380.9924                   22325379.6024
        43.0004         38.5004
  -8880880.16047  -6870819.35546  22371608.4614                   22371609.1054
        44.2504         41.2504
   7706156.73445   6012849.41843  25420538.6334                   25420544.3554
        31.7504         22.7504
   3183305.15645   2515692.54742  24216994.3754                   24216995.8914
        34.5004         16.7504
  11361341.68846   8853760.52345  24057321.9534                   24057324.1844
        39.5004         31.7504
  -7616221.00847  -5884573.31645  23492732.6334                   23492735.0084
        42.0004         34.5004
     83409.84047     76235.86346  21087393.4064                   21087391.8874
        46.7504         37.2504
    223557.16846  -1554679.93445  24201611.1174                   24201615.7034
        37.0004         30.5004
  -6790262.42647  -5244071.64147  21734214.4304                   21734215.1764
        47.5004         46.5004
 25  6 30 20  2  0.0000000  0 10G23G15G27G26G16G29G32G18G24G10
    506790.92247    416837.07846  20638579.7814                   20638578.0594
        46.7504         38.5004
   5925203.50047   4631979.11346  22322022.3284                   22322021.2854
        43.2504         38.0004
  -9047751.52747  -7000848.97346  22339854.5784                   22339854.9104
        45.0004         41.5004
   7673772.55155   5987614.80554  25414376.3054                   25414382.2814
        33.5004         24.7504
   3137498.47346   2479998.96142  24208277.5944                   24208278.9654
        36.5004         17.2504
  11371883.55146   8861974.67245  24059328.2974                   24059330.6454
        40.0004         32.7504
  -7820805.32446  -6043989.47345  23453800.3524                   23453802.8554
        41.7504         33.0004
      2250.52047     12994.82046  21071949.3134                   21071947.9344
        46.2504         37.2504
     59569.23446  -1682462.62145  24170406.4774                   24170409.1334
        38.0004         30.5004
  -6927472.62147  -5350988.64547  21708103.8914                   21708104.4304
        47.2504         46.2504
 25  6 30 20  2 30.0000000  0 10G23G15G27G26G16G29G32G18G24G10
    431769.59047    358378.88346  20624303.9534                   20624302.3714
        46.5004         38.0004
   5907921.55147   4618512.64546  22318733.9224                   22318732.5944
        43.0004         37.5004
  -9214197.60547  -7130547.15646  22308180.1954                   22308180.7274
        44.7504         41.2504
   7641321.10245   5962327.75044  25408201.5084                   25408207.1644
        30.2504         24.7504
   3091968.30945   2444520.84842  24199614.3984                   24199614.9454
        35.5004         16.7504
  11382514.75046   8870258.44145  24061350.9454                   24061354.8404
        37.7504         32.2504
  -8025257.12946  -6203302.39545  23414894.1414                   23414897.6414
        41.2504         34.5004
    -78649.53147    -50044.20346  21056554.6414                   21056552.6954
        46.5004         37.2504
   -104166.62146  -1810048.89145  24139247.6644                   24139251.4414
        38.7504         31.7504
  -7064456.69147  -5457729.45347  21682037.0394                   21682037.5704
        47.7504         46.5004
 25  6 30 20  3  0.0000000  0 10G23G15G27G26G16G29G32G18G24G10
    356952.91447    300080.16446  20610066.6804                   20610064.8594
        46.0004         38.0004
   5891005.92647   4605331.59446  22315515.1094                   22315514.0434
        43.7504         38.0004
  -9380214.55147  -7259910.95346  22276587.6024                   22276588.5314
        43.0004         40.2504
   7608801.19955   5936987.36353  25402013.2194                   25402019.4304
        32.2504         22.7504
   3046713.73846   2409257.45742  24191002.3984                   24191003.6174
        36.0004         16.7504
  11393234.50046   8878611.25445  24063391.1174                   24063393.9774
        38.2504         32.0004
  -8229572.37546  -6362508.91445  23376014.8524                   23376018.8794
        41.0004         35.2504
   -159287.96147   -112879.35246  21041209.6094                   21041207.9304
        46.5004         37.2504
   -267645.69946  -1937435.05145  24108139.0004                   24108141.9264
        38.5004         32.0004
  -7201213.63747  -5564293.29347  21656012.5944                   21656013.5204
        47.7504         47.0004
 25  6 30 20  3 30.0000000  0 10G23G15G27G26G16G29G32G18G24G10
    282340.88747    241940.90646  20595868.5634                   20595866.7304
        46.0004         38.0004
   5874455.14847   4592434.83246  22312364.9694                   22312364.7034
        42.5004         37.5004
  -9545798.79347  -7388937.64546  22245078.0474                   22245079.8984
        42.0004         40.5004
   7576211.67244   5911592.63743  25395808.5234                   25395817.4104
        29.2504         23.7504
   3001732.92646   2374207.35543  24182443.6334                   24182444.1644
        36.0004         18.2504
  11404041.59846   8887032.00445  24065447.2034                   24065451.2154
        37.5004         33.0004
  -8433747.34047  -6521606.13345  23337160.8674                   23337164.9024
        42.0004         35.2504
   -239662.64548   -175508.98046  21025914.9694                   21025913.1644
        48.0004         38.0004
   -430863.45346  -2064617.59845  24077079.1884                   24077082.8324
        39.5004         32.5004
  -7337742.73448  -5670679.58247  21630032.5634                   21630032.7854
        48.0004         47.5004
 25  6 30 20  4  0.0000000  0 10G23G15G27G26G16G29G32G18G24G10
    207934.50047    183961.89846  20581709.5474                   20581707.7424
        45.7504         38.0004
   5858268.80147   4579822.04346  22309285.2114                   22309283.6484
        42.2504         37.0004
  -9710945.91847  -7517623.71946  22213652.0864                   22213653.0164
        43.5004         41.0004
   7543552.11345   5886143.46544  25389595.5234                   25389603.0004
        32.5004         26.0004
   2957025.52746   2339370.33642  24173935.8674                   24173937.0984
        37.0004         17.2504
  11414935.90246   8895520.74645  24067520.8364                   24067524.9304
        38.0004         32.7504
  -8637777.09847  -6680590.19946  23298336.3834                   23298339.4534
        45.5004         38.0004
   -319770.55147   -237930.73846  21010671.0474                   21010668.9344
        47.0004         37.0004
   -593814.56246  -2191592.37145  24046070.9774                   24046074.4534
        37.0004         31.7504
  -7474042.32448  -5776887.03547  21604095.2584                   21604095.7854
        48.0004         47.7504
 25  6 30 20  4 30.0000000  0 10G23G15G27G26G16G29G32G18G24G10
    133730.74247    126140.78546  20567588.8134                   20567587.3054
        46.7504         38.0004
   5842442.30147   4567489.67646  22306273.9384                   22306272.8284
        43.2504         38.0004
  -9875655.48847  -7645968.80146  22182309.1644                   22182309.3714
        45.0004         41.5004
   7510818.10246   5860636.25844  25383367.2814                   25383373.9384
        37.7504         29.5004
   2912586.81346   2304742.68042  24165478.9384                   24165480.6724
        36.2504         17.7504
  11425913.12146   8904074.15645  24069610.4064                   24069613.9224
        39.2504         35.0004
  -8841660.92647  -6839460.57446  23259538.2974                   23259541.7304
        45.0004         38.0004
   -399612.57847   -300145.31646  20995477.4224                   20995475.5904
        47.7504         36.5004
   -756497.60946  -2318358.27745  24015112.9384                   24015116.0274
        36.5004         30.5004
  -7610114.64548  -5882917.38347  21578201.5864                   21578202.2234
        48.5004         47.7504
 25  6 30 20  5  0.0000000  0 10G23G15G27G26G16G29G32G18G24G10
     59734.26247     68481.17646  20553508.1334                   20553506.4804
        45.7504         37.7504
   5826978.69147   4555440.05946  22303331.4774                   22303330.2664
        44.0004         38.5004
 -10039919.28147  -7773966.50846  22151050.5784                   22151050.7194
        44.7504         41.0004
   7478013.16446   5835073.68444  25377124.8984                   25377130.8094
        37.0004         26.5004
   2868420.05546   2270326.91442  24157074.5314                   24157076.3244
        36.5004         16.7504
  11436976.82046   8912694.88745  24071715.4144                   24071718.7464
        40.0004         34.5004
  -9045390.36747  -6998210.62946  23220768.6564                   23220772.9414
        43.2504         37.5004
   -479181.99647   -362147.47746  20980335.7974                   20980334.2464
        47.0004         36.7504
   -918903.40646  -2444908.18045  23984208.7274                   23984211.6484
        36.0004         30.0004
  -7745954.33248  -5988766.47348  21552351.9694                   21552352.8244
        48.0004         48.2504
 25  6 30 20  5 30.0000000  0 10G23G15G27G26G16G29G32G18G24G10
    -14057.32447     10981.23046  20539465.5394                   20539464.1484
        46.2504         38.2504
   5811874.13347   4543670.21946  22300456.9384                   22300456.0904
        43.2504         38.0004
 -10203736.28147  -7901616.07846  22119876.7424                   22119878.0904
        42.7504         40.7504
   7445133.30946   5809452.70344  25370867.4144                   25370874.0824
        36.0004         25.5004
   2824521.45746   2236120.10542  24148721.8364                   24148723.0664
        36.5004         16.7504
  11448123.63746   8921380.38345  24073837.3054                   24073840.8524
        39.5004         35.2504
  -9248964.03547  -7156839.31646  23182031.2194                   23182033.8134
        44.2504         38.0004
   -558479.22347   -423937.53146  20965246.4534                   20965244.4534
        47.0004         36.7504
  -1081030.07445  -2571240.56644  23953356.1724                   23953359.4064
        35.0004         28.7504
  -7881563.18448  -6094435.69148  21526546.7814                   21526547.2664
        48.7504         48.5004
 25  6 30 20  6  0.0000000  0 10G23G15G27G26G16G29G32G18G24G10
    -87647.38747    -46361.68446  20525462.1174                   20525460.7344
        46.2504         39.0004
   5797123.46547   4532176.15246  22297649.3754                   22297648.6174
        43.0004         38.2504
 -10367106.35947  -8028917.39546  22088787.8594                   22088789.8364
        43.0004         41.0004
   7412173.88345   5783769.89143  25364593.7734                   25364602.2074
        34.5004         22.7504
   2780885.52045   2202117.98042  24140417.8134                   24140419.0234
        35.0004         15.5004
  11459348.65246   8930126.81345  24075972.9614                   24075977.0634
        40.0004         34.5004
  -9452381.50447  -7315346.25846  23143322.4304                   23143324.3244
        45.5004         37.2504
   -637505.46947   -485516.43746  20950207.7034                   20950206.4454
        46.5004         36.5004
  -1242876.48846  -2697354.60244  23922558.0864                   23922561.3244
        37.7504         29.5004
  -8016943.81648  -6199927.07848  21500784.2034                   21500784.9414
        48.2504         48.5004
 25  6 30 20  6 30.0000000  0 10G23G15G27G26G16G29G32G18G24G10
   -161033.41847   -103545.60946  20511497.2194                   20511495.2424
        47.0004         38.5004
   5782727.92647   4520958.80946  22294910.4774                   22294909.2194
        42.7504         37.7504
 -10530023.53147  -8155865.85246  22057786.4844                   22057788.0084
        42.0004         41.5004
   7379136.24646   5758026.04744  25358309.1024                   25358317.1174
        37.0004         27.7504
   2737513.60945   2168321.61342  24132164.1954                   24132165.7544
        35.2504         16.2504
  11470653.42247   8938935.36345  24078125.8984                   24078128.8524
        42.2504         35.2504
  -9655636.38747  -7473726.57046  23104643.5864                   23104645.8634
        44.5004         37.5004
   -716256.16447   -546880.62546  20935222.2584                   20935220.6214
        47.5004         36.5004
  -1404435.73846  -2823244.84844  23891813.9774                   23891817.4384
        36.5004         28.2504
  -8152092.96948  -6305238.08648  21475066.3984                   21475067.1484
        48.5004         48.5004
 25  6 30 20  7  0.0000000  0 11G08G23G15G27G26G16G29G32G18G24G10
  10790373.99655   8456429.02054  24766074.8054                   24766077.7584
        33.5004         27.0004
   -234213.44947   -160569.02046  20497571.7584                   20497569.9264
        46.5004         38.5004
   5768687.41047   4510018.06646  22292239.1724                   22292237.8754
        42.2504         37.2504
 -10692482.52447  -8282457.24047  22026871.6174                   22026872.9494
        43.7504         42.0004
   7346020.94146   5732221.74244  25352007.4614                   25352014.0704
        38.0004         26.2504
   2694406.05945   2134731.18842  24123962.4844                   24123963.5204
        35.0004         16.2504
  11482038.60246   8947806.59445  24080292.7664                   24080295.7424
        41.5004         34.7504
  -9858723.07447  -7631975.79346  23065996.6254                   23065999.7464
        43.7504         36.0004
   -794727.34047   -608027.01646  20920289.9064                   20920288.0554
        47.5004         36.0004
  -1565701.60946  -2948906.45344  23861126.1884                   23861129.7774
        37.2504         29.0004
  -8287008.10248  -6410366.74648  21449392.8914                   21449393.4924
        49.0004         48.5004
 25  6 30 20  7 30.0000000  0 11G08G23G15G27G26G16G29G32G18G24G10
  12168031.11345   9529928.16844  25028233.8364                   25028236.8484
        34.7504         28.0004
   1268229.69547   1010165.89846  20783476.8444                   20783475.2074
        47.0004         38.5004
   7330416.34046   5726949.66446  22589425.2584                   22589425.1454
        41.5004         36.7504
  -9279059.84447  -7181088.87147  22295836.9844                   22295837.3524
        44.0004         42.0004
   8888242.57846   6933952.64144  25645483.0474                   25645490.5234
        38.0004         24.5004
   4226977.27745   3328942.43042  24415600.0234                   24415602.7544
        34.7504         16.2504
  13068917.73446  10184335.44545  24382265.6884                   24382268.4614
        40.2504         32.5004
  -8486216.24247  -6562489.83646  23327175.6414                   23327179.3714
        43.2504         37.5004
    702500.35247    558643.90246  21205202.8524                   21205200.9494
        46.5004         36.2504
   -151249.48846  -1846735.85244  24130287.7584                   24130290.6334
        37.5004         28.7504
  -6846269.26648  -5287713.09048  21723556.2974                   21723557.0984
        48.2504         48.7504
 25  6 30 20  8  0.0000000  0 11G08G23G15G27G26G16G29G32G18G24G10
  11970447.27745   9375966.77344  24990632.4774                   24990637.8364
        32.0004         25.7504
   1195447.52747    953452.50846  20769627.0004                   20769625.4454
        46.0004         37.7504
   7317067.68846   5716548.08646  22586885.0084                   22586885.0044
        41.2504         36.7504
  -9440606.41047  -7306969.26646  22265095.7344                   22265096.0394
        44.5004         41.5004
   8854953.85946   6908013.16043  25639148.4844                   25639154.1374
        37.7504         21.2504
   4184379.13745   3295748.94942  24407493.7894                   24407496.9144
        34.7504         15.5004
  13080446.51646  10193318.62144  24384458.9844                   24384463.0594
        37.5004         29.7504
  -8688969.34447  -6720479.10946  23288593.3984                   23288596.2624
        44.5004         37.7504
    624580.13747    497926.84046  21190374.7424                   21190373.0044
        46.2504         36.5004
   -311929.38346  -1971940.85944  24099710.9694                   24099714.3364
        36.2504         28.5004
  -6980728.41048  -5392486.42648  21697969.8204                   21697970.5204
        48.7504         49.0004
 25  6 30 20  8 30.0000000  0 11G08G23G15G27G26G16G29G32G18G24G10
  11773052.35245   9222152.60944  24953068.5314                   24953075.6564
        32.2504         25.0004
   1122861.97747    896892.33246  20755814.5164                   20755812.6254
        46.0004         38.0004
   7304060.07447   5706412.27046  22584410.6954                   22584409.0044
        42.5004         37.0004
  -9601694.06247  -7432492.07446  22234441.4844                   22234442.4414
        43.7504         40.2504
   8821574.25446   6882002.91043  25632795.8524                   25632803.7544
        38.0004         23.0004
   4142031.07045   3262750.33642  24399435.2584                   24399438.0664
        34.2504         16.2504
  13092042.91046  10202354.43044  24386666.0944                   24386670.3204
        37.0004         28.5004
  -8891552.26647  -6878335.80146  23250043.1094                   23250045.6884
        43.5004         37.5004
    546936.16047    437425.02046  21175599.7424                   21175598.3674
        46.7504         37.2504
   -472312.11346  -2096914.32044  24069191.6174                   24069194.0044
        36.7504         28.0004
  -7114960.91448  -5497083.16448  21672426.0634                   21672426.5554
        48.7504         49.0004
 25  6 30 20  9  0.0000000  0 11G08G23G15G27G26G16G29G32G18G24G10
  11575849.39855   9068488.05954  24915544.5784                   24915548.0164
        35.7504         24.5004
   1050472.29747    840484.78546  20742039.2814                   20742037.4344
        46.0004         38.0004
   7291391.21147   5696540.37146  22581999.6884                   22581998.3714
        43.0004         37.5004
  -9762320.14146  -7557655.23446  22203874.6174                   22203876.0314
        41.7504         39.7504
   8788101.68846   6855920.18443  25626426.4694                   25626434.0664
        37.2504         22.5004
   4099930.86345   3229944.93842  24391424.6564                   24391426.4454
        34.5004         15.5004
  13103704.79346  10211441.24644  24388886.1024                   24388889.3834
        38.0004         27.7504
  -9093962.03947  -7036057.58246  23211525.5314                   23211527.3954
        43.0004         36.7504
    469569.65647    377139.41846  21160877.4844                   21160875.6294
        45.5004         36.0004
   -632394.01245  -2221653.38344  24038728.1564                   24038731.8054
        34.5004         28.5004
  -7248966.84448  -5601503.35248  21646925.6024                   21646926.0634
        48.5004         49.0004
 25  6 30 20  9 30.0000000  0 11G08G23G15G27G26G16G29G32G18G24G10
  11378847.69945   8914980.33643  24878055.8524                   24878058.9024
        35.5004         21.7504
    978284.13347    784234.25446  20728302.2664                   20728300.4454
        47.0004         38.0004
   7279065.30947   5686935.70746  22579654.0004                   22579652.5004
        43.0004         37.2504
  -9922475.68747  -7682451.74247  22173398.5704                   22173400.0744
        42.7504         42.5004
   8754540.45346   6829768.35944  25620040.4224                   25620049.0084
        36.7504         25.2504
   4058082.23045   3197335.50842  24383460.9534                   24383463.6724
        34.7504         16.7504
  13115436.97745  10220582.79743  24391118.1644                   24391121.3674
        35.0004         22.5004
  -9296189.35947  -7193637.16046  23173043.6174                   23173045.4924
        42.5004         38.0004
    392488.24247    317075.95346  21146209.6564                   21146207.6954
        46.0004         36.0004
   -792165.24645  -2346150.35244  24008324.6954                   24008327.9804
        34.0004         27.5004
  -7382739.95748  -5705742.12148  21621469.7114                   21621469.7584
        48.2504         49.0004
 25  6 30 20 10  0.0000000  0 11G08G23G15G27G26G16G29G32G18G24G10
  11182050.94946   8761632.22743  24840606.5634                   24840609.5044
        37.2504         19.5004
    906297.12147    728140.48046  20714603.5004                   20714601.9574
        46.0004         37.5004
   7267080.13347   5677596.55146  22577373.5314                   22577371.8714
        42.7504         36.5004
 -10082157.84447  -7806879.35547  22143012.0554                   22143013.5744
        44.2504         42.7504
   8720888.82446   6803546.05144  25613636.1884                   25613645.7034
        36.2504         26.2504
   4016483.11345   3164920.42642  24375545.3594                   24375547.2814
        34.5004         15.5004
  13127237.46155  10229777.58253  24393364.9844                   24393368.2344
        32.5004         22.2504
  -9498230.79747  -7351071.89846  23134595.7974                   23134599.1844
        44.7504         40.0004
    315693.60947    257235.97346  21131595.6644                   21131593.8874
        45.2504         36.2504
   -951621.68045  -2470402.05144  23977982.4064                   23977984.8364
        33.5004         27.5004
  -7516279.94148  -5809799.23448  21596057.6174                   21596058.2464
        48.2504         49.0004
 25  6 30 20 10 30.0000000  0 10G08G23G15G27G16G29G32G18G24G10
  10985463.53946   8608447.30143  24803196.8204                   24803201.8014
        37.0004         23.2504
    834511.95347    672203.98046  20700943.2274                   20700941.3404
        46.0004         37.2504
   7255434.86346   5668522.26646  22575157.5864                   22575156.2464
        41.7504         36.0004
 -10241362.56247  -7930934.95347  22112716.7504                   22112717.8134
        44.2504         42.5004
   3975132.71945   3132699.26642  24367677.5554                   24367678.2464
        34.5004         14.7504
  13139106.10955  10239025.56653  24395622.2344                   24395627.6954
        35.0004         22.2504
  -9700081.89547  -7508358.32846  23096185.1954                   23096188.2074
        45.0004         40.0004
    239188.40247    197621.50445  21117037.1724                   21117035.5944
        46.5004         35.7504
  -1110758.37545  -2594404.60944  23947699.3054                   23947701.2304
        33.2504         29.5004
  -7649585.52348  -5913673.69948  21570690.3364                   21570691.0164
        48.5004         48.7504
 25  6 30 20 11  0.0000000  0 10G08G23G15G27G16G29G32G18G24G10
  10789090.12546   8455429.13344  24765828.3754                   24765834.5204
        37.0004         26.2504
    762929.58647    616425.50446  20687321.5554                   20687320.0164
        46.0004         38.0004
   7244129.13746   5659712.53945  22573005.5474                   22573005.1414
        40.2504         35.5004
 -10400085.66847  -8054615.26246  22082512.8914                   22082512.5394
        45.0004         41.5004
   3934030.26245   3100671.28142  24359854.7344                   24359856.9344
        33.0004         16.2504
  13151042.51246  10248326.33244  24397895.1884                   24397899.0274
        38.2504         27.0004
  -9901738.08247  -7665492.87146  23057810.4694                   23057813.9344
        44.5004         39.2504
    162975.52347    138234.82046  21102534.6254                   21102532.8164
        45.5004         37.0004
  -1269570.23445  -2718154.03544  23917477.8674                   23917480.3244
        33.5004         27.2504
  -7782655.14148  -6017364.28148  21545367.9384                   21545368.7734
        48.0004         48.5004
 25  6 30 20 11 30.0000000  0 10G08G23G15G27G16G29G32G18G24G10
  10592938.61346   8302583.84844  24728501.9144                   24728506.9344
        38.5004         24.0004
    691554.14147    560808.26246  20673739.1414                   20673737.3404
        47.0004         37.5004
   7233164.57446   5651168.65646  22570919.2344                   22570918.8444
        40.5004         36.0004
 -10558319.73847  -8177914.49646  22052401.3754                   22052401.7114
        44.7504         41.0004
   3893178.31345   3068838.52042  24352081.1094                   24352083.0824
        32.5004         15.5004
  13163049.40246  10257681.99644  24400179.5704                   24400184.2734
        37.2504         24.7504
 -10103191.49647  -7822469.43046  23019474.8594                   23019477.3674
        44.5004         38.7504
     87061.07047     79080.68046  21088088.2034                   21088086.6764
        45.7504         37.2504
  -1428048.73445  -2841643.70344  23887320.2424                   23887323.2274
        35.2504         28.7504
  -7915484.05548  -6120867.31648  21520091.2734                   21520091.6684
        49.0004         48.2504
 25  6 30 20 12  0.0000000  0 10G08G23G15G27G16G29G32G18G24G10
  10397015.33646   8149916.34844  24691220.2194                   24691223.7194
        39.2504         27.2504
    620388.04347    505354.14846  20660196.8204                   20660195.5984
        46.2504         37.2504
   7222542.44547   5642891.63346  22568898.3524                   22568897.8164
        42.0004         38.0004
 -10716059.16447  -8300828.29346  22022384.9064                   22022384.9884
        43.7504         40.5004
   3852577.48445   3037201.42642  24344355.0474                   24344358.3324
        31.7504         15.5004
  13175128.31346  10267093.79344  24402479.2274                   24402482.5354
        38.5004         27.5004
 -10304435.93447  -7979283.15646  22981179.4224                   22981181.9574
        45.2504         38.7504
     11449.43447     20162.51646  21073699.7974                   21073698.6564
        45.5004         36.7504
  -1586187.20345  -2964868.41444  23857227.6724                   23857230.3714
        35.2504         28.5004
  -8048069.18447  -6224180.39548  21494861.3594                   21494862.0394
        47.7504         48.2504
 25  6 30 20 12 30.0000000  0 10G08G23G15G27G16G29G32G18G24G10
  10201328.34446   7997433.09044  24653981.1334                   24653987.2274
        36.7504         27.0004
    549435.64847    450066.55146  20646694.9614                   20646693.2034
        47.0004         36.7504
   7212265.58247   5634883.62146  22566942.5634                   22566941.8914
        42.5004         37.0004
 -10873296.34847  -8423350.76246  21992463.2344                   21992464.3324
        43.5004         41.2504
   3812230.50455   3005762.08252  24336678.1024                   24336680.5434
        31.0004         14.7504
  13187282.01246  10276563.82444  24404792.7114                   24404796.5394
        40.7504         29.0004
 -10505463.41447  -8135927.82446  22942925.4694                   22942928.2274
        46.7504         41.0004
    -63853.06247    -38514.76646  21059370.7734                   21059368.6214
        46.0004         37.0004
  -1743976.94946  -3087821.37944  23827200.4144                   23827203.7194
        36.0004         29.2504
  -8180405.67648  -6327299.70747  21469678.3754                   21469678.8404
        48.0004         47.7504
 25  6 30 20 13  0.0000000  0 10G08G23G15G27G16G29G32G18G24G10
  10005877.59445   7845133.84844  24616788.0864                   24616792.5314
        35.5004         24.5004
    478693.04347    394942.43446  20633233.4144                   20633231.7734
        46.7504         37.5004
   7202328.16046   5627140.12945  22565051.5004                   22565050.6914
        41.5004         35.5004
 -11030032.02347  -8545482.46147  21962638.2114                   21962638.8444
        45.0004         43.7504
   3772131.77055   2974516.13352  24329047.4064                   24329051.0354
        31.0004         14.7504
  13199505.53546  10286088.33245  24407118.2274                   24407123.5354
        39.7504         30.7504
 -10706274.21547  -8292403.63746  22904712.4224                   22904715.5274
        45.7504         40.5004
   -138848.44547    -96952.75046  21045099.4144                   21045097.3404
        46.0004         37.2504
  -1901417.72746  -3210502.43044  23797241.8364                   23797243.8324
        37.5004         29.5004
  -8312496.78948  -6430227.82847  21444542.5864                   21444542.8594
        48.0004         47.7504
 25  6 30 20 13 30.0000000  0 10G08G23G15G27G16G29G32G18G24G10
   9810667.51245   7693022.19543  24579640.0634                   24579643.8204
        34.7504         22.7504
    408161.09047    339982.46146  20619811.0634                   20619809.2664
        46.7504         36.7504
   7192729.37146   5619660.52045  22563224.8054                   22563224.3364
        41.0004         35.2504
 -11186262.23447  -8667220.25847  21932908.7194                   21932909.7304
        46.2504         44.2504
   3732280.50445   2943463.13342  24321463.2974                   24321467.3914
        32.5004         14.7504
  13211798.70746  10295667.06344  24409457.2664                   24409461.6604
        39.7504         28.7504
 -10906863.74247  -8448707.03946  22866540.5394                   22866543.8364
        43.5004         38.5004
   -213533.89547   -155149.21546  21030887.3134                   21030885.5044
        46.0004         38.0004
  -2058504.40646  -3332907.54744  23767348.1094                   23767351.1884
        36.0004         28.7504
  -8444341.10947  -6532963.63347  21419453.0164                   21419454.0234
        47.0004         47.7504
 25  6 30 20 14  0.0000000  0 10G08G23G15G27G16G29G32G18G24G10
                                  24542537.0164                   24542545.0274
        31.7504         22.2504
    337836.50847    285184.08246  20606429.0864                   20606427.3914
        46.7504         36.7504
   7183464.60246   5612441.15646  22561462.1254                   22561461.6564
        41.5004         36.2504
 -11341987.03147  -8788564.21947  21903274.8134                   21903275.4454
        45.2504         42.7504
   3692671.438 5                  24313925.609
        32.500
  13224157.13746  10305296.54345  24411808.8984                   24411813.2624
        38.5004         30.0004
 -11107231.56647  -8604837.71546  22828412.1254                   22828414.4024
        44.0004         38.2504
   -287910.77047   -213105.24246  21016733.7194                   21016732.1294
        46.5004         37.0004
  -2215236.13345  -3455036.06644  23737523.0394                   23737526.2934
        35.5004         29.0004
  -8575941.34047  -6635509.23447  21394410.6174                   21394410.9884
        47.0004         47.5004
 25  6 30 20 14 30.0000000  0 10G08G23G15G27G16G29G32G18G24G10
   9420972.82455   7389364.15653  24505486.2114                   24505488.8984
        31.5004         22.7504
    267717.12147    230545.57846  20593086.2114                   20593083.7114
        46.7504         36.5004
   7174529.65647   5605478.82446  22559761.9924                   22559761.4104
        42.5004         36.5004
 -11497205.49247  -8909513.64546  21873737.0394                   21873737.6484
        45.0004         41.2504
   3653300.71115                  24306434.898
        31.750
  13236576.89546  10314973.89145  24414173.3134                   24414179.3324
        40.0004         33.0004
 -11307376.30147  -8760794.52746  22790325.4924                   22790327.3364
        44.5004         37.0004
   -361979.35947   -270821.03146  21002638.9924                   21002637.1564
        47.0004         37.5004
  -2371610.73846  -3576886.34044  23707766.1724                   23707768.9144
        36.7504         29.2504
  -8707299.14548  -6737865.93047  21369414.0704                   21369414.3954
        48.0004         47.5004
 25  6 30 20 15  0.0000000  0 10G08G23G15G27G16G29G32G18G24G10
                                  24468474.4614                   24468479.5394
        27.5004         20.7504
    197803.39847    176067.35946  20579781.9384                   20579780.0204
        46.2504         36.5004
   7165923.29347   5598772.50046  22558124.8984                   22558124.2034
        43.0004         36.7504
 -11651914.00447  -9030065.72346  21844297.4304                   21844297.8554
        45.5004         41.7504
   3614167.254 5                  24298987.969
        33.500
  13249057.34446  10324698.52045  24416548.4144                   24416555.1484
        40.5004         32.0004
 -11507293.85947  -8916574.27346  22752282.1094                   22752284.8094
        44.2504         38.7504
   -435737.27347   -328294.74246  20988603.5394                   20988601.4964
        46.5004         37.5004
  -2527623.69546  -3698454.78144  23678077.3984                   23678080.5124
        37.5004         28.0004
  -8838413.43448  -6840032.87947  21344464.2034                   21344464.3404
        48.5004         47.7504
 25  6 30 20 15 30.0000000  0  9G23G15G27G16G29G32G18G24G10
   1703516.98447   1349350.65246  20866309.2584                   20866307.6954
        46.2504         37.0004
   8733063.74646   6819920.82846  22856341.1724                   22856340.5434
        41.5004         37.0004
 -10230685.13347  -7922614.62147  22114748.3364                   22114749.2704
        46.5004         43.0004
   5150690.039 5                  24591377.195
        33.000
  14837016.79746  11562069.14845  24718728.1884                   24718733.7854
        39.7504         34.2504
 -10131554.51647  -7844569.46546  23014077.1884                   23014080.1054
        45.7504         39.7504
   1066239.14547    842076.48446  21274420.4384                   21274418.3364
        47.2504         38.0004
  -1107846.22346  -2592134.59844  23948251.5234                   23948255.7274
        36.2504         28.5004
  -7393859.98047  -5714406.79347  21619353.0394                   21619353.3954
        47.7504         47.7504
 25  6 30 20 16  0.0000000  0  9G23G15G27G16G29G32G18G24G10
   1634014.60247   1295192.94546  20853083.6884                   20853082.1414
        45.7504         36.7504
   8725109.93447   6813722.97746  22854827.8204                   22854826.8094
        42.2504         37.0004
 -10384364.63747  -8042364.86347  22085504.1174                   22085505.1844
        46.0004         44.0004
   5112025.758 5                  24584020.125
        31.000
  14849615.79646  11571886.15345  24721125.3204                   24721130.4734
        38.0004         31.7504
 -10331006.60247  -7999986.57846  22976122.1484                   22976124.7304
        44.2504         39.5004
    993108.18847    785091.30946  21260503.9774                   21260502.1524
        47.2504         37.0004
  -1263123.24245  -2713129.57044  23918703.8054                   23918707.3284
        35.5004         28.5004
  -7524485.59848  -5816192.97348  21594495.8284                   21594496.0984
        48.5004         48.0004
 25  6 30 20 16 30.0000000  0 10G08G23G15G27G16G29G32G18G24G10
                                  24657535.141
        34.500
   1564715.72747   1241193.82846  20839896.3594                   20839894.9064
        46.5004         36.5004
   8717477.62546   6807775.66845  22853375.1724                   22853374.3674
        40.5004         34.5004
 -10537527.25847  -8161712.32047  22056357.9064                   22056358.5204
        46.0004         43.0004
   5073591.17615                  24576706.555
        32.250
  14862269.67245  11581745.91444  24723532.8834                   24723538.6844
        35.0004         28.5004
 -10530222.70347  -8155219.82846  22938212.7814                   22938215.4384
        45.5004         40.0004
    920291.39847    728350.94946  21246646.7194                   21246645.3714
        46.7504         37.7504
  -1418028.23846  -2833834.67244  23889226.2814                   23889229.5164
        37.0004         28.0004
  -7654868.28148  -5917789.84848  21569684.7584                   21569685.2274
        49.0004         48.5004
 25  6 30 20 17  0.0000000  0 10G08G23G15G27G16G29G32G18G24G10
  13958227.06645   8324698.31654  24620720.0944                   24620724.4144
        34.2504         29.7504
   1495619.80547   1187352.84846  20826748.0314                   20826746.4924
        45.5004         37.5004
   8710164.42246   6802077.02346  22851983.9144                   22851982.7664
        41.7504         36.0004
 -10690170.41847  -8280655.03947  22027311.0004                   22027312.0514
        46.0004         43.5004
   5035384.168 5                  24569436.336
        33.000
  14874976.52346  11591646.92645  24725952.6804                   24725957.9104
        38.0004         31.7504
 -10729199.87147  -8310266.86346  22900348.4304                   22900351.3134
        46.0004         40.5004
    847789.97347    671856.32446  21232850.6024                   21232848.9064
        46.2504         36.5004
  -1572557.62946  -2954247.10944  23859819.4614                   23859822.9964
        36.2504         28.0004
  -7785008.05148  -6019197.43748  21544919.9694                   21544920.6484
        48.5004         48.5004
 25  6 30 20 17 30.0000000  0 10G08G23G15G27G16G29G32G18G24G10
  13765033.21146   8174157.73845  24583956.9534                   24583961.4654
        36.7504         31.0004
   1426727.46147   1133670.49646  20813637.9304                   20813636.6054
        46.5004         36.7504
   8703169.18446   6796626.12545  22850652.6884                   22850652.1804
        41.0004         35.2504
 -10842290.63347  -8399190.25847  21998363.6804                   21998364.3984
        46.5004         43.5004
   4997403.547 5                  24562208.703
        33.250
  14887736.03546  11601588.95745  24728381.1024                   24728387.3014
        37.5004         31.0004
 -10927933.80147  -8465124.37946  22862530.2894                   22862534.0664
        43.7504         40.2504
    775606.46147    615609.42646  21219114.4144                   21219112.3984
        46.5004         37.0004
  -1726706.76246  -3074363.21944  23830487.0554                   23830489.4104
        36.7504         28.5004
  -7914903.79348  -6120414.87548  21520201.7504                   21520202.1954
        48.5004         48.7504
 25  6 30 20 18  0.0000000  0 10G08G23G15G27G16G29G32G18G24G10
  13572108.60946   8023826.93845  24547244.8364                   24547248.2304
        38.7504         31.7504
   1358040.43847   1080148.14546  20800567.8054                   20800565.9144
        47.2504         37.5004
   8696492.19947   6791423.19545  22849382.7504                   22849381.2344
        42.5004         35.5004
 -10993883.12147  -8517314.26647  21969516.1484                   21969517.0084
        46.7504         43.0004
   4959648.945 5                  24555024.180
        33.250
  14900548.55546  11611572.33644  24730819.7814                   24730825.0274
        36.2504         29.0004
 -11126419.17647  -8619788.22746  22824760.0234                   22824763.3984
        44.2504         40.0004
    703744.36747    559612.98046  21205439.7114                   21205438.2814
        45.7504         36.5004
  -1880469.70745  -3194178.43044  23801226.2274                   23801229.4574
        35.2504         28.0004
  -8044553.22348  -6221440.39148  21495530.2034                   21495530.4414
        48.5004         48.7504
 25  6 30 20 18 30.0000000  0 10G08G23G15G27G16G29G32G18G24G10
  13379458.01646   7873709.65245  24510584.3754                   24510586.9454
        39.0004         31.7504
   1289559.77047   1026786.57046  20787536.1254                   20787534.0274
        46.0004         37.2504
   8690132.47747   6786467.50445  22848172.3204                   22848170.3834
        42.0004         34.0004
 -11144943.89547  -8635023.93047  21940770.6094                   21940771.0704
        45.7504         42.2504
   4922119.805 5                  24547883.602
        33.750
  14913414.00445  11621596.97344  24733266.8134                   24733273.3244
        33.5004         27.7504
 -11324651.35947  -8774254.74246  22787038.1174                   22787040.5514
        46.0004         40.5004
    632206.61747    503869.26246  21191826.4144                   21191824.7544
        45.7504         36.2504
  -2033841.38346  -3313688.73844  23772040.4534                   23772043.3554
        36.0004         28.0004
  -8173954.80548  -6322272.76648  21470905.8594                   21470906.3984
        49.0004         48.7504
 25  6 30 20 19  0.0000000  0 10G08G23G15G27G16G29G32G18G24G10
  13187085.02746   7723808.72745  24473976.3204                   24473980.0354
        38.0004         32.5004
   1221285.34447    973585.71546  20774544.1094                   20774542.2464
        47.5004         37.7504
   8684088.50846   6781757.87545  22847022.2894                   22847020.9454
        41.2504         33.2504
 -11295470.17247  -8752317.10247  21912126.3914                   21912126.5394
        46.5004         42.2504
   4884814.234 5                  24540783.633
        31.500
  14926331.02755  11631661.65654  24735725.1884                   24735731.0004
        32.2504         24.2504
 -11522626.88347  -8928521.28546  22749364.7344                   22749366.0944
        46.7504         41.0004
    560994.91447    448379.60946  21178275.4614                   21178273.6334
        45.5004         36.2504
  -2186817.84046  -3432891.10244  23742930.7504                   23742932.8794
        36.7504         28.2504
  -8303108.15648  -6422911.71548  21446328.9924                   21446329.4384
        49.0004         48.7504
 25  6 30 20 19 30.0000000  0 10G08G23G15G27G16G29G32G18G24G10
  12994989.46946   7574123.90245  24437422.0704                   24437426.7584
        39.5004         33.5004
   1153213.24247    920542.52046  20761589.7344                   20761588.4804
        45.7504         37.0004
   8678354.53946   6777289.81345  22845930.5554                   22845929.9264
        41.5004         33.5004
 -11445462.92647  -8869194.53547  21883583.8754                   21883584.2584
        46.5004         43.5004
   4847726.910 4                  24533726.156
        29.000
  14939294.28555  11641762.49253  24738191.9924                   24738198.1914
        34.5004         23.0004
 -11720346.09847  -9082588.10946  22711739.7194                   22711742.2034
        46.5004         41.5004
    490107.12147    393142.35546  21164785.8134                   21164783.9224
        45.5004         36.2504
  -2339398.94946  -3551785.37544  23713894.8444                   23713897.8014
        37.5004         28.2504
  -8432016.69148  -6523359.90248  21421798.5474                   21421798.7034
        49.0004         49.0004
 25  6 30 20 20  0.0000000  0 10G08G23G15G27G16G29G32G18G24G10
  12803174.58646   7424657.83245  24400920.9614                   24400925.9454
        38.5004         31.2504
   1085343.18447    867656.76246  20748675.0474                   20748673.2734
        47.2504         37.5004
   8672928.60546   6773061.75845  22844898.0314                   22844897.5314
        40.5004         34.2504
 -11594919.60547  -8985654.25847  21855143.0004                   21855143.9344
        46.5004         43.5004
   4810854.953 5                  24526711.063
        30.250
  14952302.08256  11651898.00054  24740668.8054                   24740674.2114
        37.2504         26.0004
 -11917805.89147  -9236452.75446  22674164.1174                   22674166.1334
        45.7504         39.7504
    419544.63747    338158.59446  21151358.0394                   21151356.0744
        45.5004         36.0004
  -2491580.92646  -3670368.67644  23684935.8054                   23684938.9734
        36.5004         27.7504
  -8560680.26248  -6623617.20748  21397314.3364                   21397314.5944
        49.5004         48.7504
 25  6 30 20 20 30.0000000  0 10G08G23G15G27G16G29G32G18G24G10
  12611645.68846   7275414.59844  24364474.7274                   24364476.1134
        39.0004         28.5004
   1017676.61348    814929.54346  20735798.5164                   20735796.4414
        48.2504         37.5004
   8667810.21146   6769073.34845  22843923.7584                   22843923.9494
        41.7504         34.7504
 -11743835.90247  -9101692.93047  21826804.8364                   21826806.2814
        45.7504         44.2504
   4774198.33614                  24519732.008
        28.000
  14965355.02346  11662068.67643  24743152.3834                   24743157.7894
        36.5004         22.5004
 -12115001.12547  -9390111.27346  22636638.9144                   22636640.8164
        44.2504         38.5004
    349310.76647    283430.89545  21137993.3834                   21137991.6844
        46.5004         35.7504
  -2643358.46945  -3788636.82044  23656053.1954                   23656055.9924
        35.2504         28.7504
  -8689096.96948  -6723682.15648  21372877.6954                   21372877.6134
        49.7504         48.7504
 25  6 30 20 21  0.0000000  0 10G08G23G15G27G16G29G32G18G24G10
  12420405.61346   7126396.47344  24328083.2034                   24328082.7584
        38.0004         24.7504
    950212.74248    762360.28146  20722960.8054                   20722959.1294
        48.2504         37.5004
   8662996.87546   6765322.65246  22843008.3594                   22843008.2974
        41.7504         36.0004
 -11892209.75047  -9217308.89847  21798570.3754                   21798571.6414
        47.0004         44.5004
   4737754.53915                  24512800.313
        32.000
  14978450.75446  11672272.79744  24745645.4614                   24745650.2934
        38.7504         25.2504
 -12311929.10247  -9543561.56646  22599165.0784                   22599166.7274
        45.0004         39.7504
    279406.52047    228960.02746  21124690.5004                   21124688.9024
        46.0004         36.5004
  -2794728.12146  -3906587.12144  23627248.7814                   23627250.9064
        36.7504         29.2504
  -8817267.07048  -6823554.94548  21348487.5314                   21348487.8134
        49.5004         48.5004
 25  6 30 20 21 30.0000000  0 10G08G23G15G27G16G29G32G18G24G10
  12229455.56646   6977604.27744  24291745.5944                   24291748.6684
        37.2504         27.0004
    882949.10547    709947.07846  20710161.0234                   20710159.2544
        46.7504         37.5004
   8658484.37147   6761806.35946  22842149.9454                   22842148.7584
        42.2504         36.2504
 -12040040.77347  -9332501.86747  21770438.9304                   21770439.6644
        47.5004         43.5004
   4701519.195 5                  24505906.094
        35.750
  14991585.66046  11682507.38144  24748144.5634                   24748151.5864
        39.0004         25.0004
 -12508588.80547  -9696802.80146  22561741.2974                   22561743.1094
        44.2504         39.2504
    209831.19947    174745.46946  21111451.3284                   21111449.0944
        46.0004         36.5004
  -2945688.52346  -4024218.53144  23598521.1414                   23598524.0634
        37.0004         29.2504
  -8945192.55948  -6923237.12148  21324144.1644                   21324144.2544
        49.7504         48.5004
 25  6 30 20 22  0.0000000  0 10G08G23G15G27G16G29G32G18G24G10
  12038801.18446   6829042.46544  24255466.2504                   24255469.7774
        36.0004         26.0004
    815887.73448    657691.43846  20697399.6954                   20697397.7424
        48.5004         37.5004
   8654273.05147   6758524.74646  22841348.9454                   22841347.4064
        42.7504         36.0004
 -12187324.26247  -9447268.16047  21742412.1334                   21742411.9574
        46.5004         42.7504
   4665492.676 5                  24499050.063
        34.250
  15004760.41446  11692773.04744  24750652.3364                   24750659.6604
        38.7504         26.5004
 -12704974.71547  -9849830.70746  22524371.3914                   22524372.8324
        46.0004         41.7504
    140588.44147    120790.07446  21098274.5394                   21098272.9774
        46.5004         36.0004
  -3096233.67246  -4141526.37944  23569873.4454                   23569876.0354
        37.7504         28.5004
  -9072871.15248  -7022726.91048  21299847.5704                   21299848.2704
        48.2504         48.2504
 25  6 30 20 22 30.0000000  0 10G08G23G15G27G16G29G32G18G24G10
  11848446.68846   6680714.31344  24219242.0864                   24219245.6604
        36.5004         24.5004
    749029.05947    605593.74646  20684676.8284                   20684674.8714
        47.5004         37.0004
   8650361.72347   6755476.90645  22840604.3134                   22840602.9304
        43.0004         34.0004
 -12334056.90247  -9561605.23047  21714489.8054                   21714490.1564
        46.0004         42.5004
   4629673.262 5                  24492232.992
        33.500
  15017974.19946  11703069.11344  24753166.6254                   24753174.1564
        38.7504         24.0004
 -12901082.86347 -10002642.16447  22487052.2734                   22487055.3054
        45.2504         42.0004
     71680.53147     67095.57446  21085161.7504                   21085160.4924
        45.2504         36.2504
  -3246359.12546  -4258507.18044  23541305.6334                   23541308.8554
        37.5004         29.2504
  -9200301.67648  -7122023.39848  21275598.3204                   21275598.7974
        48.7504         48.5004
 25  6 30 20 23  0.0000000  0 10G08G23G15G27G16G29G32G18G24G10
  13233819.88745   7760226.00843  24482868.3134                   24482869.8284
        33.0004         21.7504
   2257793.30147   1781254.19946  20971784.9304                   20971782.6174
        47.7504         37.5004
  10222166.77347   7980260.04745  23139708.8754                   23139708.3014
        42.2504         33.5004
 -10904813.14847  -8447908.77347  21986465.6564                   21986466.6484
        46.7504         43.7504
   6169478.453 5                  24785248.313
        32.250
  16606643.29346  12940992.70344  25055480.9454                   25055487.8984
        39.0004         27.0004
 -11521485.28147  -8927630.96546  22749580.9304                   22749583.4884
        45.5004         41.0004
   1578529.36747   1241263.48445  21371905.6564                   21371904.0984
        46.0004         35.7504
  -1820638.04346  -3147555.64144  23812611.9304                   23812614.1024
        38.7504         29.2504
  -7752061.58648  -5993524.60248  21551188.8444                   21551189.6174
        49.5004         48.5004
 25  6 30 20 23 30.0000000  0 10G08G23G15G27G16G29G32G18G24G10
  13044074.27745   7612372.30543  24446761.3134                   24446763.2384
        30.7504         20.0004
   2191338.32448   1729471.10246  20959139.1414                   20959136.5864
        49.0004         37.0004
  10218848.23046   7977674.12545  23139077.3204                   23139076.4494
        40.7504         34.0004
 -11050437.75047  -8561382.45747  21958754.3674                   21958755.2424
        47.5004         44.7504
   6134066.24215                  24778509.586
        32.500
  16619929.65246  12951345.34444  25058010.3594                   25058016.3954
        40.2504         29.0004
 -11717029.20347  -9080002.77346  22712369.9694                   22712372.0084
        45.2504         40.7504
   1510294.49247   1188093.43845  21358920.9224                   21358918.6844
        46.7504         35.2504
  -1969914.15246  -3263874.62145  23784205.6804                   23784208.0784
        39.5004         30.5004
  -7878996.60948  -6092435.00048  21527034.0474                   21527034.6644
        48.5004         49.0004
 25  6 30 20 24  0.0000000  0 10G08G23G15G27G16G29G32G18G24G10
  12854637.17645   7464759.03144  24410712.7424                   24410717.0314
        31.5004         24.0004
   2125083.77748   1677844.16046  20946531.0554                   20946529.3794
        48.2504         37.0004
  10215821.94146   7975315.93445  23138500.9924                   23138500.7814
        40.5004         31.7504
 -11195505.71147  -8674422.39547  21931148.6644                   21931149.5554
        47.0004         44.5004
                                  24771808.773
        32.250
  16633249.05146  12961723.70744  25060545.1254                   25060550.2584
        40.0004         27.5004
 -11912287.32447  -9232151.83647  22675213.4614                   22675216.0044
        46.0004         42.2504
   1442397.19947   1135186.43046  21346000.9774                   21345999.2464
        46.0004         36.0004
  -2118761.16046  -3379859.26245  23755881.1724                   23755883.2424
        39.5004         30.7504
  -8005684.70348  -6191152.96148  21502926.2814                   21502926.9804
        49.5004         49.0004
 25  6 30 20 24 30.0000000  0 10G08G23G15G27G16G29G32G18G24G10
  12665512.67645   7317389.39143  24374723.0234                   24374728.0044
        32.2504         22.7504
   2059030.22347   1626373.85546  20933961.5164                   20933959.8954
        46.7504         37.5004
  10213086.74646   7973184.53545  23137980.2504                   23137979.7854
        40.0004         32.5004
 -11340013.87947  -8787026.12547  21903649.8134                   21903649.8914
        47.5004         43.5004
   6063838.645 5                  24765145.992
        34.500
  16646600.43846  12972126.96544  25063085.9304                   25063090.8324
        39.7504         25.7504
 -12107255.59047  -9384075.09847  22638112.6804                   22638114.4304
        47.2504         42.0004
   1374839.73447   1082544.22746  21333144.5634                   21333143.0354
        45.0004         36.2504
  -2267174.71146  -3495506.12145  23727638.7504                   23727640.6644
        39.5004         30.5004
  -8132124.86348  -6289677.73048  21478865.3914                   21478866.2384
        49.5004         49.0004
 25  6 30 20 25  0.0000000  0 10G08G23G15G27G16G29G32G18G24G10
  12476704.90245   7170266.52344  24338794.4224                   24338797.9304
        34.7504         26.7504
   1993178.13347   1575060.53146  20921430.4694                   20921428.7734
        47.0004         37.0004
  10210641.30146   7971278.95745  23137515.4774                   23137514.3094
        41.2504         32.2504
 -11483959.02047  -8899191.12947  21876257.4384                   21876258.0434
        47.0004         43.2504
   6029020.53146   5355254.07452  24758520.6564                   24758524.2384
        36.2504         16.7504
  16659983.39845  12982554.87144  25065631.9384                   25065639.8954
        33.2504         26.2504
 -12301930.05547  -9535769.39847  22601067.1414                   22601069.0784
        46.2504         42.5004
   1307624.33247   1030168.58646  21320353.9534                   21320352.6254
        46.2504         36.2504
  -2415150.39546  -3610811.78145  23699479.2814                   23699482.3874
        38.5004         30.5004
  -8258316.22348  -6388008.62148  21454851.9304                   21454852.5984
        49.5004         49.0004
 25  6 30 20 25 30.0000000  0 10G08G23G15G27G16G29G32G18G24G10
  12288217.83646   7023393.55145  24302928.6484                   24302931.2154
        37.5004         30.0004
   1927527.75848   1523904.38746  20908937.6954                   20908935.5514
        48.7504         37.0004
  10208484.20746   7969598.03145  23137104.9924                   23137105.3324
        40.7504         34.0004
 -11627338.39547  -9010915.27347  21848973.5864                   21848974.1054
        46.5004         44.0004
   5994397.77745   5328275.16442  24751932.3524                   24751935.3954
        35.0004         15.5004
  16673396.74245  12993006.36344  25068183.6884                   25068194.2854
        32.2504         25.0004
 -12496307.09847  -9687231.94147  22564078.5474                   22564079.7664
        46.5004         42.0004
   1240752.77347    978060.85546  21307628.5234                   21307627.4184
        47.0004         36.0004
  -2562684.15646  -3725773.08645  23671404.9384                   23671407.7894
        38.2504         31.0004
  -8384258.15248  -6486145.17248  21430886.2424                   21430886.5004
        49.2504         48.5004
 25  6 30 20 26  0.0000000  0 10G08G23G15G27G16G29G32G18G24G10
  12100055.34846   6876773.50844  24267120.8444                   24267125.3594
        37.5004         29.7504
   1862079.48448   1472905.71946  20896483.3134                   20896481.4884
        48.0004         36.5004
  10206613.86746   7968140.57845  23136749.6954                   23136749.7194
        41.2504         35.2504
 -11770149.00847  -9122196.23447  21821797.5164                   21821798.2664
        47.2504         44.2504
   5959968.12545   5301446.71942  24745380.9844                   24745383.7344
        34.5004         15.5004
  16686839.62955  13003480.89554  25070744.3594                   25070752.0434
        33.2504         26.0004
 -12690383.00447  -9838459.83246  22527147.2734                   22527147.6524
        46.2504         41.7504
   1174227.10947    926222.66045  21294969.4534                   21294967.9454
        47.2504         35.7504
  -2709771.80146  -3840386.78945  23643414.5704                   23643417.1804
        38.2504         31.0004
  -8509949.84448  -6584086.72348  21406968.1644                   21406968.3634
        51.0004         49.0004
 25  6 30 20 26 30.0000000  0 10G08G23G15G27G16G29G32G18G24G10
  11912219.99645   6730408.37944  24231376.7194                   24231380.5514
        35.5004         28.5004
   1796832.17247   1422063.66046  20884067.1804                   20884065.1914
        47.5004         36.5004
  10205027.66046   7966904.51645  23136447.4774                   23136447.4924
        41.2504         35.0004
 -11912389.37147  -9233032.85947  21794729.5704                   21794730.8324
        46.5004         44.0004
   5925728.93455   5274766.66052  24738864.9454                   24738868.7664
        31.7504         15.5004
  16700309.16445  13013976.20744  25073306.7734                   25073314.0864
        33.0004         24.0004
 -12884155.42647  -9989451.21946  22490273.1954                   22490273.9024
        46.5004         41.7504
   1108047.84847    874654.39546  21282376.2504                   21282374.4884
        47.7504         36.0004
  -2856410.64146  -3954650.75045  23615510.2664                   23615513.5554
        38.7504         30.5004
  -8635392.03948  -6681833.87548  21383096.9924                   21383097.4344
        51.0004         49.2504
 25  6 30 20 27  0.0000000  0 10G08G23G15G27G16G29G32G18G24G10
  11724712.29746   6584298.57044  24195696.9064                   24195697.9654
        38.7504         29.5004
   1731782.80148   1371375.83246  20871688.4534                   20871686.2894
        48.2504         36.2504
  10203720.44947   7965885.84045  23136199.7274                   23136198.6604
        42.0004         35.5004
 -12054060.04347  -9343425.59047  21767770.8444                   21767771.8364
        46.0004         44.2504
   5891675.246 5                  24732383.102
        30.500
  16713801.58655  13024489.32454  25075876.9614                   25075881.4414
        34.5004         24.5004
 -13077623.96147 -10140205.82847  22453457.2734                   22453458.4454
        47.5004         42.5004
   1042213.56347    823354.93445  21269848.3914                   21269846.2854
        47.0004         35.7504
  -3002599.98846  -4068564.45744  23587691.0084                   23587693.9064
        38.5004         29.2504
  -8760587.41048  -6779388.68748  21359273.2424                   21359273.2274
        50.7504         49.2504
 25  6 30 20 27 30.0000000  0 10G08G23G15G27G16G29G32G18G24G10
  11537537.79346   6438448.40645  24160077.4384                   24160081.8674
        38.0004         31.0004
   1666933.43447   1320843.84446  20859348.2584                   20859346.1564
        47.0004         36.2504
  10202692.60546   7965084.87145  23136003.1174                   23136003.1684
        41.5004         34.5004
 -12195156.48847  -9453370.85247  21740921.2034                   21740921.8204
        47.0004         44.0004
   5857807.10215                  24725939.008
        31.750
  16727317.52045  13035020.79744  25078447.6334                   25078455.4024
        35.2504         25.7504
 -13270783.31247 -10290719.51247  22416700.0164                   22416702.1684
        46.5004         43.2504
    976727.93047    772327.15646  21257386.8284                   21257385.3594
        47.5004         36.2504
  -3148334.00446  -4182123.34445  23559959.3364                   23559961.0164
        38.5004         30.0004
  -8885533.54748  -6876749.29748  21335496.4534                   21335496.9064
        50.7504         49.2504
 25  6 30 20 28  0.0000000  0 10G08G23G15G27G16G29G32G18G24G10
  11350702.90646   6292862.85945  24124522.8754                   24124527.8954
        37.0004         30.7504
   1602286.79747   1270469.83246  20847046.3524                   20847044.2734
        47.5004         36.5004
  10201945.35946   7964502.54345  23135860.9924                   23135860.0084
        40.5004         32.7504
 -12335673.45747  -9562864.57047  21714182.1174                   21714182.0164
        46.7504         44.2504
   5824125.770 5                  24719529.992
        33.500
  16740858.33245  13045571.71143  25081023.3284                   25081032.2974
        32.2504         22.5004
 -13463627.40647 -10440987.56647  22380002.7504                   22380005.6804
        46.2504         44.0004
    911595.24247    721574.39845  21244992.2894                   21244990.8484
        47.5004         35.5004
  -3293606.23446  -4295322.39845  23532315.1954                   23532317.0204
        38.5004         31.0004
  -9010227.27748  -6973913.24248  21311768.0784                   21311768.7424
        50.2504         48.7504
 25  6 30 20 28 30.0000000  0 10G08G23G15G27G16G29G32G18G24G10
  11164205.86345   6147540.49644  24089033.4924                   24089038.2974
        34.2504         28.2504
   1537837.57847   1220249.66046  20834781.7344                   20834780.0164
        47.5004         36.5004
  10201471.40246   7964133.16445  23135770.9614                   23135770.6094
        40.2504         33.7504
 -12475613.80147  -9671908.96147  21687552.0084                   21687552.6024
        46.7504         43.5004
   5790623.72346   5237730.38352  24713155.8364                   24713158.4734
        36.0004         17.2504
  16754417.14546  13056136.62944  25083605.2664                   25083612.3634
        36.7504         27.7504
 -13656158.16847 -10591011.46147  22343365.5314                   22343367.3714
        46.0004         42.7504
    846811.80147    671093.78145  21232664.4384                   21232662.9224
        47.5004         35.5004
  -3438418.22346  -4408162.85944  23504757.8524                   23504760.2934
        39.0004         29.5004
  -9134673.58648  -7070884.37148  21288086.5944                   21288087.0594
        50.0004         48.5004
 25  6 30 20 29  0.0000000  0 10G08G23G15G27G16G29G32G18G24G10
  10978053.67245   6002486.99644  24053610.3054                   24053613.2074
        35.2504         28.5004
   1473589.41447   1170186.16046  20822555.4304                   20822553.9884
        47.5004         36.0004
  10201272.21946   7963977.86745  23135732.9924                   23135732.8674
        41.0004         35.5004
 -12614971.51647  -9780499.36347  21661033.2814                   21661033.7814
        46.7504         43.5004
   5757302.45346   5211765.58242  24706815.1174                   24706817.3444
        36.2504         17.2504
  16767996.69946  13066717.74644  25086189.5004                   25086196.3754
        39.7504         28.7504
 -13848368.64847 -10740785.77746  22306788.9224                   22306790.6374
        45.7504         40.7504
    782382.66847    620889.25445  21220404.2114                   21220402.5664
        47.2504         35.0004
  -3582762.82846  -4520639.09045  23477289.4844                   23477291.4694
        39.5004         30.2504
  -9258868.54748  -7167659.63348  21264453.3444                   21264453.9064
        50.2504         48.5004
 25  6 30 20 29 30.0000000  0 10G08G23G15G27G16G29G32G18G24G10
  10792250.69146   5857705.54345  24018252.9694                   24018256.6334
        36.7504         31.0004
   1409542.96948   1120279.82846  20810368.5004                   20810366.7464
        48.0004         36.7504
  10201347.21546   7964036.24645  23135747.7274                   23135747.2344
        39.5004         33.5004
 -12753743.50847  -9888633.35247  21634625.8674                   21634625.8164
        46.2504         43.5004
   5724160.89145   5185940.87942  24700508.0554                   24700511.2464
        33.5004         15.5004
  16781596.21946  13077314.36744  25088778.2504                   25088785.1454
        39.0004         29.2504
 -14040254.90247 -10890307.42646  22270274.2734                   22270275.0904
        46.5004         40.0004
    718310.15247    570962.60545  21208211.8054                   21208209.8554
        47.7504         35.2504
  -3726635.60546  -4632747.68745  23449911.5004                   23449913.7384
        39.5004         30.7504
  -9382811.08648  -7264238.20748  21240867.5164                   21240868.0044
        50.5004         49.0004
 25  6 30 20 30  0.0000000  0 10G08G23G15G27G16G29G32G18G24G10
  10606797.36746   5713196.51245  23982963.8054                   23982966.4734
        38.7504         30.7504
   1345695.22747   1070528.34446  20798218.4224                   20798217.1254
        47.5004         36.5004
  10201691.31346   7964304.30545  23135813.1024                   23135813.0634
        41.5004         34.7504
 -12891930.45747  -9996311.45747  21608329.5234                   21608330.1254
        47.5004         44.2504
   5691193.91445   5160252.14842  24694235.0164                   24694237.9694
        35.0004         14.7504
  16795211.38746  13087923.18444  25091369.3834                   25091376.4024
        38.2504         29.2504
 -14231816.63347 -11039576.20746  22233821.2274                   22233822.1724
        46.2504         40.5004
    654592.71547    521312.63745  21196086.7344                   21196084.6094
        47.2504         35.0004
  -3870035.90646  -4744488.14145  23422623.4534                   23422625.4614
        39.7504         30.5004
  -9506503.91448  -7360622.20748  21217329.6334                   21217330.0784
        50.5004         49.0004
 25  6 30 20 30 30.0000000  0 10G08G23G15G27G16G29G32G18G24G10
  11997122.03546   6796566.43844  24247533.3204                   24247535.8134
        37.5004         29.5004
   2857467.03148   2248532.32846  21085899.3364                   21085897.4734
        48.0004         36.2504
  11777721.33647   9192379.60245  23435722.3134                   23435720.5784
        42.5004         34.0004
 -11454106.67247  -8875929.25847  21881937.9534                   21881938.7504
        46.5004         44.5004
   7233819.68045   6362298.02742  24987786.3134                   24987790.8594
        34.5004         14.7504
  18384258.92646  14326141.64844  25393754.3054                   25393763.3444
        39.0004         28.5004
 -12847625.48447  -9960985.59046  22497224.4534                   22497225.4344
        46.5004         41.5004
   2166652.78147   1699541.24245  21483821.9924                   21483819.8794
        46.5004         35.0004
  -2437536.67646  -3628254.91445  23695219.2424                   23695221.1294
        40.5004         32.0004
  -8054523.83248  -6229209.14848  21493632.6334                   21493632.6054
        50.0004         49.2504
 25  6 30 20 31  0.0000000  0 10G08G23G15G27G16G29G32G18G24G10
  11812382.42246   6652613.62944  24212377.6024                   24212379.5824
        36.2504         26.2504
   2794020.68847   2199093.62146  21073825.5474                   21073823.9534
        47.7504         36.7504
  11778602.13347   9193065.85545  23435889.7894                   23435888.5554
        42.7504         33.5004
 -11591112.57447  -8982687.09847  21855866.6334                   21855866.9494
        45.5004         44.7504
   7201200.45755   6336880.27752  24981579.1564                   24981584.0864
        32.2504         15.5004
  18397905.23446  14336774.75044  25396351.1644                   25396361.4494
        38.7504         27.5004
 -13038524.41847 -10109737.91447  22460896.7734                   22460898.5984
        46.2504         42.2504
   2103654.02347   1650451.28545  21471833.9454                   21471831.6884
        46.7504         35.2504
  -2579977.30546  -3739247.56245  23668113.2584                   23668116.0984
        40.5004         32.0004
  -8177712.26648  -6325200.11348  21470190.6414                   21470190.4064
        50.7504         48.7504
 25  6 30 20 31 30.0000000  0 10G08G23G15G27G16G29G32G18G24G10
  11628005.82445   6508943.66844  24177291.6724                   24177294.9414
        35.0004         26.0004
   2730775.86347   2149811.92646  21061790.8364                   21061788.9844
        47.0004         36.5004
  11779749.67647   9193960.01245  23436107.4224                   23436106.1914
        43.0004         33.2504
 -11727523.62947  -9088981.42647  21829908.5394                   21829909.5044
        46.0004         44.5004
   7168752.72755   6311596.22352  24975406.6024                   24975409.9734
        35.7504         15.5004
  18411565.97346  14347419.16043  25398951.1564                   25398960.1174
        38.2504         22.5004
 -13229086.22747 -10258227.54347  22424634.0864                   22424635.9654
        45.2504         43.0004
   2041017.68047   1601643.73445  21459914.5704                   21459912.7274
        46.7504         35.0004
  -2721931.89546  -3849861.47345  23641100.1024                   23641102.9344
        41.0004         32.0004
  -8300647.16448  -6420993.52748  21446796.6484                   21446796.7704
        50.5004         48.5004
 25  6 30 20 32  0.0000000  0 10G08G23G15G27G16G29G32G18G24G10
  11443993.10546   6365557.21145  24142275.9614                   24142279.5664
        39.2504         30.5004
   2667729.98048   2100685.25046  21049793.1414                   21049791.4454
        48.0004         36.7504
  11781159.39847   9195058.42645  23436376.0704                   23436375.4734
        43.2504         34.7504
 -11863340.18747  -9194812.50047  21804063.6884                   21804064.0904
        46.5004         44.2504
   7136472.30846   6286442.54642  24969263.8134                   24969265.9384
        38.7504         16.7504
  18425237.23446  14358071.86743  25401553.9384                   25401560.6884
        40.7504         22.0004
 -13419310.23447 -10406453.97347  22388435.5944                   22388437.8714
        46.0004         43.5004
   1978742.66047   1553117.73445  21448064.2424                   21448062.5664
        46.7504         34.5004
  -2863399.42646  -3960095.85545  23614180.0944                   23614182.1414
        41.5004         32.2504
  -8423330.82448  -6516591.16048  21423450.6884                   21423450.6174
        50.2504         48.5004
 25  6 30 20 32 30.0000000  0 10G08G23G15G27G16G29G32G18G24G10
  11260345.75446   6222455.45745  24107328.9844                   24107331.4414
        39.2504         30.5004
   2604881.14847   2051712.14146  21037833.4454                   21037832.1134
        47.5004         36.7504
  11782827.47347   9196358.17245  23436693.7504                   23436694.0474
        42.7504         34.5004
 -11998561.97347  -9300180.10547  21778331.8444                   21778331.6954
        46.5004         43.7504
   7104355.19946   6261416.07442  24963151.2194                   24963153.4924
        36.5004         17.2504
  18438915.92246  14368730.23844  25404156.4304                   25404164.3634
        39.7504         24.7504
 -13609195.18047 -10554416.19547  22352301.3524                   22352303.9064
        45.5004         42.7504
   1916828.44947   1504872.88745  21436282.1564                   21436280.3754
        46.2504         34.2504
  -3004378.37546  -4069949.53545  23587353.3754                   23587354.3634
        41.2504         33.7504
  -8545764.86348  -6611994.28948  21400152.2034                   21400152.6214
        50.0004         48.7504
 25  6 30 20 33  0.0000000  0  9G08G23G15G27G16G32G18G24G10
  11077065.82446   6079640.01644  24072451.2504                   24072452.9774
        39.0004         29.5004
   2542227.98847   2002891.49646  21025911.0864                   21025909.1994
        47.5004         37.0004
  11784750.92646   9197856.94145  23437059.6954                   23437060.0044
        41.5004         33.7504
 -12133188.14147  -9405083.57447  21752713.3364                   21752712.8714
        45.7504         43.5004
   7072397.73445   6236514.00842  24957069.0554                   24957072.4224
        35.0004         17.7504
 -13798739.17647 -10702112.73047  22316232.8284                   22316234.5904
        47.2504         43.0004
   1855275.14147   1456909.25445  21424568.6564                   21424567.1724
        46.0004         34.5004
  -3144866.51646  -4179420.77745  23560617.8594                   23560620.6334
        40.7504         34.5004
  -8667950.34048  -6707203.71548  21376901.1724                   21376901.5004
        50.7504         49.0004
 25  6 30 20 33 30.0000000  0  9G08G23G15G27G16G32G18G24G10
  10894159.60946   5937115.78944  24037645.4384                   24037648.5354
        37.2504         29.5004
   2479773.24647   1954225.46146  21014025.8984                   21014024.3244
        47.5004         36.0004
  11786930.38346   9199555.17645  23437473.0474                   23437474.4654
        40.0004         32.0004
 -12267213.75047  -9509519.06647  21727208.9844                   21727208.6684
        46.5004         43.5004
   7040600.96546   6211737.22342  24951019.6954                   24951022.4614
        39.0004         17.7504
 -13987936.30548 -10849538.97347  22280229.8984                   22280231.0594
        48.0004         43.0004
   1794086.90247   1409230.08645  21412925.2424                   21412923.1214
        46.7504         34.0004
  -3284857.65246  -4288504.71945  23533978.6804                   23533981.1954
        41.0004         34.0004
  -8789884.19548  -6802217.09048  21353697.8054                   21353698.1024
        51.0004         49.2504
 25  6 30 20 34  0.0000000  0  9G08G23G15G27G16G32G18G24G10
  10711634.96946   5794888.85945  24002911.7734                   24002916.0514
        39.2504         31.0004
   2417521.52047   1905717.60946  21002180.6804                   21002178.4884
        46.0004         36.5004
  11789369.17246   9201455.43445  23437938.3364                   23437938.3874
        39.7504         32.5004
 -12400632.08247  -9613481.38347  21701820.1954                   21701820.8404
        46.2504         45.0004
   7008967.52346   6187087.62942  24945000.5164                   24945002.7154
        38.5004         16.2504
 -14176778.89147 -10996688.93747  22244293.9844                   22244294.8834
        47.7504         42.7504
   1733269.71947   1361840.05145  21401352.0944                   21401350.4064
        44.7504         34.5004
  -3424343.77046  -4397195.15645  23507435.9774                   23507437.9144
        41.7504         33.7504
  -8911561.59048  -6897030.62148  21330543.2424                   21330543.6134
        50.5004         49.0004
 25  6 30 20 34 30.0000000  0  9G08G23G15G27G16G32G18G24G10
  10529498.48046   5652964.37144  23968252.8914                   23968255.7384
        38.7504         29.7504
   2355475.82847   1857370.31646  20990373.3834                   20990371.8364
        47.2504         36.5004
  11792068.18046   9203558.51645  23438451.1094                   23438452.2624
        37.7504         31.0004
 -12533438.03547  -9716966.52347  21676547.8594                   21676548.5314
        47.0004         45.5004
   6977498.35946   6162566.04342  24939011.5004                   24939014.3444
        38.0004         16.7504
 -14365260.63348 -11143557.71547  22208427.5004                   22208428.0744
        48.2504         43.2504
   1672828.03547   1314742.63345  21389849.8524                   21389848.8324
        46.2504         34.0004
  -3563318.28946  -4505486.93045  23480989.4454                   23480991.7194
        40.0004         32.5004
  -9032979.18448  -6991641.70748  21307438.4064                   21307438.4064
        50.7504         49.0004
 25  6 30 20 35  0.0000000  0  9G08G23G15G27G16G32G18G24G10
  10347750.49246   5511342.66444  23933666.7894                   23933670.0164
        38.0004         28.7504
   2293633.16047   1809181.23046  20978605.2504                   20978603.5234
        47.7504         37.2504
  11795022.14846   9205860.24645  23439014.3204                   23439014.0594
        40.0004         30.2504
 -12665632.55147  -9819975.22747  21651392.1884                   21651393.0004
        47.0004         45.0004
   6946188.55946   6138168.66442  24933053.3754                   24933056.4064
        38.0004         17.7504
 -14553381.46547 -11290145.27747  22172628.5084                   22172629.8594
        47.7504         43.7504
   1612760.19547   1267936.50845  21378419.8284                   21378418.4104
        46.0004         35.0004
  -3701780.93046  -4613379.84045  23454640.5784                   23454643.2704
        39.7504         32.5004
  -9154139.76248  -7086052.53548  21284382.1884                   21284382.3714
        50.7504         49.2504
 25  6 30 20 35 30.0000000  0  9G08G23G15G27G16G32G18G24G10
  10166394.44946   5370026.34844  23899156.0474                   23899158.9184
        37.7504         28.7504
   2231993.63747   1761150.42246  20966875.9304                   20966873.8094
        47.0004         36.5004
  11798229.71946   9208359.59045  23439625.0004                   23439624.1094
        41.2504         31.2504
 -12797213.42247  -9922505.75447  21626353.2194                   21626353.6524
        46.2504         43.7504
   6915036.16446   6113894.00443  24927125.6414                   24927127.8164
        37.7504         18.2504
 -14741138.11348 -11436449.07047  22136899.4384                   22136900.7774
        48.0004         44.0004
   1553067.69947   1221422.87545  21367060.9384                   21367059.4344
        44.7504         35.0004
  -3839728.12546  -4720871.09045  23428390.6484                   23428392.1094
        40.7504         32.2504
  -9275042.88748  -7180262.73448  21261375.3444                   21261375.6174
        50.5004         49.5004
 25  6 30 20 36  0.0000000  0  9G08G23G15G27G16G32G18G24G10
   9985428.33246   5229013.85544  23864719.1174                   23864722.3094
        37.7504         28.5004
   2170551.84047   1713273.69546  20955183.2424                   20955182.1524
        47.5004         36.5004
  11801683.93046   9211051.09445  23440282.1564                   23440281.9494
        40.5004         30.0004
 -12928184.04747 -10024560.75847  21601430.6954                   21601430.8754
        45.5004         43.0004
   6884033.88746   6089736.23042  24921226.7114                   24921228.7584
        39.0004         17.2504
 -14928532.89147 -11582470.88747  22101239.4924                   22101241.3094
        47.0004         44.2504
   1493746.46947   1175198.52045  21355772.1414                   21355771.0164
        46.0004         34.7504
  -3977161.94946  -4827962.30945  23402237.5084                   23402239.9104
        40.0004         33.2504
  -9395693.70748  -7274276.34048  21238416.0864                   21238416.3984
        50.2504         50.0004
 25  6 30 20 36 30.0000000  0  9G08G23G15G27G16G32G18G24G10
   9804851.82046   5088304.96544  23830356.8984                   23830359.2704
        38.0004         28.5004
   2109304.09047   1665548.17646  20943528.2894                   20943526.5204
        47.5004         36.5004
  11805378.89146   9213930.22345  23440984.7894                   23440984.8594
        39.7504         30.0004
 -13058546.15247 -10126141.57447  21576623.2974                   21576623.0274
        45.2504         42.7504
   6853175.93446   6065690.85543  24915354.4304                   24915356.3094
        40.0004         18.2504
 -15115566.46947 -11728211.24647  22065648.1094                   22065650.4964
        46.5004         44.5004
   1434794.13347   1129261.60945  21344554.2664                   21344552.2274
        46.0004         34.5004
  -4114082.81646  -4934653.83245  23376183.1564                   23376184.5474
        40.2504         33.5004
  -9516095.78548  -7368096.10948  21215504.3914                   21215504.5594
        50.2504         50.0004
 25  6 30 20 37  0.0000000  0  9G08G23G15G27G16G32G18G24G10
   9624667.59846   4947901.75044  23796069.8444                   23796070.5234
        37.0004         26.5004
   2048249.76647   1617973.37546  20931910.2814                   20931908.5594
        45.5004         36.0004
  11809312.20746   9216995.14144  23441733.1644                   23441733.1804
        39.5004         29.2504
 -13188298.41447 -10227247.18447  21551932.2894                   21551932.3874
        47.0004         44.7504
   6822459.51246   6041755.88743  24909509.2114                   24909512.2544
        38.0004         19.0004
 -15302236.35248 -11873668.22747  22030126.0394                   22030127.7234
        48.0004         45.2504
   1376211.35247   1083612.67245  21333406.5084                   21333404.7814
        45.0004         34.2504
  -4250487.95346  -5040943.47745  23350225.0164                   23350227.2384
        40.7504         34.0004
  -9636249.37948  -7461722.25848  21192639.8674                   21192640.1804
        50.0004         49.5004
 25  6 30 20 37 30.0000000  0  9G08G23G15G27G16G32G18G24G10
   9444876.89846   4807805.17644  23761855.9534                   23761857.3324
        36.2504         24.5004
   1987386.68847   1570547.59046  20920328.4064                   20920326.5744
        46.5004         36.0004
  11813480.00046   9220242.75444  23442526.3524                   23442526.3554
        39.2504         29.2504
 -13317441.01247 -10327877.74647  21527357.1954                   21527357.6804
        46.2504         46.0004
   6791880.43446   6017927.96543  24903690.0394                   24903693.5664
        37.2504         18.5004
 -15488541.60247 -12018841.05947  21994673.1644                   21994674.9384
        46.5004         45.0004
   1317997.27747   1038251.03545  21322328.3594                   21322327.0784
        44.7504         34.2504
  -4386376.21546  -5146830.36745  23324367.0084                   23324368.4614
        40.7504         33.7504
  -9756156.44948  -7555156.31648  21169822.3134                   21169822.3134
        50.2504         49.5004
 25  6 30 20 38  0.0000000  0  9G08G23G15G27G16G32G18G24G10
   9265485.78946   4668020.00844  23727719.2894                   23727721.2894
        38.2504         28.0004
   1926717.70747   1523273.06346  20908783.3364                   20908782.2934
        46.2504         36.0004
  11817883.29746   9223673.84045  23443364.4614                   23443365.5824
        39.5004         31.2504
 -13445969.30147 -10428029.64847  21502898.8284                   21502899.5904
        46.5004         46.2504
   6761439.61746   5994207.65243  24897898.1644                   24897900.3594
        37.2504         18.2504
 -15674476.43047 -12163725.25847  21959291.1174                   21959292.6884
        47.7504         44.5004
   1260156.04347    993179.93445  21311321.5864                   21311320.6524
        45.0004         34.5004
  -4521741.61746  -5252309.84045  23298606.8364                   23298609.7034
        39.5004         33.0004
  -9875813.98848  -7648395.92648  21147052.1484                   21147052.2114
        50.0004         49.0004
 25  6 30 20 38 30.0000000  0  9G08G23G15G27G16G32G18G24G10
  10661920.95746   5756151.37944  23993450.5314                   23993453.9694
        37.7504         28.5004
   3441662.19547   2703749.28946  21197067.8524                   21197066.0904
        47.0004         36.0004
  13397937.96146  10454885.22745  23744039.5234                   23744039.7274
        40.0004         32.0004
 -11998459.66047  -9300100.04347  21778350.8364                   21778351.5634
        46.2504         46.0004
   8306553.64846   7198192.48043  25191922.7194                   25191926.7774
        36.7504         18.2504
 -14284614.18748 -11080715.61747  22223772.8594                   22223774.3484
        48.0004         43.5004
   2778108.20747   2175999.79345  21600178.5084                   21600176.6644
        45.5004         34.5004
  -3081159.00846  -4129777.86745  23572741.0784                   23572742.5864
        39.7504         32.5004
  -8419800.32448  -6513839.81248  21424122.5864                   21424122.8164
        49.7504         49.0004
 25  6 30 20 39  0.0000000  0  9G08G23G15G27G16G32G18G24G10
  10483332.07845   5616991.21544  23959465.8674                   23959470.0084
        35.7504         28.0004
   3381374.39547   2656771.78146  21185595.1884                   21185593.6914
        47.0004         36.5004
  13402799.92246  10458673.64545  23744964.8134                   23744964.4414
        40.0004         31.5004
 -12125760.59447  -9399295.57047  21754126.3834                   21754126.7584
        45.7504         44.5004
   8276376.51246   7174677.74242  25186181.1414                   25186183.6604
        38.2504         17.7504
 -14469805.98047 -11225020.81647  22188531.7274                   22188532.6804
        46.5004         42.7504
   2721009.42647   2131507.21545  21589312.3594                   21589310.9964
        46.2504         34.5004
  -3215475.93846  -4234440.31845  23547181.2194                   23547183.1604
        38.5004         33.0004
  -8538964.96948  -6606695.35948  21401445.7974                   21401446.2854
        50.5004         49.2504
 25  6 30 20 39 30.0000000  0  9G08G23G15G27G16G32G18G24G10
  10305149.07046   5478147.32044  23925560.6094                   23925563.0004
        39.0004         29.7504
   3321277.09847   2609942.70746  21174159.0554                   21174157.6214
        45.2504         36.0004
  13407888.22746  10462638.49245  23745933.7504                   23745932.9844
        40.0004         31.7504
 -12252445.23447  -9498010.86747  21730018.8204                   21730019.0984
        46.2504         43.2504
   8246327.82846   7151263.03143  25180462.8834                   25180466.5124
        38.2504         19.7504
 -14654621.89847 -11369033.12547  22153362.5864                   22153363.6764
        47.0004         43.0004
   2664283.63747   2087305.28945  21578517.9144                   21578516.2424
        45.0004         35.0004
  -3349263.86346  -4338690.59045  23521721.9694                   23521724.5164
        38.5004         32.2504
  -8657882.94948  -6699358.69148  21378816.6174                   21378816.9494
        49.7504         49.5004
 25  6 30 20 40  0.0000000  0  9G08G23G15G27G16G32G18G24G10
  10127373.28146   5339620.84445  23891731.1334                   23891733.0784
        40.2504         31.2504
   3261368.43847   2563260.62545  21162758.6024                   21162757.1724
        46.5004         35.5004
  13413199.15246  10466776.79745  23746944.5634                   23746943.5204
        41.0004         33.5004
 -12378513.68447  -9596245.99247  21706028.8914                   21706029.3874
        45.5004         43.2504
   8216403.84046   7127945.51642  25174768.8984                   25174771.6844
        36.0004         16.2504
 -14839060.78547 -11512751.64147  22118265.1414                   22118266.9304
        46.5004         43.7504
   2607930.19947   2043393.48445  21567794.6174                   21567793.7854
        45.5004         34.5004
  -3482521.62946  -4442527.72745  23496364.1334                   23496365.7894
        38.5004         32.7504
  -8776555.94948  -6791831.14148  21356233.9304                   21356234.0004
        49.2504         49.2504
 25  6 30 20 40 30.0000000  0  9G08G23G15G27G16G32G18G24G10
   9950009.23846   5201415.21545  23857979.2034                   23857981.2344
        39.5004         31.0004
   3201649.55547   2516726.44946  21151395.1094                   21151392.7304
        46.7504         36.0004
  13418732.09046  10471088.12145  23747996.2504                   23747996.5554
        39.5004         32.7504
 -12503963.02747  -9693998.69947  21682156.7974                   21682156.9454
        47.0004         44.0004
   8186603.61745   7104724.39542  25169098.3914                   25169101.0204
        35.7504         16.7504
 -15023118.56248 -11656173.19147  22083239.8054                   22083241.6994
        48.0004         45.0004
   2551951.46147   1999773.68045  21557142.2664                   21557141.0004
        46.5004         34.7504
  -3615244.88346  -4545948.34445  23471107.6254                   23471108.9344
        39.0004         32.7504
  -8894982.59048  -6884111.60948  21333698.2424                   21333698.3134
        49.7504         49.5004
 25  6 30 20 41  0.0000000  0  9G08G23G15G27G16G32G18G24G10
   9773055.04346   5063528.96945  23824305.5864                   23824307.7814
        38.7504         30.5004
   3142115.45747   2470336.23845  21140066.2734                   21140064.4144
        46.2504         35.5004
  13424480.02046  10475566.95345  23749090.2034                   23749090.5634
        40.2504         34.5004
 -12628796.62547  -9791271.61747  21658401.5234                   21658402.0904
        47.0004         45.5004
   8156919.988 5                  25163449.945
        32.750
 -15206797.32047 -11799299.41047  22048286.5474                   22048288.3834
        47.0004         43.7504
   2496343.57047   1956442.84045  21546559.8364                   21546558.4494
        45.2504         34.7504
  -3747435.41046  -4648953.88745  23445952.3984                   23445954.6414
        38.7504         32.2504
  -9013167.71948  -6976203.89148  21311208.1414                   21311208.2584
        48.7504         49.0004
 25  6 30 20 41 30.0000000  0  9G08G23G15G27G16G32G18G24G10
   9596517.37946   4925967.22345  23790710.6724                   23790714.4454
        37.2504         31.0004
   3082769.44947   2424092.60246  21128773.1484                   21128771.1644
        47.7504         36.2504
  13430444.83647  10480214.78145  23750226.0474                   23750226.3244
        42.2504         35.5004
 -12753009.41447  -9888060.77747  21634764.7114                   21634765.5514
        47.7504         46.5004
   8127354.328 5                  25157823.539
        30.500
 -15390090.75447 -11942125.39547  22013406.8444                   22013408.5824
        47.0004         43.5004
   2441111.04347   1913404.48845  21536049.6414                   21536047.7544
        45.2504         34.5004
  -3879087.09446  -4751539.55945  23420900.6954                   23420901.8754
        40.0004         32.5004
  -9131107.79348  -7068105.22748  21288765.0004                   21288764.8674
        49.2504         49.0004
 25  6 30 20 42  0.0000000  0  9G08G23G15G27G16G32G18G24G10
   9420396.18046   4788729.97345  23757196.4774                   23757199.5474
        38.7504         31.5004
   3023608.49647   2377993.15245  21117514.6954                   21117512.9694
        46.0004         35.5004
  13436621.22746  10485027.46945  23751401.3834                   23751401.4844
        40.7504         34.5004
 -12876602.77347  -9984367.27747  21611245.6804                   21611246.1884
        47.0004         46.5004
   8097901.68015                  25152219.891
        33.750
 -15572999.05947 -12084651.26247  21978600.9144                   21978601.9574
        47.5004         44.2504
   2386252.00847   1870657.16445  21525610.5704                   21525608.7424
        46.0004         34.5004
  -4010199.75446  -4853705.20745  23395950.1024                   23395951.7344
        39.0004         30.7504
  -9248805.67248  -7159817.83648  21266367.5944                   21266367.8754
        48.5004         49.0004
 25  6 30 20 42 30.0000000  0  9G08G23G15G27G16G32G18G24G10
   9244696.16046   4651820.94145  23723762.8364                   23723764.6334
        40.0004         32.5004
   2964633.96947   2332038.98046  21106292.2584                   21106290.3134
        46.2504         36.2504
  13443009.09846  10490004.96545  23752616.6644                   23752615.9534
        41.5004         34.5004
 -12999573.69547 -10080188.77347  21587845.2664                   21587845.6414
        47.5004         45.5004
   8068561.35545   7072638.91053  25146635.4454                   25146637.4024
        34.0004         19.0004
 -15755517.93048 -12226873.66447  21943869.2664                   21943869.7344
        48.7504         44.7504
   2331768.99247   1828202.84445  21515243.1884                   21515241.3444
        47.7504         35.2504
  -4140769.02046  -4955447.42245  23371102.8674                   23371105.1134
        39.0004         30.2504
  -9366259.78548  -7251340.50448  21244016.8594                   21244017.1294
        50.0004         49.2504
 25  6 30 20 43  0.0000000  0  9G08G23G15G27G16G32G18G24G10
   9069419.77346   4515242.05545  23690407.4924                   23690410.1684
        39.0004         31.2504
   2905845.29347   2286229.62145  21095104.8914                   21095103.6024
        46.0004         35.7504
  13449606.28546  10495145.56345  23753872.1644                   23753872.0084
        40.7504         32.2504
 -13121921.20347 -10175524.50047  21564563.0474                   21564563.5084
        45.0004         44.5004
   8039330.53945   7049861.52042  25141073.2424                   25141076.4694
        31.5004         16.7504
 -15937645.17248 -12368790.89847  21909211.3284                   21909211.8134
        48.7504         45.5004
   2277662.43847   1786041.87145  21504947.0634                   21504945.4454
        46.0004         34.7504
  -4270792.50846  -5056764.35945  23346360.6024                   23346363.1134
        39.5004         31.7504
  -9483470.61748  -7342673.59848  21221712.5084                   21221712.4454
        49.2504         49.2504
 25  6 30 20 43 30.0000000  0  9G08G23G15G27G16G32G18G24G10
   8894567.64546   4378993.73445  23657134.6174                   23657136.2814
        38.7504         31.2504
   2847239.82847   2240563.01646  21083952.7504                   21083951.3014
        45.7504         36.0004
  13456407.48446  10500445.12945  23755166.2584                   23755166.0164
        39.0004         30.5004
 -13243646.35947 -10270375.25847  21541399.6024                   21541399.9494
        45.7504         44.0004
   8010204.84045   7027166.01642  25135531.8284                   25135533.9844
        33.2504         16.7504
 -16119380.52348 -12510402.75847  21874628.2734                   21874629.1054
        48.7504         46.0004
   2223930.90647   1744173.12945  21494722.0004                   21494720.5394
        46.5004         35.5004
  -4400269.82046  -5157655.71945  23321721.9614                   23321723.8594
        39.0004         31.7504
  -9600440.55948  -7433818.98048  21199453.5394                   21199453.8324
        49.7504         49.5004
 25  6 30 20 44  0.0000000  0  9G08G23G15G27G16G32G18G24G10
   8720143.65246   4243079.06345  23623942.9694                   23623945.7344
        38.5004         33.5004
   2788818.43047   2195039.85245  21072835.8984                   21072834.0784
        45.7504         35.7504
  13463412.14546  10505903.27344  23756498.6564                   23756499.3164
        37.5004         29.0004
 -13364746.75048 -10364739.16447  21518355.2114                   21518355.1564
        48.0004         44.0004
   7981182.80945   7004551.31642  25130009.4304                   25130011.5634
        31.5004         16.7504
 -16300720.26648 -12651706.37147  21840119.7814                   21840121.0554
        49.7504         46.0004
   2170576.28947   1702598.09045  21484568.6724                   21484567.5314
        46.0004         35.0004
  -4529197.23446  -5258118.58645  23297188.0474                   23297189.5274
        38.0004         31.5004
  -9717168.63748  -7524775.89848  21177240.9304                   21177241.1484
        49.2504         49.5004
 25  6 30 20 44 30.0000000  0  9G08G23G15G27G16G32G18G24G10
   8546150.68046   4107500.21145  23590833.4384                   23590836.1374
        38.7504         33.5004
   2730580.82447   2149659.89546  21061753.2034                   21061751.4024
        45.7504         36.0004
  13470618.10546  10511518.24644  23757870.0234                   23757870.2424
        37.5004         27.2504
 -13485221.28947 -10458615.37547  21495429.7974                   21495429.3594
        47.5004         44.7504
   7952261.66845   6982015.17242  25124506.6564                   25124509.3714
        32.0004         14.7504
 -16481661.88748 -12792699.75047  21805687.3054                   21805689.0234
        48.0004         44.7504
   2117599.37947   1661317.37145  21474487.9454                   21474485.9734
        46.7504         35.2504
  -4657572.09846  -5358150.88745  23272759.4224                   23272760.6334
        40.5004         32.0004
  -9833654.94548  -7615544.43048  21155074.4064                   21155074.8324
        49.0004         49.2504
 25  6 30 20 45  0.0000000  0  9G08G23G15G27G16G32G18G24G10
   8372587.73446   3972256.40245  23557805.1644                   23557808.5824
        39.0004         33.2504
   2672522.90247   2104419.94145  21050705.2504                   21050703.7074
        45.7504         35.2504
  13478019.66446  10517285.64844  23759277.6484                   23759278.8524
        37.0004         25.2504
 -13605072.52347 -10552005.90647  21472622.3284                   21472622.8484
        47.2504         45.0004
   7923435.41415                  25119021.883
        31.750
 -16662206.70747 -12933383.93747  21771330.7504                   21771332.1094
        46.7504         44.5004
   2064997.12947   1620328.58245  21464477.8284                   21464476.2234
        46.7504         35.2504
  -4785395.59446  -5457753.57045  23248435.3204                   23248437.1994
        40.7504         33.7504
  -9949903.47748  -7706127.67648  21132953.0634                   21132953.0904
        50.2504         49.0004
 25  6 30 20 45 30.0000000  0  9G08G23G15G27G16G32G18G24G10
   8199461.01246   3837352.54745  23524860.6954                   23524862.9924
        39.0004         32.5004
   2614647.87947   2059322.53145  21039691.9924                   21039690.5594
        45.5004         35.7504
  13485618.18446  10523206.45344  23760724.8984                   23760726.1914
        37.2504         26.5004
 -13724295.79747 -10644907.14147  21449934.6564                   21449935.3834
        46.2504         45.0004
   7894705.71114                  25113551.359
        28.750
 -16842348.75847 -13073754.28547  21737051.5314                   21737051.8134
        47.2504         44.7504
   2012773.75447   1579635.02345  21454540.1724                   21454538.3714
        47.2504         35.5004
  -4912661.69146  -5556921.92245  23224216.4304                   23224219.0474
        40.0004         32.5004
 -10065910.86348  -7796523.02348  21110877.8204                   21110877.9614
        49.0004         49.0004
 25  6 30 20 46  0.0000000  0  9G08G23G15G27G16G32G18G24G10
   9602194.98446   4930392.08245  23791790.9144                   23791794.5554
        38.0004         33.0004
   4132373.23047   3241965.65245  21328505.9064                   21328503.6994
        46.0004         34.7504
  15068826.66045  11756875.32044  24061998.6564                   24062001.6374
        35.2504         26.0004
 -12267470.18447  -9509718.34847  21727159.8364                   21727160.4574
        44.0004         44.7504
   9441486.73015                  25407896.195
        31.750
 -15446663.71548 -11986207.42647  22002641.5234                   22002641.6524
        48.0004         45.7504
   3536347.62547   2766835.42645  21744466.8674                   21744465.0704
        47.0004         35.2504
  -3463947.84046  -4428053.93745  23499897.9844                   23499899.9344
        38.7504         30.5004
  -8606257.50448  -6659130.76648  21388640.6564                   21388640.5634
        48.7504         49.5004
 25  6 30 20 46 30.0000000  0  9G08G23G15G27G16G32G18G24G10
   9429950.19946   4796175.44945  23759013.1484                   23759016.2034
        37.5004         31.5004
   4074864.04347   3197153.29345  21317562.1414                   21317559.9144
        46.2504         34.7504
  15076812.81345  11763098.28544  24063518.4224                   24063519.7854
        34.5004         26.5004
 -12385433.35947  -9601637.72347  21704711.8594                   21704712.4884
        46.5004         45.7504
   9412943.523 5                  25402464.523
        34.500
 -15625991.90248 -12125943.58647  21968516.2034                   21968516.7114
        48.5004         45.5004
   3484885.19147   2726734.81645  21734673.6414                   21734671.9924
        47.0004         35.2504
  -3590090.70746  -4526347.02345  23475893.4064                   23475895.7464
        38.0004         31.0004
  -8721782.12948  -6749149.93048  21366656.8364                   21366656.7504
        50.7504         49.2504
 25  6 30 20 47  0.0000000  0  9G08G23G15G27G16G32G18G24G10
   9258144.10246   4662300.66045  23726320.4924                   23726323.1174
        38.5004         32.7504
   4017531.09447   3152478.27045  21306652.3444                   21306650.3484
        47.0004         35.7504
  15084984.23046  11769465.55544  24065073.6954                   24065075.1374
        37.2504         28.5004
 -12502771.21147  -9693069.81247  21682383.4144                   21682384.0234
        45.5004         46.5004
   9384483.109 5                  25397047.789
        34.500
 -15804915.80547 -12265364.71947  21934468.0164                   21934468.7664
        46.7504         44.7504
   3433797.92247   2686926.53145  21724951.6414                   21724950.3554
        46.2504         34.2504
  -3715674.50846  -4624204.49245  23451995.4614                   23451997.5984
        39.0004         30.7504
  -8837071.87148  -6838986.07048  21344718.0474                   21344718.1564
        48.7504         49.5004
 25  6 30 20 47 30.0000000  0  9G08G23G15G27G16G32G18G24G10
   9086783.28546   4528772.85545  23693712.0474                   23693715.5234
        40.2504         33.7504
   3960377.96147   3107943.35246  21295776.4774                   21295774.2974
        46.5004         36.0004
  15093341.89846  11775977.94544  24066664.5474                   24066663.7774
        40.0004         28.7504
 -12619478.85247  -9784010.81247  21660174.8834                   21660174.9534
        47.5004         47.0004
   9356107.785 5                  25391648.656
        33.750
 -15983429.08647 -12404465.89847  21900498.1644                   21900498.6914
        46.0004         44.7504
   3383090.47347   2647414.21945  21715302.8364                   21715301.2074
        46.5004         34.5004
  -3840692.79346  -4721621.31645  23428205.3674                   23428206.9964
        38.2504         31.2504
  -8952123.03148  -6928636.31248  21322824.4614                   21322824.3204
        49.0004         49.5004
 25  6 30 20 48  0.0000000  0  9G08G23G15G27G16G32G18G24G10
   8915869.06646   4395592.98845  23661187.1174                   23661190.6844
        39.0004         32.0004
   3903402.79347   3063547.10545  21284933.9694                   21284931.7774
        46.2504         35.5004
  15101882.12146  11782632.56345  24068289.9614                   24068289.6564
        40.7504         31.2504
 -12735556.80547  -9874461.14147  21638086.2274                   21638085.8404
        47.7504         46.2504
   9327813.609 5                  25386264.602
        33.500
 -16161530.93747 -12543246.48847  21866605.9924                   21866606.8874
        47.5004         45.5004
   3332761.94147   2608197.15245  21705725.7114                   21705724.3164
        47.5004         34.7504
  -3965144.82046  -4818596.87545  23404522.7664                   23404525.0394
        38.7504         32.0004
  -9066937.30148  -7018101.96548  21300976.0784                   21300976.0824
        48.7504         49.5004
 25  6 30 20 48 30.0000000  0  9G08G23G15G27G16G32G18G24G10
   8745399.56646   4262759.67245  23628748.5554                   23628749.5394
        40.2504         30.5004
   3846600.83247   3019285.83645  21274125.2814                   21274122.9774
        46.2504         35.2504
  15110598.35946  11789424.40245  24069948.9224                   24069947.4224
        41.5004         30.7504
 -12851008.61747  -9964423.55947  21616116.2504                   21616116.0394
        46.5004         44.0004
   9299593.24646   8207240.76253  25380895.4774                   25380897.8284
        36.0004         20.2504
 -16339223.44547 -12681708.10547  21832792.6254                   21832793.4574
        47.5004         46.0004
   3282808.44947   2569272.32845  21696219.8914                   21696219.1334
        46.5004         34.7504
  -4089032.58646  -4915132.76245  23380948.1174                   23380949.8054
        39.5004         31.7504
  -9181519.39148  -7107386.69148  21279171.8134                   21279171.7974
        49.7504         49.5004
 25  6 30 20 49  0.0000000  0  9G08G23G15G27G16G32G18G24G10
   8575387.38746   4130282.76645  23596396.3754                   23596397.6564
        40.7504         31.0004
   3789981.77747   2975167.08645  21263350.9694                   21263348.6374
        46.0004         35.5004
  15119498.63746  11796359.57445  24071642.5634                   24071643.0824
        40.0004         30.5004
 -12965823.34847 -10053889.54747  21594267.3204                   21594267.6174
        45.0004         43.0004
   9271454.23445   8185313.95742  25375540.7894                   25375544.0824
        35.7504         14.7504
 -16516494.29348 -12819841.14547  21799059.0164                   21799059.7664
        48.7504         47.2504
   3233240.57847   2530647.99645  21686787.3204                   21686786.2664
        46.5004         35.0004
  -4212343.85946  -5011219.41445  23357482.9384                   23357484.2504
        40.0004         31.5004
  -9295859.47348  -7196482.84848  21257413.5864                   21257413.4454
        49.5004         49.2504
 25  6 30 20 49 30.0000000  0  9G08G23G15G27G16G32G18G24G10
   8405822.55146   3998154.41045  23564128.5784                   23564131.4264
        39.5004         31.5004
   3733532.68847   2931180.78145  21252608.9454                   21252607.0084
        46.5004         35.5004
  15128568.36346  11803426.80945  24073368.7894                   24073369.6604
        39.5004         32.5004
 -13080012.79747 -10142868.32447  21572537.8054                   21572538.4384
        44.2504         43.0004
   9243381.87945   8163439.23042  25370198.4774                   25370202.7704
        35.5004         14.7504
 -16693353.81247 -12957653.68047  21765403.3524                   21765404.5164
        47.5004         47.0004
   3184046.33647   2492314.80145  21677425.9694                   21677424.4494
        46.5004         34.0004
  -4335088.97746  -5106864.91445  23334124.7344                   23334127.4804
        40.2504         32.2504
  -9409970.38348  -7285400.42648  21235698.9454                   21235699.1024
        49.0004         49.2504
 25  6 30 20 50  0.0000000  0  9G08G23G15G27G16G32G18G24G10
   8236713.77046   3866381.36745  23531948.5004                   23531951.3634
        39.5004         32.2504
   3677259.23047   2887331.30945  21241900.4844                   21241898.6254
        46.0004         35.0004
  15137810.96546  11810628.80944  24075128.2504                   24075126.7544
        39.5004         29.2504
 -13193570.16847 -10231354.58247  21550928.4774                   21550928.9454
        45.5004         44.5004
   9215379.59446   8141619.13742  25364869.4924                   25364873.6174
        36.0004         16.7504
 -16869793.70747 -13095139.22347  21731828.3984                   21731829.0864
        47.0004         47.0004
   3135232.21947   2454277.80945  21668136.7424                   21668135.3444
        46.5004         33.2504
  -4457259.54346  -5202062.72745  23310876.4924                   23310878.8594
        40.2504         31.2504
  -9523846.36348  -7374134.93048  21214029.0084                   21214029.2114
        49.0004         49.5004
 25  6 30 20 50 30.0000000  0  9G08G23G15G27G16G32G18G24G10
   8068062.71146   3734965.04345  23499856.0004                   23499858.4414
        40.2504         33.0004
   3621160.32447   2843617.88345  21231225.3054                   21231223.8594
        46.5004         35.5004
  15147223.80146  11817963.44944  24076918.8284                   24076918.0004
        37.7504         26.2504
 -13306495.41847 -10319348.27347  21529439.8204                   21529440.3284
        46.5004         46.5004
   9187444.10945   8119851.06642  25359553.0474                   25359558.0594
        34.2504         16.2504
 -17045812.52747 -13232296.69147  21698332.7194                   21698333.4774
        47.5004         46.7504
   3086798.08247   2416536.89145  21658920.4614                   21658918.5864
        46.5004         33.7504
  -4578854.14146  -5296811.72745  23287738.1334                   23287739.4454
        41.2504         32.0004
  -9637488.41448  -7462687.16048  21192403.5704                   21192403.4494
        48.7504         49.5004
 25  6 30 20 51  0.0000000  0  9G08G23G15G27G16G32G18G24G10
   7899872.92246   3603908.15245  23467849.7894                   23467852.2624
        38.7504         31.0004
   3565236.57447   2800040.93445  21220583.3674                   21220581.4574
        46.7504         34.7504
  15156805.70345  11825429.80944  24078740.9454                   24078741.9454
        34.0004         25.2504
 -13418786.91847 -10406848.14148  21508071.6094                   21508071.6724
        47.7504         48.0004
   9159574.12545   8098134.05142  25354249.9454                   25354255.2854
        33.7504         14.7504
 -17221407.05548 -13369123.52047  21664918.2974                   21664919.2074
        48.5004         46.7504
   3038745.36347   2379093.17645  21649775.9924                   21649774.6994
        47.0004         33.7504
  -4699869.67646  -5391109.52045  23264709.9384                   23264711.3324
        41.0004         31.5004
  -9750895.77748  -7551056.53148  21170822.6254                   21170822.7304
        50.0004         49.2504
 25  6 30 20 51 30.0000000  0  9G08G23G15G27G16G32G18G24G10
   7732145.59846   3473211.60545  23435932.5554                   23435934.1294
        39.2504         31.2504
   3509486.34847   2756599.18845  21209974.4774                   21209972.5514
        45.5004         35.2504
  15166552.84045  11833024.93044  24080596.0394                   24080598.5704
        32.7504         25.5004
 -13530445.26247 -10493854.62948  21486823.5864                   21486823.9734
        46.5004         48.0004
   9131765.85245   8076465.05942  25348959.8754                   25348963.5354
        34.2504         16.7504
 -17396576.44147 -13505619.07847  21631584.5474                   21631585.2704
        47.2504         46.2504
   2991073.16047   2341945.98045  21640704.5164                   21640703.3954
        45.7504         33.2504
  -4820305.26646  -5484955.40245  23241791.2114                   23241792.9774
        40.0004         31.5004
  -9864070.11348  -7639244.30548  21149286.7274                   21149286.5944
        48.5004         49.5004
 25  6 30 20 52  0.0000000  0  9G08G23G15G27G16G32G18G24G10
   7564882.94546   3342877.13345  23404103.3364                   23404104.7704
        40.7504         31.5004
   3453909.03147   2713292.17645  21199398.2424                   21199396.0744
        46.0004         34.5004
  15176463.06346  11840747.09444  24082483.5314                   24082484.4344
        36.5004         27.7504
 -13641470.04747 -10580367.43747  21465695.9384                   21465696.5634
        47.7504         47.2504
   9104016.22345   8054841.78943  25343678.2194                   25343682.6414
        34.7504         19.5004
 -17571318.78148 -13641781.85547  21598332.2504                   21598332.8204
        48.5004         45.5004
   2943781.67647   2305095.46145  21631705.2584                   21631704.1684
        45.7504         34.0004
  -4940159.04346  -5578347.94545  23218984.0634                   23218985.3404
        39.7504         30.2504
  -9977011.93448  -7727250.90648  21127794.5474                   21127794.0664
        49.7504         50.0004
 25  6 30 20 52 30.0000000  0  9G08G23G15G27G16G32G18G24G10
   7398084.77046   3212904.60245  23372362.2664                   23372363.5234
        40.7504         31.7504
   3398501.52047   2670117.49246  21188854.3524                   21188852.5634
        46.5004         36.0004
  15186531.27746  11848592.35944  24084398.8674                   24084400.0514
        38.0004         26.0004
 -13751863.36347 -10666388.19947  21444688.6174                   21444689.8244
        45.5004         46.0004
   9076320.35245   8033260.47743  25338408.2504                   25338411.8054
        34.0004         18.5004
 -17745634.60548 -13777612.28147  21565160.7504                   21565161.9024
        48.5004         46.2504
   2896868.69947   2268539.86345  21622777.8364                   21622777.0474
        45.5004         33.7504
  -5059431.66446  -5671287.63745  23196287.5084                   23196288.7894
        40.7504         30.7504
 -10089724.20348  -7815078.63348  21106346.0864                   21106345.8054
        49.2504         50.0004
 25  6 30 20 53  0.0000000  0  9G08G23G15G27G16G32G18G24G10
   7231756.44546   3083298.22745  23340710.6804                   23340711.8984
        40.2504         30.5004
   3343266.52347   2627077.24645  21178343.5634                   21178341.6094
        46.0004         35.0004
  15196758.58246  11856561.67244  24086344.1644                   24086344.2894
        36.2504         27.0004
 -13861621.60547 -10751914.08247  21423802.6024                   21423803.0274
        45.5004         43.7504
   9048679.02045   8011721.61743  25333148.2194                   25333152.2504
        33.2504         18.2504
 -17919518.82047 -13913106.39847  21532071.5234                   21532072.2424
        47.7504         46.0004
   2850337.65647   2232281.87145  21613923.2664                   21613922.0554
        46.2504         33.7504
  -5178118.12946  -5763770.55945  23173701.5864                   23173703.7344
        39.2504         30.2504
 -10202204.19148  -7902725.35948  21084941.7194                   21084941.5824
        49.7504         50.0004
 25  6 30 20 53 30.0000000  0  9G08G23G15G27G16G32G18G24G10
   7065897.32046   2954057.44945  23309149.0314                   23309151.3404
        39.7504         31.2504
   3288200.62947   2584168.73445  21167864.8054                   21167863.0864
        45.0004         34.0004
  15207139.55546  11864650.67244  24088319.9224                   24088320.2424
        37.5004         29.2504
 -13970747.26247 -10836947.05547  21403036.8444                   21403036.8164
        45.7504         42.7504
   9021086.05545   7990220.55542  25327897.7344                   25327902.3484
        33.7504         16.7504
 -18092972.43048 -14048264.97747  21499064.2584                   21499065.4614
        48.5004         47.5004
   2804185.79747   2196319.34845  21605141.1334                   21605139.6254
        46.0004         33.0004
  -5296219.43046  -5855797.50445  23151227.4144                   23151229.7154
        39.0004         31.5004
 -10314455.28548  -7990193.73048  21063581.0084                   21063580.8914
        49.2504         49.5004
 25  6 30 20 54  0.0000000  0  9G08G23G15G27G16G32G18G24G10
   8475935.63746   4052788.68445  23577469.7344                   23577473.1024
        40.5004         31.5004
   4808725.45747   3768993.27745  21457211.3364                   21457208.8244
        46.0004         33.5004
  16793091.77346  13100457.53545  24390117.0864                   24390117.7344
        38.7504         31.7504
 -12503816.08647  -9693883.77347  21682184.2894                   21682184.4614
        45.0004         42.5004
  10568960.57045   9196356.24642  25622448.2274                   25622453.7664
        34.5004         16.7504
 -16690567.31648 -12955481.71147  21765933.1644                   21765934.1134
        49.0004         47.5004
   4333835.28947   3388253.97745  21896223.6334                   21896221.7664
        45.2504         33.2504
  -3838309.47746  -4719763.74645  23428658.9304                   23428660.7624
        39.0004         31.0004
  -8851053.82448  -6849880.88748  21342056.9534                   21342056.9494
        50.0004         49.2504
 25  6 30 20 54 30.0000000  0  9G08G23G15G27G16G32G18G24G10
   8311024.23446   3924286.33245  23546088.9064                   23546091.0864
        39.5004         31.7504
   4753998.52747   3726348.91445  21446796.8054                   21446794.7704
        46.5004         34.7504
  16803775.54346  13108782.46145  24392151.4924                   24392151.5274
        40.5004         32.5004
 -12611673.23847  -9777928.28947  21661659.6174                   21661660.3484
        46.2504         44.0004
  10541459.37546   9174926.60542  25617215.3054                   25617219.3594
        36.7504         17.7504
 -16863151.46548 -13089962.80947  21733091.2734                   21733091.8594
        48.7504         47.2504
   4288444.93447   3352884.83245  21887586.1414                   21887584.4064
        45.2504         32.5004
  -3955232.60246  -4810872.63745  23406408.7894                   23406410.9884
        39.5004         32.0004
  -8962846.09448  -6936991.72348  21320783.5234                   21320783.6954
        49.5004         49.0004
 25  6 30 20 55  0.0000000  0  9G08G23G15G27G16G32G18G24G10
   8146588.92646   3796154.99245  23514798.5314                   23514800.0474
        41.2504         34.0004
   4699439.25847   3683835.21145  21436415.0234                   21436413.4494
        46.2504         35.0004
  16814606.19546  13117221.85945  24394211.9144                   24394211.9454
        39.5004         32.2504
 -12718896.76247  -9861479.07447  21641255.8594                   21641256.3594
        46.0004         46.2504
  10513999.32846   9153529.01242  25611989.8204                   25611993.8914
        37.2504         16.2504
 -17035299.12548 -13224103.77747  21700333.0164                   21700333.5514
        48.7504         47.0004
   4243434.51647   3317811.75045  21879020.6804                   21879019.5704
        43.7504         33.0004
  -4071565.01246  -4901521.25845  23384271.9614                   23384273.6954
        39.5004         32.0004
  -9074410.70348  -7023925.16848  21299553.6954                   21299553.3554
        49.2504         49.0004
 25  6 30 20 55 30.0000000  0  8G08G23G15G27G32G18G24G10
   7982628.80146   3668393.91445  23483596.7894                   23483599.0044
        40.2504         33.0004
   4645044.07447   3641449.34445  21426063.9774                   21426061.8714
        46.5004         35.5004
  16825578.18046  13125771.38345  24396299.2974                   24396300.4414
        38.5004         32.5004
 -12825489.42648  -9944538.28147  21620971.9614                   21620972.1414
        48.2504         47.7504
 -17207011.50048 -13357905.57447  21667657.1414                   21667657.6024
        49.2504         47.0004
   4198801.21147   3283032.51645  21870527.4614                   21870526.4144
        44.7504         33.2504
  -4187308.03146  -4991710.59845  23362246.6564                   23362248.5514
        39.5004         32.7504
  -9185751.23448  -7110684.01248  21278365.9304                   21278366.0514
        51.0004         49.0004
 25  6 30 20 56  0.0000000  0  8G08G23G15G27G32G18G24G10
   7819151.51246   3541009.06645  23452488.2194                   23452489.4574
        39.5004         32.0004
   4590817.82447   3599195.11745  21415744.9534                   21415742.9574
        45.7504         35.2504
  16836694.88746  13134433.64545  24398415.2664                   24398415.5634
        37.2504         31.0004
 -12931445.63748 -10027101.56648  21600809.3834                   21600809.8284
        48.2504         48.2504
 -17378281.39148 -13491362.55547  21635065.4844                   21635066.2934
        49.7504         46.5004
   4154550.47347   3248551.38345  21862107.2894                   21862105.7894
        44.5004         33.0004
  -4302454.68446  -5081435.21945  23340334.4534                   23340336.6414
        39.5004         32.2504
  -9296862.75048  -7197264.39148  21257222.1334                   21257222.2464
        49.5004         49.0004
 25  6 30 20 56 30.0000000  0  8G08G23G15G27G32G18G24G10
   7656162.46146   3414004.68045  23421472.4534                   23421474.2274
        39.5004         32.0004
   4536763.49647   3557074.85245  21405458.5394                   21405456.5984
        46.2504         34.2504
  16847957.29745  13143209.46544  24400557.7664                   24400557.6954
        34.5004         27.7504
 -13036761.69948 -10109166.02348  21580768.3674                   21580768.8554
        48.7504         48.2504
 -17549103.50048 -13624470.61347  21602559.1254                   21602559.7544
        49.5004         46.5004
   4110686.00447   3214371.24645  21853760.3674                   21853758.5204
        45.2504         33.2504
  -4416999.71146  -5170691.05945  23318538.5164                   23318539.4384
        39.5004         32.0004
  -9407742.20348  -7283663.94148  21236122.7814                   21236122.7464
        51.0004         49.5004
 25  6 30 20 57  0.0000000  0  8G08G23G15G27G32G18G24G10
   7493667.71946   3287385.46545  23390550.6954                   23390552.3444
        39.7504         32.7504
   4482884.35547   3515091.10545  21395206.0004                   21395204.0704
        46.2504         34.5004
  16859367.14145  13152100.14144  24402727.9694                   24402729.1294
        33.2504         26.7504
 -13141433.73448 -10190728.65647  21560849.9534                   21560850.3914
        48.0004         47.2504
 -17719472.27048 -13757225.42647  21570138.9304                   21570139.4104
        49.7504         46.7504
   4067211.57847   3180495.04745  21845487.0944                   21845485.5824
        45.0004         32.5004
  -4530937.75046  -5259473.90245  23296855.8834                   23296857.5084
        39.5004         31.5004
  -9518386.35548  -7369880.14848  21215068.1334                   21215067.9414
        50.7504         49.7504
 25  6 30 20 57 30.0000000  0  8G08G23G15G27G32G18G24G10
   7331666.45746   3161150.80145  23359723.0314                   23359725.3404
        41.5004         33.7504
   4429176.96547   3473241.18045  21384986.0634                   21384983.6294
        46.7504         35.5004
  16870918.58255  13161101.21954  24404927.4614                   24404927.6454
        30.0004         24.7504
 -13245464.44547 -10271791.55947  21541053.1484                   21541053.9064
        46.5004         45.5004
 -17889388.83648 -13889627.89147  21537804.8834                   21537804.8364
        50.0004         47.2504
   4024124.41847   3146920.60545  21837287.8754                   21837286.4614
        45.5004         33.0004
  -4644270.14546  -5347784.81245  23275289.1414                   23275291.2114
        38.0004         31.2504
  -9628798.61748  -7455915.65648  21194057.2274                   21194056.9304
        49.7504         49.7504
 25  6 30 20 58  0.0000000  0  8G08G23G15G27G32G18G24G10
   7170158.93846   3035300.82845  23328988.9924                   23328991.2774
        40.5004         33.2504
   4375638.91847   3431523.21945  21374797.7194                   21374796.0704
        46.2504         35.0004
                                  24407150.2274                   24407151.7274
        27.5004         21.7504
 -13348855.61747 -10352356.11347  21521378.4844                   21521379.0044
        45.7504         44.5004
 -18058853.26648 -14021678.04347  21505556.8444                   21505557.0664
        49.7504         47.2504
   3981422.78947   3113646.57445  21829162.3134                   21829160.9264
        45.5004         33.0004
  -4756997.10546  -5435623.95345  23253838.5474                   23253839.7194
        38.2504         31.7504
  -9738981.30548  -7541772.27348  21173090.0004                   21173089.6804
        49.5004         49.7504
 25  6 30 20 58 30.0000000  0  7G08G23G27G32G18G24G10
   7009143.17646   2909834.00045  23298348.4924                   23298350.4264
        41.0004         33.5004
   4322265.78147   3389933.74645  21364640.7504                   21364639.6214
        46.0004         35.0004
 -13451611.20747 -10432425.39847  21501825.2814                   21501824.8014
        44.5004         43.2504
 -18227867.89548 -14153377.68747  21473394.4144                   21473394.9694
        49.5004         47.5004
   3939102.71947   3080669.84845  21821108.8444                   21821107.5354
        45.2504         32.5004
  -4869121.11746  -5522993.27345  23232501.8594                   23232503.4104
        39.7504         33.0004
  -9848938.89548  -7627453.49248  21152165.3914                   21152165.5984
        50.0004         49.7504
 25  6 30 20 59  0.0000000  0  8G08G23G15G27G32G18G24G10
   6848621.57046   2784752.25845  23267802.9064                   23267803.6914
        40.0004         31.7504
   4269057.52747   3348472.76245  21354515.6484                   21354513.9694
        46.7504         34.0004
  22060483.45716                  24411675.953
        36.500
 -13553730.71947 -10511999.03947  21482392.3204                   21482392.1804
        45.2504         43.7504
 -18396430.50448 -14284725.11347  21441317.5864                   21441318.4734
        49.5004         47.5004
   3897164.68447   3047990.82445  21813128.5084                   21813127.2304
        45.5004         33.7504
  -4980640.24246  -5609891.24245  23211280.2814                   23211281.7584
        38.2504         31.7504
  -9958671.44548  -7712959.35948  21131284.2114                   21131284.0984
        50.2504         49.2504
 25  6 30 20 59 30.0000000  0  8G08G23G15G27G32G18G24G10
   6688592.94546   2660054.69945  23237350.0234                   23237350.7464
        40.5004         32.2504
   4216010.08247   3307137.07845  21344421.6174                   21344419.6604
        47.0004         35.0004
  22072557.14556  13181938.96554  24413973.4064                   24413972.7504
        37.5004         27.7504
 -13655217.63747 -10591079.72347  21463079.7344                   21463080.2464
        47.7504         44.0004
 -18564542.85548 -14415721.69147  21409327.0314                   21409327.4574
        49.5004         47.5004
   3855605.31347   3015606.87945  21805220.1564                   21805218.7664
        45.2504         33.5004
  -5091556.46146  -5696319.42245  23190173.0704                   23190175.2304
        38.0004         31.5004
 -10068182.92248  -7798292.95348  21110444.7424                   21110445.1094
        50.0004         49.2504
 25  6 30 21  0  0.0000000  0  8G08G23G15G27G32G18G24G10
   6529058.94946   2535742.59845  23206991.9924                   23206992.5904
        41.2504         33.0004
   4163122.78547   3265926.18845  21334357.6094                   21334355.5594
        47.0004         34.5004
  22084752.24246  13191441.58244  24416293.5944                   24416293.3164
        38.0004         25.7504
 -13756072.21148 -10669667.67247  21443888.1644                   21443888.2734
        48.0004         45.2504
 -18732203.54748 -14546366.32848  21377421.9924                   21377422.4574
        48.7504         48.0004
   3814424.31647   2983517.76645  21797383.1024                   21797381.9574
        44.5004         32.7504
  -5201868.52346  -5782276.81645  23169181.8914                   23169183.1644
        38.2504         31.5004
 -10177474.06248  -7883454.85548  21089647.5084                   21089647.4774
        49.0004         49.0004
 25  6 30 21  0 30.0000000  0  8G08G23G15G27G32G18G24G10
   6370021.59046   2411817.42645  23176728.2034                   23176729.7274
        41.7504         35.5004
   4110395.22347   3224839.78145  21324323.2974                   21324321.5784
        46.5004         34.7504
  22097066.53156  13201037.11354  24418637.1884                   24418637.6414
        37.5004         25.2504
 -13856294.44947 -10747762.90247  21424816.6484                   21424817.0474
        46.7504         45.7504
 -18899410.84048 -14676657.66847  21345603.6644                   21345603.9964
        49.0004         47.5004
   3773621.76247   2951723.54745  21789618.6414                   21789617.8364
        45.0004         33.5004
  -5311574.89846  -5867762.25445  23148305.2194                   23148307.0824
        39.7504         32.5004
 -10286545.24648  -7968445.37148  21068891.9454                   21068891.8054
        49.5004         49.0004
 25  6 30 21  1  0.0000000  0  8G08G23G15G27G32G18G24G10
   6211482.76647   2288280.71946  23146559.2274                   23146561.7664
        42.0004         36.2504
   4057826.75847   3183877.33645  21314320.4384                   21314317.9804
        47.0004         34.0004
  22109497.34046  13210723.47344  24421002.2114                   24421003.4534
        40.7504         24.0004
 -13955884.46947 -10825365.50047  21405864.9694                   21405865.3244
        47.2504         46.2504
 -19066163.16848 -14806594.49247  21313871.7734                   21313872.0704
        48.0004         47.2504
   3733197.59047   2920224.15245  21781926.9614                   21781925.0044
        46.0004         33.2504
  -5420674.35246  -5952774.78145  23127544.3834                   23127545.8284
        39.0004         33.0004
 -10395397.14548  -8053265.02348  21048178.1174                   21048177.8014
        49.7504         49.2504
 25  6 30 21  1 30.0000000  0  8G08G23G15G27G32G18G24G10
   6053444.90646   2165134.35545  23116484.5634                   23116487.8714
        39.2504         34.2504
   4005417.34447   3143038.81645  21304347.1724                   21304345.2114
        47.0004         34.0004
  22122042.85246  13220499.27043  24423390.3594                   24423390.7074
        39.7504         22.7504
 -14054842.04347 -10902475.28547  21387033.9224                   21387034.2774
        46.2504         46.0004
 -19232458.51247 -14936175.22347  21282226.7194                   21282227.5514
        47.7504         47.5004
   3693152.19947   2889019.91045  21774306.5944                   21774304.4884
        44.7504         33.2504
  -5529165.07046  -6037312.95745  23106899.3834                   23106900.9884
        39.2504         33.2504
 -10504029.75048  -8137913.78948  21027506.0704                   21027505.7894
        50.0004         49.2504
 25  6 30 21  2  0.0000000  0  8G08G23G15G27G32G18G24G10
   7471336.67446   3269985.11345  23386300.5784                   23386303.3244
        39.5004         33.2504
   5528589.78548   4329926.44545  21594197.1334                   21594195.5124
        48.0004         35.0004
  23710122.12146  14457963.64544  24725591.2734                   24725593.6804
        40.0004         27.7504
 -12577742.42647  -9751488.59047  21668116.6024                   21668116.8984
        44.7504         45.7504
 -17822868.18748 -13837793.08648  21550462.5164                   21550463.7034
        48.0004         48.0004
   5228908.37947   4085713.00845  22066551.1644                   22066548.9654
        45.7504         33.2504
  -4061620.59446  -4893771.75445  23386163.8364                   23386165.4494
        38.2504         32.5004
  -9037018.42248  -6994788.05548  21306668.7034                   21306668.5234
        49.7504         49.2504
 25  6 30 21  2 30.0000000  0  8G08G23G15G27G32G18G24G10
   7314307.81646   3147625.02045  23356419.2974                   23356421.0204
        41.5004         35.0004
   5476498.42647   4289335.75845  21584284.2424                   21584282.8714
        47.2504         34.5004
  23722892.08646  14467914.19544  24728021.5004                   24728022.6684
        39.0004         28.2504
 -12675434.05947  -9827611.96947  21649526.3134                   21649527.1134
        44.0004         44.7504
 -17988243.38348 -13966656.82047  21518992.9614                   21518993.3054
        49.5004         47.7504
   5189621.71547   4055099.98045  22059075.1254                   22059073.2384
        44.7504         33.5004
  -4168888.50846  -4977357.11745  23365751.2034                   23365752.4064
        39.0004         32.2504
  -9145212.64148  -7079095.22348  21286080.2034                   21286079.9494
        49.7504         49.0004
 25  6 30 21  3  0.0000000  0  8G08G23G15G27G32G18G24G10
   7157783.67646   3025658.23045  23326634.0864                   23326635.1644
        40.0004         33.0004
   5424562.70747   4248866.36745  21574401.0634                   21574399.3754
        46.7504         34.2504
  23735768.23446  14477947.39844  24730472.0554                   24730473.3404
        38.5004         29.2504
 -12772495.70347  -9903244.43747  21631056.0164                   21631056.5784
        44.5004         45.0004
 -18153158.81648 -14095162.28148  21487610.8524                   21487610.9654
        49.5004         48.5004
   5150711.69947   4024780.46145  22051670.5004                   22051669.4264
        45.0004         33.0004
  -4275545.72346  -5060466.59045  23345454.9454                   23345456.0904
        40.7504         32.2504
  -9253190.95748  -7163234.15648  21265532.7734                   21265532.4574
        50.0004         50.0004
 25  6 30 21  3 30.0000000  0  8G08G23G15G27G32G18G24G10
   7001769.06646   2904088.44945  23296944.4304                   23296946.3404
        40.5004         32.2504
   5372785.08247   4208520.14845  21564547.9844                   21564546.7344
        46.5004         34.0004
  23748751.04346  14488063.88745  24732942.5944                   24732943.5704
        37.2504         30.0004
 -12868924.69547  -9978383.93047  21612707.0234                   21612706.6804
        46.0004         46.0004
 -18317610.02048 -14223306.02048  21456316.6094                   21456316.6134
        49.0004         48.5004
   5112181.05147   3994756.55545  22044338.4304                   22044337.3204
        44.2504         33.7504
  -4381588.16046  -5143097.01645  23325275.5164                   23325277.0704
        39.5004         33.0004
  -9360951.09448  -7247203.08248  21245026.1254                   21245026.2154
        49.7504         49.7504
 25  6 30 21  4  0.0000000  0  8G08G23G15G27G32G18G24G10
   6846260.94146   2782913.33245  23267352.2274                   23267353.9884
        39.5004         32.5004
   5321160.17247   4168292.94145  21554724.8364                   21554722.6094
        47.0004         33.2504
  23761833.22346  14498257.77044  24735432.3754                   24735433.6684
        37.0004         29.2504
 -12964726.21947 -10053034.47347  21594476.0394                   21594476.6024
        47.0004         46.7504
 -18481600.39847 -14351090.68748  21425109.9454                   21425110.8874
        47.7504         48.5004
   5074024.82447   3965024.39545  22037077.6024                   22037076.4414
        44.5004         33.2504
  -4487019.44146  -5225251.20745  23305213.0784                   23305214.0704
        38.2504         32.5004
  -9468498.40648  -7331006.16048  21224560.7734                   21224560.5904
        49.2504         49.7504
 25  6 30 21  4 30.0000000  0  8G08G23G15G27G32G18G24G10
   6691265.81646   2662137.98445  23237857.9694                   23237858.8014
        40.5004         33.2504
   5269692.22347   4128188.04345  21544930.4144                   21544928.2154
        46.5004         33.2504
  23775017.40255  14508531.13754  24737941.8524                   24737942.7344
        34.5004         27.0004
 -13059895.77348 -10127192.58247  21576365.7664                   21576366.2974
        48.5004         47.5004
 -18645123.67248 -14478511.37548  21393992.5314                   21393993.3324
        48.7504         48.7504
   5036247.65647   3935587.59445  22029888.8754                   22029887.9264
        44.2504         33.0004
  -4591833.64546  -5306924.59845  23285267.5474                   23285268.1804
        38.2504         31.5004
  -9575828.64848  -7414640.09848  21204136.8524                   21204136.9184
        49.5004         50.0004
 25  6 30 21  5  0.0000000  0  8G08G23G15G27G32G18G24G10
   6536785.02746   2541763.39545  23208461.0864                   23208462.8984
        40.7504         34.2504
   5218380.21947   4088204.66445  21535165.8524                   21535163.8834
        47.0004         34.5004
  23788302.99255  14516952.87954  24740469.2894                   24740469.8874
        32.0004         25.2504
 -13154434.34048 -10200858.99247  21558376.2974                   21558376.4654
        49.0004         47.7504
 -18808178.96948 -14605567.39848  21362964.4614                   21362964.5984
        48.5004         48.7504
   4998848.80147   3906445.58245  22022772.4144                   22022770.5634
        44.0004         32.2504
  -4696030.16846  -5388116.66445  23265438.6954                   23265440.9924
        39.5004         32.7504
  -9682942.86348  -7498105.70748  21183753.3984                   21183753.5474
        50.0004         50.0004
 25  6 30 21  5 30.0000000  0  8G08G23G15G27G32G18G24G10
   6382819.32046   2421790.14845  23179162.3054                   23179164.4804
        40.2504         33.7504
   5167222.77347   4048341.71945  21525431.0784                   21525429.6604
        46.5004         34.0004
  23801682.35555  14527378.24254  24743015.7504                   24743016.1524
        33.0004         25.7504
 -13248343.20348 -10274034.72347  21540506.0164                   21540505.8874
        48.5004         47.5004
 -18970765.78948 -14732258.37148  21332024.7584                   21332025.6024
        49.7504         49.0004
   4961827.16447   3877597.51245  22015727.1954                   22015726.0474
        43.5004         32.0004
  -4799608.96146  -5468827.40245  23245729.3444                   23245730.6884
        39.0004         33.5004
  -9789842.52748  -7581404.12948  21163411.2034                   21163411.2304
        51.0004         49.7504
 25  6 30 21  6  0.0000000  0  8G08G23G15G27G32G18G24G10
   6229368.49646   2302218.12145  23149961.4534                   23149963.0634
        40.2504         33.5004
   5116217.30547   4008597.18445  21515724.8754                   21515723.6414
        46.7504         33.0004
  23815153.60255  14537875.23854  24745578.7114                   24745579.6094
        34.7504         26.2504
 -13341624.75048 -10346721.62547  21522754.9064                   21522754.8444
        49.7504         47.0004
 -19132884.68448 -14858584.71948  21301174.5164                   21301174.9654
        49.5004         49.0004
   4925180.50847   3849041.63745  22008753.6334                   22008752.2734
        43.5004         31.2504
  -4902570.82846  -5549057.40245  23226136.3674                   23226137.0514
        39.2504         32.5004
  -9896530.19548  -7664537.35948  21143108.7734                   21143108.9694
        50.2504         49.5004
 25  6 30 21  6 30.0000000  0  7G08G23G27G32G18G24G10
   6076436.91846   2183050.73045  23120859.0864                   23120861.2034
        40.0004         33.2504
   5065366.02747   3968972.80945  21506048.4454                   21506046.7074
        47.0004         33.7504
 -13434276.80148 -10418918.00847  21505123.7194                   21505123.4414
        49.5004         46.2504
 -19294531.64848 -14984543.33648  21270414.2814                   21270414.3054
        49.2504         48.7504
   4888911.32047   3820779.89145  22001852.3914                   22001850.4224
        45.0004         32.2504
  -5004912.12546  -5628803.85545  23206660.7584                   23206662.3204
        39.0004         31.7504
 -10003003.70748  -7747503.72748  21122847.6724                   21122847.8794
        50.7504         50.0004
 25  6 30 21  7  0.0000000  0  7G08G23G27G32G18G24G10
   5924024.41846   2064287.80145  23091856.7734                   23091858.3954
        39.5004         33.0004
   5014666.64147   3929466.77045  21496400.7114                   21496398.5634
        47.0004         34.0004
 -13526301.67648 -10490625.68747  21487612.2974                   21487612.4964
        49.0004         45.7504
 -19455707.12548 -15110134.56248  21239743.5164                   21239743.9144
        50.2504         49.0004
   4853017.52747   3792810.64845  21995021.1174                   21995020.4064
        45.5004         32.0004
  -5106633.69546  -5708067.40645  23187304.1564                   23187305.3484
        39.5004         32.0004
 -10109265.43448  -7830305.05948  21102626.7584                   21102626.9414
        51.5004         50.2504
 25  6 30 21  7 30.0000000  0  7G08G23G27G32G18G24G10
   5772138.58246   1945935.25845  23062953.0864                   23062955.3134
        39.0004         33.2504
   4964124.52047   3890083.28945  21486782.9224                   21486781.4924
        47.0004         34.5004
 -13617693.99647 -10561840.48847  21470220.2734                   21470220.5084
        47.5004         45.0004
 -19616403.89848 -15235352.77748  21209163.8594                   21209164.1884
        50.0004         48.7504
   4817504.73047   3765138.29345  21988263.3054                   21988262.0944
        46.0004         32.0004
  -5207728.75446  -5786842.74245  23168066.5554                   23168068.3484
        40.0004         32.7504
 -10215310.09448  -7912937.23448  21082447.0944                   21082447.4614
        50.7504         50.2504
 25  6 30 21  8  0.0000000  0  7G08G23G27G32G18G24G10
   5620788.87946   1828000.45345  23034152.1884                   23034154.0554
        40.2504         34.0004
   4913746.99247   3850828.06345  21477196.6024                   21477194.4454
        47.2504         34.0004
 -13708446.56647 -10632556.77347  21452950.7814                   21452950.7854
        47.7504         44.2504
 -19776612.86348 -15360190.86748  21178677.2034                   21178677.1024
        50.7504         49.2504
   4782380.47347   3737768.70345  21981580.0784                   21981578.7774
        45.2504         31.7504
  -5308188.56246  -5865123.09845  23148949.8524                   23148951.1844
        40.5004         33.0004
 -10321130.35948  -7995394.55548  21062310.4454                   21062310.1094
        50.2504         50.0004
 25  6 30 21  8 30.0000000  0  7G08G23G27G32G18G24G10
   5469966.63346   1710476.69545  23005452.2424                   23005454.0164
        40.7504         34.5004
   4863523.30547   3811692.71545  21467638.8914                   21467637.1294
        47.0004         33.5004
 -13798570.10547 -10702782.91847  21435800.5784                   21435801.0744
        46.5004         44.0004
 -19936342.94548 -15484655.79348  21148281.5704                   21148281.8794
        51.0004         49.5004
   4747634.21147   3710693.65645  21974968.0084                   21974966.9654
        46.0004         32.5004
  -5408022.37146  -5942915.65245  23129951.3054                   23129953.4344
        39.5004         32.5004
 -10426736.99248  -8077685.43448  21042214.3054                   21042213.6914
        52.2504         49.5004
 25  6 30 21  9  0.0000000  0  7G08G23G27G32G18G24G10
   5319674.22346   1593365.81345  22976853.2814                   22976854.6254
        41.5004         35.7504
   4813453.73847   3772677.46545  21458111.2894                   21458109.6764
        47.2504         34.0004
 -13888064.55147 -10772518.85547  21418771.1484                   21418770.9454
        45.5004         44.0004
 -20095592.11748 -15608746.01648  21117977.4454                   21117977.2734
        51.2504         49.2504
   4713266.41447   3683913.50045  21968427.8984                   21968426.9224
        45.5004         30.7504
  -5507228.63746  -6020219.23045  23111073.6644                   23111075.3594
        39.7504         32.5004
 -10532129.82448  -8159809.69148  21022158.4384                   21022158.4104
        51.0004         49.7504
 25  6 30 21  9 30.0000000  0  7G08G23G27G32G18G24G10
   6745334.59046   2704270.07845  23248146.5944                   23248148.0434
        41.2504         34.0004
   6338955.76248   4961380.33245  21748404.7274                   21748403.3984
        48.0004         35.0004
 -12401511.22747  -9614165.64547  21701652.4304                   21701653.1454
        46.2504         44.0004
 -18678937.50848 -14504859.25048  21387557.7664                   21387558.2194
        51.0004         49.5004
   6254694.15647   4885025.98845  22261752.3284                   22261750.6954
        45.7504         31.0004
  -4030386.93746  -4869433.46545  23392106.8364                   23392108.6524
        41.0004         31.7504
  -9061889.59848  -7014167.94148  21301935.8984                   21301935.6604
        51.0004         50.0004
 25  6 30 21 10  0.0000000  0  7G08G23G27G32G18G24G10
   6596097.46946   2587981.46145  23219747.9614                   23219749.1094
        41.7504         33.5004
   6289183.83248   4922596.99245  21738933.3674                   21738931.9064
        48.0004         35.0004
 -12489758.62147  -9682929.86347  21684859.7974                   21684859.7344
        46.2504         44.7504
 -18837230.32448 -14628204.24648  21357435.3594                   21357435.7154
        49.7504         49.2504
   6221073.00847   4858827.65645  22255354.4694                   22255352.6484
        44.5004         31.2504
  -4128344.85946  -4945764.30545  23373466.1644                   23373467.0474
        39.7504         32.0004
  -9166865.64148  -7095967.44548  21281959.4144                   21281959.2814
        52.0004         49.5004
 25  6 30 21 10 30.0000000  0  7G08G23G27G32G18G24G10
   6447387.26646   2472103.45345  23191449.2734                   23191450.6804
        41.7504         34.5004
   6239556.96947   4883926.69145  21729489.8674                   21729487.8244
        47.2504         34.5004
 -12577386.51247  -9751211.35247  21668184.1174                   21668184.3594
        46.5004         45.2504
 -18995046.07848 -14751177.52048  21327403.9774                   21327404.5164
        49.7504         49.0004
   6187821.80547   4832917.57845  22249026.7344                   22249025.0944
        45.0004         31.2504
  -4225680.41446  -5021610.19945  23354943.2114                   23354945.5944
        40.5004         32.0004
  -9271637.06648  -7177607.52048  21262022.4064                   21262021.8324
        51.2504         49.0004
 25  6 30 21 11  0.0000000  0  7G08G23G27G32G18G24G10
   6299207.65646   2356638.87145  23163250.7734                   23163253.5744
        41.2504         35.0004
   6190076.85247   4845370.74645  21720073.7894                   21720072.0124
        47.5004         34.2504
 -12664393.48447  -9819009.00447  21651627.3134                   21651628.0474
        47.5004         46.0004
 -19152381.51248 -14873776.51648  21297464.1804                   21297464.1994
        50.2504         49.0004
   6154942.16047   4807297.04345  22242770.3674                   22242768.2424
        45.0004         30.7504
  -4322390.84046  -5096968.94545  23336540.8594                   23336542.1644
        40.5004         32.0004
  -9376202.32848  -7259086.93748  21242124.1254                   21242123.5394
        51.2504         48.7504
 25  6 30 21 11 30.0000000  0  7G08G23G27G32G18G24G10
   6151560.98846   2241589.57045  23135154.9534                   23135157.1564
        41.2504         35.0004
   6140743.90247   4806929.47745  21710686.2974                   21710684.5944
        47.2504         33.2504
 -12750779.48048  -9886322.78147  21635188.7664                   21635189.4734
        48.0004         46.7504
 -19309234.55148 -14995999.60548  21267616.1334                   21267616.2034
        50.5004         49.0004
   6122434.60247   4781966.42645  22236584.0314                   22236582.4694
        45.5004         31.5004
  -4418474.43746  -5171839.25845  23318256.1564                   23318257.4494
        41.0004         33.0004
  -9480561.08648  -7340405.43748  21222265.1724                   21222265.0514
        49.2504         48.5004
 25  6 30 21 12  0.0000000  0  7G08G23G27G32G18G24G10
   6004445.75846   2126954.35946  23107160.1174                   23107161.5124
        41.2504         36.0004
   6091554.60547   4768600.14545  21701325.9224                   21701323.3794
        47.5004         33.5004
 -12836548.26248  -9953155.60247  21618867.9304                   21618868.0784
        48.5004         47.0004
 -19465607.10248 -15117848.28548  21237859.1804                   21237859.3094
        51.0004         48.7504
   6090295.71547   4756923.10245  22230468.2664                   22230466.7734
        45.7504         32.5004
  -4513933.60946  -5246223.01245  23300091.5314                   23300092.6374
        39.7504         32.2504
  -9584716.88348  -7421565.78548  21202445.1644                   21202445.1994
        50.5004         48.5004
 25  6 30 21 12 30.0000000  0  7G08G23G27G32G18G24G10
   5857864.45347   2012735.20345  23079266.9534                   23079268.1294
        42.5004         35.5004
   6042509.63747   4730383.26645  21691992.5634                   21691991.0204
        47.2504         33.5004
 -12921699.59448 -10019507.29747  21602663.6484                   21602664.1954
        48.7504         47.0004
 -19621496.87948 -15239320.80148  21208194.4304                   21208194.4024
        50.7504         48.5004
   6058526.18847   4732167.59845  22224422.9144                   22224421.9264
        45.7504         31.5004
  -4608766.55546  -5320118.80945  23282045.0164                   23282046.4064
        40.2504         33.2504
  -9688669.12548  -7502567.50848  21182663.6954                   21182663.0594
        51.0004         48.7504
 25  6 30 21 13  0.0000000  0  7G08G23G27G32G18G24G10
   5711816.62947   1898931.74645  23051474.4304                   23051476.2584
        42.2504         35.5004
   5993606.62947   4692277.01245  21682686.8984                   21682685.2934
        47.5004         34.2504
 -13006236.13748 -10085379.93447  21586577.2114                   21586577.0514
        49.5004         47.5004
 -19776904.66048 -15360417.71548  21178621.0554                   21178621.2074
        50.7504         49.0004
   6027123.72747   4707698.08245  22218446.6564                   22218445.7424
        45.0004         32.2504
  -4702974.57046  -5393527.64845  23264118.2974                   23264119.5704
        40.7504         33.2504
  -9792420.33648  -7583412.60548  21162920.2814                   21162920.2774
        50.0004         49.0004
 25  6 30 21 13 30.0000000  0  7G08G23G27G32G18G24G10
   5566305.12547   1785546.19545  23023784.8914                   23023786.1844
        42.2504         35.5004
   5944846.45747   4654282.05545  21673407.9694                   21673406.7894
        46.5004         33.5004
 -13090157.49248 -10150773.19947  21570607.3754                   21570607.6414
        49.2504         47.0004
 -19931828.03548 -15481137.18448  21149140.6484                   21149140.4304
        50.5004         49.5004
   5996089.16047   4683515.25845  22212541.2194                   22212540.2544
        45.0004         31.5004
  -4796555.75846  -5466448.03945  23246310.1024                   23246311.4884
        40.2504         33.2504
  -9895969.58248  -7664100.32048  21143215.7584                   21143215.6844
        50.0004         49.0004
 25  6 30 21 14  0.0000000  0  7G08G23G27G32G18G24G10
   5421331.29746   1672579.62945  22996196.5634                   22996198.1414
        41.5004         35.5004
   5896228.84047   4616398.17645  21664156.8284                   21664154.8404
        47.2504         33.2504
 -13173464.45348 -10215687.72347  21554754.7894                   21554755.0514
        49.0004         46.7504
 -20086265.84848 -15601478.28948  21119751.5554                   21119751.8094
        50.0004         49.5004
   5965422.20747   4659618.89545  22206705.6174                   22206704.6294
        44.2504         32.0004
  -4889509.51646  -5538879.53545  23228621.7424                   23228622.3284
        41.0004         33.5004
  -9999317.40248  -7744631.07048  21123549.1564                   21123549.1094
        49.5004         49.5004
 25  6 30 21 14 30.0000000  0  8G08G23G02G27G32G18G24G10
   5276893.70746   1560030.89145  22968711.3524                   22968712.3204
        41.2504         35.2504
   5847750.33247   4578622.70745  21654931.4534                   21654929.7624
        47.5004         33.7504
  24763849.36756  19341609.79352  25376415.0314                   25376412.1684
        36.7504         16.7504
 -13256160.84848 -10280126.46947  21539018.0394                   21539018.1414
        48.5004         46.2504
 -20240219.91848 -15721442.44948  21090454.8914                   21090455.3014
        50.0004         49.5004
   5935119.43447   4636006.29345  22200939.0944                   22200938.0004
        44.5004         32.0004
  -4981838.16846  -5610823.92245  23211051.8594                   23211052.7384
        40.5004         32.5004
 -10102467.14548  -7825007.49248  21103920.1564                   21103920.3094
        50.2504         49.7504
 25  6 30 21 15  0.0000000  0  8G08G23G02G27G32G18G24G10
   5132984.60946   1447893.96545  22941326.8594                   22941327.5514
        41.7504         35.2504
   5799401.46947   4540948.27045  21645730.8444                   21645729.3954
        46.0004         33.5004
  24575060.57845  19194501.77743  25340487.7424                   25340487.5984
        34.5004         18.2504
 -13338256.71548 -10344097.28147  21523395.6334                   21523395.8404
        48.5004         45.5004
 -20393698.26648 -15841035.93048  21061249.0394                   21061249.1414
        50.0004         49.7504
   5905171.30947   4612670.05545  22195240.3914                   22195239.6484
        44.5004         30.5004
  -5073550.34846  -5682287.91845  23193598.6094                   23193600.6484
        39.7504         34.0004
 -10205428.48048  -7905237.07848  21084327.5164                   21084327.3954
        50.7504         49.7504
