     2.11           OBSERVATION DATA    G (GPS)             RINEX VERSION / TYPE
teqc  2019Feb25                         20250821 09:31:16UTCPGM / RUN BY / DATE
Linux 2.6.32-573.12.1.x86_64|x86_64|gcc -static|Linux 64|=+ COMMENT
BIT 2 OF LLI FLAGS DATA COLLECTED UNDER A/S CONDITION       COMMENT
35163190                                                    MARKER NAME
3190                                                        MARKER NUMBER
-Unknown-           -Unknown-                               OBSERVER / AGENCY
0220413516          TRIMBLE R7          2.32                REC # / TYPE / VERS
-Unknown-           TRM39105.00     NONE                    ANT # / TYPE
 -2433061.9768 -4666214.6503  3593449.6130                  APPROX POSITION XYZ
        0.0000        0.0000        0.0000                  ANTENNA: DELTA H/E/N
     1     1                                                WAVELENGTH FACT L1/2
     7    L1    L2    C1    P1    P2    S1    S2            # / TYPES OF OBSERV
    18                                                      LEAP SECONDS
 SNR is mapped to RINEX snr flag value [0-9]                COMMENT
  L1 & L2: min(max(int(snr_dBHz/6), 0), 9)                  COMMENT
  2025     7     1     0     0   30.0000000     GPS         TIME OF FIRST OBS
                                                            END OF HEADER
 25  7  1  0  0 30.0000000  0 10G08G25G02G04G28G31G01G32G03G10
 -41010549.18456 -34508121.59054  24953043.6094                   24953049.1454
        39.0004         27.5004
  -1343047.74256  -3144126.08254  24539757.7114                   24539760.8094
        36.2504         28.5004
 -50013373.67257 -41232169.03156  21299556.6724                   21299551.7854
        46.5004         37.2504
   -852328.85256   -622980.50453  25019335.3834                   25019338.5354
        37.0004         19.2504
 -53689243.92658 -41666421.73856  20822377.0944                   20822374.6604
        48.0004         37.0004
 -41359778.65658 -32185875.36357  21100779.8364                   21100777.2734
        48.7504         44.5004
 -30155158.57057 -25842148.52055  21909288.3364                   21909285.7734
        44.5004         32.0004
 -71990627.35957 -56046433.45357  22035207.2814                   22035206.5784
        47.5004         44.7504
 -13851755.46156 -10755982.23855  23539055.6094                   23539057.1214
        40.0004         33.5004
 -59228649.55157 -46105152.03156  22548049.1954                   22548049.2274
        44.5004         40.0004
 25  7  1  0  1  0.0000000  0 10G08G25G02G04G28G31G01G32G03G10
 -41028406.79346 -34522036.78944  24949645.2034                   24949651.5554
        39.0004         27.7504
  -1466797.87946  -3240554.71944  24516207.9064                   24516211.3914
        37.0004         28.0004
 -50109878.20748 -41307367.37146  21281192.5784                   21281187.4494
        48.0004         36.7504
  -1027801.41446   -759712.15643  24985943.4774                   24985947.8834
        37.0004         18.5004
 -53791718.64848 -41746272.16446  20802877.0704                   20802874.4064
        48.0004         37.0004
 -41527703.88348 -32316726.15247  21068825.0784                   21068822.1564
        49.2504         44.7504
 -30313879.40647 -25965827.06245  21879084.4774                   21879081.9454
        44.5004         32.2504
 -72020374.92247 -56069613.40647  22029546.1564                   22029545.8364
        47.7504         45.5004
 -14028979.84446 -10894079.09045  23505330.6254                   23505332.1174
        40.2504         33.0004
 -59264656.84047 -46133209.69546  22541197.0314                   22541197.3244
        44.5004         40.0004
 25  7  1  0  1 30.0000000  0 10G08G25G02G04G28G31G01G32G03G10
 -41046298.91846 -34535978.86344  24946241.3204                   24946247.0124
        38.0004         28.7504
  -1590116.45346  -3336647.09444  24492742.3524                   24492743.7074
        37.2504         28.0004
 -50205860.94547 -41382159.12146  21262927.6254                   21262922.6524
        47.5004         36.7504
  -1203146.96946   -896344.89542  24952576.1564                   24952580.6454
        37.2504         17.7504
 -53893594.64847 -41825656.05146  20783490.7194                   20783487.9304
        47.5004         37.5004
 -41695155.86348 -32447208.17647  21036959.5944                   21036956.5274
        50.0004         44.5004
 -30472169.62547 -26089170.07045  21848962.6094                   21848960.6054
        44.0004         32.5004
 -72050006.82447 -56092703.22747  22023907.3134                   22023907.1604
        47.7504         45.5004
 -14206202.93746 -11032174.96145  23471606.4534                   23471607.6644
        41.0004         33.7504
 -59300410.56647 -46161069.78946  22534393.7814                   22534393.5984
        45.5004         40.2504
 25  7  1  0  2  0.0000000  0 10G08G25G02G04G28G31G01G32G03G10
 -41064232.12945 -34549952.98844  24942828.2194                   24942834.6844
        34.7504         27.0004
  -1713005.10546  -3432404.49244  24469356.3284                   24469358.8014
        37.0004         27.0004
 -50301325.25448 -41456546.89846  21244761.2584                   21244756.6724
        48.5004         37.5004
  -1378368.85946  -1032881.23842  24919233.1414                   24919236.0984
        38.5004         16.7504
 -53994875.53947 -41904576.22346  20764217.4064                   20764215.1604
        47.2504         37.5004
 -41862135.77748 -32577322.34447  21005184.5944                   21005181.5354
        49.0004         44.7504
 -30630030.69547 -26212178.69145  21818922.6254                   21818920.7584
        44.2504         32.0004
 -72079528.15248 -56115706.87547  22018289.8054                   22018289.6454
        48.2504         45.5004
 -14383427.55546 -11170272.00845  23437881.5944                   23437883.1954
        40.7504         34.7504
 -59335914.28547 -46188735.06246  22527637.7584                   22527637.7664
        45.0004         40.7504
 25  7  1  0  2 30.0000000  0 10G08G25G02G04G28G31G01G32G03G10
 -41082199.35945 -34563953.68744  24939409.6414                   24939416.1804
        33.2504         27.0004
  -1835452.05946  -3527817.68044  24446055.7114                   24446058.2114
        37.0004         28.0004
 -50396261.39848 -41530523.12146  21226695.7034                   21226690.5824
        48.2504         37.2504
  -1553457.01246  -1169313.36342  24885914.4064                   24885917.7464
        37.5004         17.7504
 -54095551.46947 -41983024.99246  20745059.6024                   20745056.9574
        46.2504         37.0004
 -42028631.29748 -32707059.07847  20973501.3204                   20973498.2734
        49.5004         44.7504
 -30787450.61347 -26334843.55945  21788966.7664                   21788964.5824
        44.2504         32.7504
 -72108930.49648 -56138617.82047  22012695.0004                   22012694.1524
        48.7504         45.0004
 -14560643.22746 -11308362.07445  23404158.5784                   23404160.1254
        41.0004         34.7504
 -59371158.07447 -46216197.78146  22520931.1414                   22520931.2934
        45.5004         40.5004
 25  7  1  0  3  0.0000000  0 10G08G25G02G04G28G31G01G32G03G10
 -41100198.07845 -34577978.86744  24935984.5004                   24935989.7704
        33.5004         26.0004
  -1957449.68446  -3622880.73444  24422840.2114                   24422842.9774
        36.5004         28.5004
 -50490663.48447 -41604083.19946  21208731.2734                   21208726.8554
        46.5004         37.0004
  -1728405.59446  -1305636.75042  24852622.1334                   24852627.6454
        36.5004         16.7504
 -54195616.93047 -42060998.07846  20726018.3594                   20726015.3834
        46.5004         36.5004
 -42194634.30548 -32836412.03147  20941911.9224                   20941908.9224
        49.0004         44.7504
 -30944421.65647 -26457158.63345  21759095.7734                   21759094.0164
        44.7504         33.2504
 -72138209.72748 -56161432.84047  22007123.1564                   22007122.5004
        48.0004         45.2504
 -14737843.60546 -11446440.22745  23370438.4064                   23370440.2424
        40.5004         35.5004
 -59406136.25447 -46243453.55146  22514274.4224                   22514275.2344
        44.7504         40.5004
 25  7  1  0  3 30.0000000  0 10G08G25G02G04G28G31G01G32G03G10
 -41118242.93745 -34592039.94544  24932550.5394                   24932556.3634
        34.0004         25.2504
  -2079007.84446  -3717601.36745  24399708.9064                   24399711.4384
        38.5004         30.5004
 -50584543.23847 -41677236.25446  21190866.5474                   21190861.5394
        47.5004         37.2504
  -1903226.12945  -1441860.40242  24819354.6484                   24819359.5984
        34.2504         15.5004
 -54295083.78547 -42138504.71146  20707089.8914                   20707087.3244
        47.0004         37.0004
 -42360154.21948 -32965388.55147  20910414.7814                   20910412.0314
        49.2504         45.2504
 -31100953.49247 -26579131.46545  21729308.4924                   21729306.8014
        44.2504         32.2504
 -72167379.07847 -56184162.22747  22001572.4224                   22001572.5784
        47.0004         45.0004
 -14915039.88746 -11584515.18445  23336719.1254                   23336720.3244
        40.5004         34.2504
 -59440860.57847 -46270511.50046  22507666.8524                   22507667.2274
        45.0004         40.5004
 25  7  1  0  4  0.0000000  0 10G08G25G02G04G28G31G01G32G03G10
 -39560899.14845 -33378525.52044  25228906.2194                   25228908.7544
        33.7504         25.0004
   -624683.65246  -2584361.70344  24676457.6334                   24676459.7424
        38.0004         29.7504
 -49102460.80947 -40522366.83646  21472897.7974                   21472892.8404
        47.5004         37.5004
   -502475.71545   -350366.46142  25085907.6484                   25085914.2194
        33.0004         15.5004
 -52818511.95347 -40987929.25046  20988072.3914                   20988069.5704
        47.0004         36.7504
 -40949746.89548 -31866369.82047  21178806.4924                   21178803.4384
        49.0004         44.7504
 -29681601.85947 -25473143.14845  21999402.3444                   21999400.5314
        43.7504         32.2504
 -70621002.05548 -54979193.15247  22295838.3914                   22295837.8634
        48.0004         45.0004
 -13516788.44946 -10494968.53945  23602797.3754                   23602798.4384
        39.5004         35.2504
 -57899892.93747 -45069757.54346  22800903.3364                   22800903.2114
        44.5004         40.0004
 25  7  1  0  4 30.0000000  0 10G08G25G02G04G28G31G01G32G03G10
 -39579013.01245 -33392640.44543  25225458.6094                   25225462.4964
        31.2504         21.5004
   -745325.52346  -2678368.35944  24653499.5864                   24653502.7384
        37.0004         28.7504
 -49195264.68747 -40594681.56246  21455237.6954                   21455232.8364
        47.5004         37.2504
   -677007.87545   -486365.39542  25052696.4844                   25052701.6454
        34.7504         15.5004
 -52916750.27747 -41064478.58646  20969378.3204                   20969375.9344
        47.0004         36.7504
 -41114262.52348 -31994563.78547  21147499.7344                   21147496.9414
        48.7504         44.7504
 -29837217.17647 -25594401.81645  21969789.5864                   21969788.0594
        44.2504         32.7504
 -70649924.24647 -55001729.94947  22290334.6254                   22290334.0394
        47.2504         45.0004
 -13693942.52046 -10633010.62145  23569085.6484                   23569087.5904
        39.2504         34.5004
 -57934077.72747 -45096395.07446  22794398.2424                   22794398.1334
        43.5004         39.7504
 25  7  1  0  5  0.0000000  0 10G08G25G02G04G28G31G01G32G03G10
 -39597163.90654 -33406784.25053  25222001.7814                   25222007.6214
        29.7504         20.5004
   -865504.62546  -2772014.39144  24630630.8754                   24630633.3324
        37.2504         27.7504
 -49287528.59447 -40666575.52046  21437680.2034                   21437675.8134
        47.5004         38.0004
   -851393.81246   -622250.26642  25019512.3364                   25019517.2504
        37.5004         16.7504
 -53014372.84447 -41140548.11346  20950801.2584                   20950798.5704
        46.5004         36.7504
 -41278270.96548 -32122362.53147  21116290.2194                   21116287.0164
        49.2504         45.2504
 -29992369.39547 -25715299.63345  21940265.7034                   21940263.5984
        44.5004         33.7504
 -70678723.21947 -55024170.72747  22284854.3594                   22284854.6954
        47.0004         45.2504
 -13871072.77346 -10771034.09845  23535378.7734                   23535381.4534
        39.5004         34.2504
 -57967990.93447 -45122820.98846  22787944.9304                   22787945.0164
        43.5004         40.0004
 25  7  1  0  5 30.0000000  0 10G08G25G02G04G28G31G01G32G03G10
 -39615355.40245 -33420959.67243  25218542.3834                   25218546.8634
        33.2504         23.0004
   -985219.59446  -2865298.73844  24607849.3204                   24607852.3134
        38.0004         28.7504
 -49379253.32847 -40738049.35546  21420225.7974                   21420220.8284
        47.2504         37.2504
  -1025633.80146   -758021.52342  24986354.6484                   24986359.3364
        37.5004         17.7504
 -53111380.30947 -41216138.33646  20932341.2034                   20932338.7274
        47.0004         36.5004
 -41441770.30948 -32249764.56647  21085177.1414                   21085173.9654
        49.5004         45.2504
 -30147056.91047 -25835835.33245  21910829.5864                   21910827.7584
        44.7504         33.0004
 -70707400.91047 -55046516.99647  22279397.4614                   22279397.4144
        47.0004         44.7504
 -14048178.81246 -10909038.70745  23501676.2894                   23501678.2774
        39.5004         33.0004
 -58001633.06647 -45149035.68746  22781542.9144                   22781543.6804
        44.0004         40.2504
 25  7  1  0  6  0.0000000  0 10G08G25G02G04G28G31G01G32G03G10
 -39633587.96545 -33435167.12544  25215071.5554                   25215079.2384
        35.2504         29.0004
  -1104466.36746  -2958218.30544  24585158.0634                   24585159.8204
        39.7504         28.2504
 -49470436.75047 -40809101.38346  21402873.8594                   21402869.3794
        47.2504         37.0004
  -1199725.60246   -893677.30543  24953226.6884                   24953231.6414
        36.5004         18.5004
 -53207770.69147 -41291247.71946  20913998.8834                   20913996.3834
        46.2504         36.5004
 -41604756.02348 -32376766.37547  21054162.2504                   21054159.0944
        49.7504         45.2504
 -30301275.46947 -25956005.61745  21881482.3594                   21881480.8594
        44.7504         33.2504
 -70735956.52747 -55068768.15647  22273963.3444                   22273962.7114
        47.2504         44.7504
 -14225257.77746 -11047022.25445  23467979.0944                   23467980.2034
        38.5004         31.7504
 -58035001.87947 -45175037.39846  22775193.3674                   22775193.6954
        44.0004         40.5004
 25  7  1  0  6 30.0000000  0 10G08G25G02G04G28G31G01G32G03G10
 -39651864.63745 -33449408.90244  25211594.3364                   25211601.1804
        35.0004         28.5004
  -1223243.29346  -3050771.73044  24562555.3444                   24562557.9574
        38.5004         28.5004
 -49561078.90647 -40879731.64846  21385625.4534                   21385620.8554
        46.7504         37.2504
  -1373668.86745  -1029217.39542  24920126.2194                   24920130.4384
        35.7504         17.2504
 -53303544.35247 -41365876.53546  20895773.7034                   20895771.0594
        46.7504         37.0004
 -41767225.96948 -32503366.30947  21023245.0164                   21023242.4384
        48.5004         45.5004
 -30455023.01647 -26075808.87545  21852225.0784                   21852223.0354
        45.0004         33.5004
 -70764391.55547 -55090925.35547  22268552.7114                   22268551.6374
        47.0004         44.0004
 -14402308.94146 -11184984.13345  23434287.7194                   23434288.8284
        39.2504         31.7504
 -58068097.46547 -45200826.21146  22768895.3754                   22768896.1684
        43.7504         40.0004
 25  7  1  0  7  0.0000000  0 10G08G25G02G04G28G31G01G32G03G10
 -39670189.89146 -33463688.56644  25208107.8284                   25208114.6054
        36.7504         29.0004
  -1341550.15246  -3142958.84844  24540041.9774                   24540044.7194
        38.0004         27.5004
 -49651181.68047 -40949941.61746  21368479.5164                   21368474.9144
        46.2504         37.0004
  -1547465.18746  -1164642.87942  24887052.9614                   24887059.0704
        36.5004         14.7504
 -53398703.26647 -41440026.33646  20877665.4384                   20877663.0354
        46.0004         36.7504
 -41929179.62548 -32629563.93447  20992426.2274                   20992423.4694
        48.2504         45.5004
 -30608299.23847 -26195244.85945  21823057.5314                   21823055.8954
        45.0004         33.5004
 -70792709.12547 -55112991.01647  22263163.8134                   22263163.5274
        47.2504         44.5004
 -14579333.24646 -11322925.10245  23400600.4614                   23400601.6254
        37.5004         31.0004
 -58100921.52047 -45226403.43746  22762649.1644                   22762649.7274
        43.5004         39.5004
 25  7  1  0  7 30.0000000  0 10G08G25G02G04G28G31G01G32G03G10
 -39688565.59046 -33478007.53144  25204611.3284                   25204617.2234
        37.2504         28.5004
  -1459384.22346  -3234777.57044  24517618.5864                   24517622.0744
        37.7504         28.5004
 -49740744.31647 -41019730.70346  21351435.9454                   21351431.5784
        46.2504         37.0004
  -1721113.453 6                  24854009.906
        37.250
 -53493246.59447 -41513696.45746  20859674.2974                   20859672.0944
        45.7504         36.5004
 -42090613.70348 -32755356.68447  20961705.8984                   20961703.5354
        48.7504         45.7504
 -30761101.08247 -26314311.20345  21793980.4774                   21793978.4574
        44.5004         32.5004
 -70820909.51247 -55134965.35947  22257797.5864                   22257796.8794
        47.0004         44.5004
 -14756328.94946 -11460843.76645  23366918.4924                   23366919.9224
        38.0004         30.5004
 -58133472.94947 -45251768.21146  22756454.9144                   22756455.4844
        43.0004         39.5004
 25  7  1  0  8  0.0000000  0 10G08G25G02G04G28G31G01G32G03G10
 -39706995.16446 -33492368.47744  25201103.9614                   25201110.7194
        37.7504         26.7504
  -1576744.24646  -3326226.91044  24495286.1724                   24495288.9454
        38.5004         29.0004
 -49829767.64547 -41089099.55146  21334495.4454                   21334491.0904
        45.7504         36.0004
  -1894614.15646  -1266520.26253  24820993.3594                   24820994.7424
        39.0004         18.2504
 -53587175.48047 -41586887.78946  20841800.5234                   20841798.1684
        45.2504         37.5004
 -42251526.66848 -32880743.38747  20931085.5554                   20931082.7814
        48.7504         46.0004
 -30913427.16847 -26433006.83645  21764994.2114                   21764991.7934
        45.0004         32.5004
 -70848994.82048 -55156850.05147  22252452.9144                   22252452.0124
        48.2504         44.5004
 -14933295.84846 -11598740.01245  23333244.1024                   23333244.5594
        39.2504         32.0004
 -58165752.56247 -45276921.20746  22750312.4534                   22750313.0084
        44.2504         39.5004
 25  7  1  0  8 30.0000000  0 10G08G25G02G04G28G31G01G32G03G10
 -39725482.37146 -33506774.31244  25197586.1954                   25197593.0864
        36.7504         26.5004
  -1693629.53546  -3417306.35244  24473043.7974                   24473046.1524
        37.7504         26.7504
 -49918252.27047 -41158048.62546  21317657.7424                   21317653.0704
        46.2504         36.5004
  -2067967.95345  -1401601.02042  24788003.6174                   24788008.4024
        34.5004         15.5004
 -53680491.07847 -41659601.23846  20824042.9384                   20824040.8874
        45.7504         37.0004
 -42411917.29748 -33005723.06647  20900564.3834                   20900561.1564
        48.7504         46.0004
 -31065276.38347 -26551330.88745  21736097.6024                   21736096.0394
        44.2504         31.7504
 -70876967.27747 -55178646.79747  22247130.0004                   22247129.8204
        47.2504         44.2504
 -15110234.13746 -11736613.92645  23299573.5474                   23299575.5864
        37.2504         30.7504
 -58197761.19147 -45301863.04346  22744220.9144                   22744221.6644
        43.2504         39.0004
 25  7  1  0  9  0.0000000  0 10G08G25G02G04G28G31G01G32G03G10
 -39744030.96946 -33521227.91844  25194056.0704                   25194063.9804
        36.7504         27.5004
  -1810039.23846  -3508015.17644  24450891.6254                   24450893.7704
        38.5004         27.7504
 -50006199.63347 -41226579.05546  21300921.7344                   21300917.5274
        45.7504         36.2504
  -2241175.72745  -1536567.91442  24755044.1954                   24755048.8164
        34.0004         15.5004
 -53773194.70747 -41731837.82046  20806402.1884                   20806399.8204
        46.7504         37.0004
 -42571784.23848 -33130294.67247  20870142.7894                   20870139.5634
        49.5004         46.2504
 -31216647.61347 -26669282.47745  21707292.6954                   21707290.7934
        45.5004         32.5004
 -70904829.17647 -55200357.39547  22241827.9064                   22241828.2504
        46.5004         44.0004
 -15287143.86746 -11874465.60945  23265909.2194                   23265909.4454
        39.5004         32.7504
 -58229499.82847 -45326594.48046  22738181.3834                   22738181.9924
        43.0004         38.7504
 25  7  1  0  9 30.0000000  0 11G08G25G02G04G28G31G01G32G03G26G10
 -39762640.51246 -33535729.05944  25190515.8054                   25190522.8404
        39.2504         29.0004
  -1925968.31246  -3598349.47344  24428831.2274                   24428833.6954
        39.2504         29.2504
 -50093606.96147 -41294688.68746  21284289.4844                   21284284.8204
        46.5004         36.2504
  -2414233.90645  -1671418.28942  24722111.4144                   24722117.4734
        32.2504         14.7504
 -53865283.51247 -41803595.32846  20788878.6024                   20788876.1724
        47.7504         37.2504
 -42731122.15248 -33254454.04747  20839821.5554                   20839818.0984
        50.0004         46.2504
 -31367535.71547 -26786857.59045  21678579.9454                   21678577.8164
        45.5004         33.0004
 -70932578.62147 -55221980.36347  22236547.1564                   22236547.3164
        46.7504         44.5004
 -15464020.90246 -12012291.80945  23232250.0004                   23232251.4574
        40.2504         33.0004
   1332411.15656   1096798.54354  25168334.8364                   25168339.7034
        37.5004         25.2504
 -58260965.26647 -45351113.03546  22732193.8834                   22732194.0704
        43.2504         38.5004
 25  7  1  0 10  0.0000000  0 11G08G25G02G04G28G31G01G32G03G26G10
 -39781321.11346 -33550285.58244  25186960.8674                   25186967.1454
        39.0004         27.0004
  -2041422.53946  -3688313.78544  24406861.1644                   24406863.3164
        39.0004         27.5004
 -50180481.66847 -41362383.28146  21267757.2344                   21267752.3634
        46.2504         37.0004
  -2587149.94946  -1806158.05542  24689207.2424                   24689212.6644
        37.0004         16.7504
 -53956765.36347 -41874879.88346  20771469.8754                   20771467.4694
        47.5004         37.2504
 -42889936.59848 -33378205.53147  20809600.0314                   20809597.1484
        49.0004         46.0004
 -31517946.05547 -26904060.42645  21649957.3914                   21649955.7344
        44.5004         33.2504
 -70960224.37547 -55243522.53547  22231286.9064                   22231286.3484
        46.2504         44.0004
 -15640872.02046 -12150097.80545  23198597.3834                   23198598.0664
        40.7504         34.5004
   1156189.50846    959483.19544  25134799.9224                   25134806.4104
        36.5004         25.7504
 -58292164.91447 -45375424.49646  22726256.3674                   22726256.9454
        44.0004         38.2504
 25  7  1  0 10 30.0000000  0 11G08G25G02G04G28G31G01G32G03G26G10
 -39800077.14146 -33564900.88744  25183392.0944                   25183398.0004
        38.0004         26.0004
  -2156401.64146  -3777907.87944  24384980.7424                   24384983.1334
        40.0004         28.0004
 -50266825.43047 -41429664.15646  21251326.3914                   21251321.5634
        46.0004         37.0004
  -2759925.10545  -1940787.91442  24656330.0164                   24656332.6254
        35.7504         17.2504
 -54047642.12147 -41945692.93746  20754176.1414                   20754173.6334
        46.5004         36.7504
 -43048226.62148 -33501548.36747  20779478.0704                   20779474.8954
        49.2504         46.0004
 -31667878.10547 -27020890.58645  21621426.2974                   21621424.6844
        45.0004         33.7504
 -70987769.23847 -55264986.09847  22226044.7194                   22226044.8834
        46.0004         43.7504
 -15817697.67246 -12287883.96945  23164948.3054                   23164949.9104
        41.0004         35.5004
    979817.00446    822050.27044  25101238.4224                   25101243.7274
        37.7504         26.0004
 -58323100.27047 -45399530.02746  22720370.4224                   22720370.3754
        44.5004         38.5004
 25  7  1  0 11  0.0000000  0 11G08G25G02G04G28G31G01G32G03G26G10
 -39818911.59046 -33579577.36744  25179807.7974                   25179813.9494
        37.5004         24.2504
  -2270904.28546  -3867130.71944  24363191.6414                   24363194.0634
        38.5004         27.0004
 -50352638.75047 -41496531.69146  21234996.8054                   21234992.1024
        45.7504         36.7504
  -2932559.59445  -2075308.13342  24623477.0084                   24623481.4304
        34.0004         14.7504
 -54137914.54347 -42016035.08646  20736998.1804                   20736995.5124
        45.7504         37.0004
 -43205990.43448 -33624481.18747  20749457.1094                   20749453.7894
        48.7504         46.0004
 -31817330.22347 -27137346.77345  21592986.7034                   21592984.9064
        44.2504         33.5004
 -71015214.78947 -55286372.26247  22220822.9144                   22220822.5554
        46.0004         44.0004
 -15994497.37946 -12425649.89846  23131304.8674                   23131306.3524
        40.7504         36.0004
    803295.70346    684501.37544  25067647.1024                   25067652.8554
        36.7504         27.0004
 -58353771.69547 -45423429.88746  22714533.1414                   22714534.0354
        43.7504         39.0004
 25  7  1  0 11 30.0000000  0 11G08G25G02G04G28G31G01G32G03G26G10
 -39837821.43446 -33594312.52744  25176210.2584                   25176216.7074
        38.0004         27.2504
  -2384922.95346  -3955976.34444  24341494.3984                   24341497.7464
        38.2504         29.2504
 -50437916.25047 -41562981.71146  21218768.8444                   21218764.3134
        46.0004         36.0004
  -3105047.27745  -2209713.96943  24590653.2974                   24590658.0634
        34.7504         18.2504
 -54227577.30147 -42085902.17246  20719936.2974                   20719933.2584
        46.2504         37.2504
 -43363220.31648 -33746997.93447  20719537.1804                   20719534.1644
        50.0004         46.7504
 -31966294.59047 -27253422.87945  21564639.5394                   21564637.4574
        45.2504         33.0004
 -71042556.50047 -55307677.51647  22215619.5704                   22215619.0664
        46.0004         43.2504
 -16171264.40646 -12563390.38345  23097667.0634                   23097667.9414
        41.0004         35.7504
    626633.61746    546842.78144  25034028.2974                   25034034.7734
        36.5004         25.2504
 -58384173.43747 -45447119.60546  22708748.4454                   22708748.8984
        42.0004         38.7504
 25  7  1  0 12  0.0000000  0 11G08G25G02G04G28G31G01G32G03G26G10
 -39856797.56246 -33609099.31244  25172600.0314                   25172606.3324
        38.5004         28.7504
  -2498444.02746  -4044434.30144  24319892.0554                   24319894.9534
        39.7504         28.5004
 -50522646.35947 -41629005.18746  21202645.1804                   21202640.7934
        46.5004         36.2504
  -3277376.32845  -2343996.14842  24557860.4534                   24557865.0434
        34.5004         17.7504
 -54316618.95747 -42155285.27346  20702991.8754                   20702988.8284
        46.0004         37.5004
 -43519902.00848 -33869087.52747  20689721.6094                   20689718.4454
        49.7504         46.7504
 -32114757.33247 -27369108.11345  21536388.2504                   21536386.1604
        45.2504         32.2504
 -71069783.72747 -55328893.55547  22210438.4534                   22210438.5004
        46.5004         43.5004
 -16347985.88746 -12701095.36745  23064038.3444                   23064038.9884
        41.2504         34.2504
    449845.00445    409085.57443  25000387.0634                   25000391.5004
        34.5004         23.0004
 -58414293.60247 -45470589.90246  22703016.6644                   22703017.6604
        42.7504         38.5004
 25  7  1  0 12 30.0000000  0 11G08G25G02G04G28G31G01G32G03G26G10
 -39875844.09446 -33623940.98844  25168974.3914                   25168982.1914
        36.7504         26.2504
  -2611467.50846  -4132504.52044  24298384.0164                   24298386.3984
        38.2504         26.5004
 -50606830.78947 -41694603.46146  21186625.5864                   21186621.3714
        45.5004         36.7504
  -3449547.75845  -2478155.57843  24525097.2424                   24525101.1094
        35.7504         20.0004
 -54405041.57847 -42224186.01646  20686165.6804                   20686162.8014
        46.2504         38.0004
 -43676035.25048 -33990749.75847  20660010.3914                   20660007.8714
        49.2504         46.7504
 -32262717.98847 -27484402.11345  21508232.0784                   21508230.0634
        44.7504         32.2504
 -71096899.28947 -55350022.59047  22205278.4774                   22205277.9884
        46.5004         43.0004
 -16524662.53146 -12838765.43045  23030417.4224                   23030418.2384
        41.2504         34.0004
    272930.59845    271230.37943  24966720.4064                   24966725.1524
        34.2504         22.7504
 -58444133.75847 -45493842.01646  22697338.4694                   22697339.3364
        42.5004         38.5004
 25  7  1  0 13  0.0000000  0 11G08G25G02G04G28G31G01G32G03G26G10
 -38319546.43446 -32411241.77044  25465129.6024                   25465134.6604
        37.2504         24.2504
  -1148571.14146  -2992585.24644  24576764.4144                   24576766.5824
        39.2504         27.7504
 -49115050.28547 -40532177.10546  21470502.4224                   21470497.8364
        47.0004         36.7504
  -2046139.26246  -1384590.43743  24792158.5084                   24792160.8054
        36.7504         20.0004
 -52917426.07847 -41065005.11346  20969249.5394                   20969246.6844
        46.0004         37.2504
 -42256195.84448 -32884381.36747  20930196.8674                   20930193.8754
        48.7504         47.0004
 -30834753.06647 -26371702.14845  21779964.7194                   21779962.9264
        45.2504         32.5004
 -69548486.78547 -54143467.41847  22499931.4774                   22499930.4694
        46.7504         42.5004
 -15125870.74247 -11748797.76245  23296598.2974                   23296598.9884
        42.0004         34.5004
   1671315.35945   1360881.05144  25232824.1024                   25232830.0274
        35.7504         27.2504
 -56898276.25447 -44289277.77346  22991504.9844                   22991506.1764
        42.5004         38.7504
 25  7  1  0 13 30.0000000  0 11G08G25G02G04G28G31G01G32G03G26G10
 -38338752.71946 -32426207.92244  25461474.0944                   25461480.3954
        36.7504         25.2504
  -1260604.96946  -3079884.32444  24555445.4304                   24555447.6094
        39.5004         27.5004
 -49198154.85547 -40596933.93046  21454687.7664                   21454683.1644
        47.5004         37.2504
  -2218006.14546  -1518512.59443  24759451.7274                   24759454.8594
        36.7504         18.2504
 -53004622.84447 -41132950.64546  20952656.6254                   20952653.4494
        47.2504         37.5004
 -42411236.10248 -33005191.93747  20900693.5394                   20900690.6954
        49.0004         46.7504
 -30981714.43047 -26486217.49245  21751998.8594                   21751996.8444
        46.0004         33.5004
 -69575393.30947 -54164433.56647  22494811.3834                   22494810.8444
        47.5004         42.5004
 -15302465.41446 -11886403.94545  23262993.5234                   23262993.4884
        41.5004         34.0004
   1494145.85945   1222827.07844  25199110.2424                   25199116.6174
        34.0004         26.5004
 -56927567.13347 -44312101.87946  22985931.4454                   22985931.9064
        42.7504         38.7504
 25  7  1  0 14  0.0000000  0 10G25G02G04G28G31G01G32G03G26G10
  -1372145.90646  -3166799.34444  24534220.2974                   24534221.5784
        39.0004         27.0004
 -49280724.41447 -40661273.85546  21438975.3444                   21438970.6684
        46.5004         36.2504
  -2389724.66046  -1652319.07442  24726774.7584                   24726778.1564
        36.2504         17.7504
 -53091211.78947 -41200422.55146  20936179.7664                   20936176.9344
        47.5004         37.7504
 -42565731.54748 -33125577.97747  20871293.7584                   20871290.8984
        48.5004         46.5004
 -31128177.48047 -26600344.53945  21724127.6484                   21724125.6134
        45.5004         32.5004
 -69602201.41847 -54185323.04347  22489709.7814                   22489709.6334
        46.0004         42.5004
 -15479021.91846 -12023980.39545  23229396.2894                   23229395.9144
        41.7504         34.0004
   1316847.89545   1084673.01244  25165371.3914                   25165376.1334
        33.7504         26.2504
 -56956587.69146 -44334715.36346  22980409.2814                   22980409.3954
        41.7504         38.7504
 25  7  1  0 14 30.0000000  0 10G25G02G04G28G31G01G32G03G26G10
  -1483189.14846  -3253326.54744  24513088.0314                   24513090.7074
        38.7504         27.0004
 -49362756.34847 -40725194.85946  21423365.1484                   21423360.5164
        47.5004         37.2504
  -2561291.66446  -1786007.43443  24694126.0474                   24694129.7854
        37.5004         18.5004
 -53177190.34447 -41267418.81646  20919817.9384                   20919815.0514
        47.5004         37.0004
 -42719676.54348 -33245535.08247  20841999.1954                   20841995.8984
        48.7504         46.2504
 -31274137.14847 -26714079.32445  21696352.9064                   21696350.9654
        46.2504         33.0004
 -69628909.16447 -54206134.29347  22484627.8674                   22484627.7814
        46.5004         42.7504
 -15655536.16446 -12161523.89845  23195806.1804                   23195806.6484
        41.7504         34.2504
   1139427.09445    946423.29344  25131607.5864                   25131614.2154
        31.2504         24.0004
 -56985334.87147 -44357115.81246  22974938.2114                   22974939.2734
        42.0004         38.2504
 25  7  1  0 15  0.0000000  0 10G25G02G04G28G31G01G32G03G26G10
  -1593735.95746  -3339466.87544  24492052.7814                   24492054.6764
        39.0004         27.5004
 -49444253.68448 -40788699.28146  21407856.9534                   21407852.1684
        48.0004         37.5004
  -2732709.75446  -1919579.84843  24661506.5314                   24661510.9414
        36.2504         21.5004
 -53262562.02047 -41333942.19946  20903572.0474                   20903569.6604
        46.5004         38.2504
 -42873072.09448 -33365064.05147  20812808.8204                   20812805.7774
        48.5004         46.7504
 -31419594.42247 -26827422.61745  21668673.1644                   21668671.2304
        45.7504         32.7504
 -69655520.65247 -54226870.52747  22479564.0554                   22479563.3404
        46.0004         43.0004
 -15832010.07446 -12299035.96545  23162223.7894                   23162224.3914
        41.5004         34.0004
    961883.01245    808077.42244  25097823.5234                   25097828.9804
        34.5004         27.0004
 -57013811.62547 -44379305.53146  22969519.5314                   22969520.3444
        42.2504         38.2504
 25  7  1  0 15 30.0000000  0 10G25G02G04G28G31G01G32G03G26G10
  -1703777.94946  -3425213.79744  24471112.2424                   24471114.9614
        39.5004         28.7504
 -49525209.86748 -40851782.03546  21392451.6174                   21392447.0594
        48.5004         37.2504
  -2903971.93746  -2053030.81643  24628916.1804                   24628920.3634
        37.0004         22.0004
 -53347320.52747 -41399987.78946  20887443.5784                   20887440.6994
        46.5004         37.2504
 -43025909.34448 -33484157.97347  20783724.8984                   20783721.5164
        48.5004         46.2504
 -31564540.37947 -26940367.49645  21641090.6094                   21641088.2464
        45.7504         33.5004
 -69682030.08247 -54247527.26247  22474519.4304                   22474518.5864
        46.5004         42.7504
 -16008435.67247 -12436510.39145  23128651.8204                   23128651.8594
        42.0004         35.2504
    784225.02345    669642.77744  25064016.0314                   25064020.8244
        31.5004         25.2504
 -57042011.00047 -44401279.10946  22964153.4224                   22964154.8404
        42.7504         38.0004
 25  7  1  0 16  0.0000000  0 10G25G02G04G28G31G01G32G03G26G10
  -1813316.73046  -3510568.69144  24450268.2814                   24450269.2304
        40.2504         26.5004
 -49605628.54747 -40914445.95746  21377148.3674                   21377143.4414
        46.5004         37.7504
  -3075081.30946  -2186362.63343  24596355.8834                   24596358.7384
        36.7504         21.5004
 -53431469.70747 -41465558.57846  20871430.1024                   20871427.4064
        45.5004         38.0004
 -43178189.36748 -33602817.70747  20754746.9844                   20754743.3364
        48.5004         46.0004
 -31708976.43747 -27052915.06645  21613605.7034                   21613603.6254
        46.2504         34.0004
 -69708441.87547 -54268107.91447  22469492.7274                   22469493.0634
        45.5004         42.7504
 -16184815.13346 -12573948.87945  23095087.8134                   23095087.6254
        41.5004         34.7504
    606452.17645    531118.64843  25030186.9844                   25030192.2664
        30.5004         22.7504
 -57069936.27747 -44423039.12946  22958839.6334                   22958840.4344
        42.7504         38.5004
 25  7  1  0 16 30.0000000  0  9G25G02G04G28G31G01G32G03G10
  -1922352.33646  -3595531.55544  24429518.2194                   24429519.2624
        38.2504         25.2504
 -49685511.84448 -40976692.69146  21361947.0704                   21361942.3554
        49.0004         37.7504
  -3246039.15245  -2319576.32443  24563823.4534                   24563825.9384
        34.7504         21.0004
 -53515011.77047 -41530656.28146  20855532.8754                   20855530.1884
        46.5004         38.0004
 -43329911.84048 -33721042.97747  20725875.0004                   20725871.8954
        48.7504         46.2504
 -31852902.20347 -27165064.99645  21586217.3754                   21586215.5904
        46.5004         34.7504
 -69734758.70747 -54288614.57447  22464485.0554                   22464485.1374
        46.5004         42.7504
 -16361149.03147 -12711351.85546  23061532.5164                   23061532.8794
        42.2504         36.0004
 -57097589.17247 -44444586.88746  22953577.8914                   22953577.9734
        43.5004         38.0004
 25  7  1  0 17  0.0000000  0  9G25G02G04G28G31G01G32G03G10
  -2030888.82046  -3680105.37544  24408864.6414                   24408867.3554
        37.5004         24.5004
 -49764865.61748 -41038526.81246  21346846.4384                   21346841.8794
        49.7504         37.7504
  -3416850.76646  -2452676.17243  24531318.9454                   24531321.8324
        36.0004         21.0004
 -53597952.89147 -41595285.73446  20839749.5004                   20839746.8444
        47.0004         38.0004
 -43481080.35548 -33838836.59847  20697108.7274                   20697105.4104
        48.5004         46.0004
 -31996321.25447 -27276820.10245  21558925.7114                   21558923.7424
        46.0004         34.5004
 -69760987.15647 -54309052.35247  22459493.7974                   22459493.6294
        46.7504         42.5004
 -16537441.69146 -12848722.67646  23027984.4304                   23027985.8014
        41.7504         36.7504
 -57124975.07047 -44465926.60546  22948366.0084                   22948366.5514
        43.2504         38.2504
 25  7  1  0 17 30.0000000  0 10G25G02G04G28G31G01G32G03G26G10
  -2138928.37546  -3764292.05944  24388305.7664                   24388308.2304
        39.0004         25.5004
 -49843693.84848 -41099951.42246  21331845.7974                   21331840.8054
        48.7504         37.7504
  -3587519.83246  -2585664.96143  24498842.2664                   24498844.1134
        38.2504         22.5004
 -53680297.61747 -41659450.45346  20824079.9694                   20824077.1644
        47.7504         37.7504
 -43631696.84448 -33956200.06647  20668447.5634                   20668444.4384
        48.2504         46.5004
 -32139235.58647 -27388181.90245  21531730.0784                   21531727.7734
        45.2504         33.5004
 -69787132.22347 -54329425.15647  22454519.3054                   22454518.7584
        47.0004         42.7504
 -16713695.94146 -12986063.57846  22994444.5474                   22994445.1254
        41.2504         36.0004
   2983416.70755    403528.61354  24928567.7734                   24928573.3284
        33.5004         27.5004
 -57152097.98847 -44487061.39546  22943204.1564                   22943205.3714
        43.2504         38.2504
 25  7  1  0 18  0.0000000  0 10G25G02G04G28G31G01G32G03G26G10
  -2246469.83246  -3848090.55544  24367841.1254                   24367844.4574
        38.5004         28.0004
 -49921997.46948 -41160967.23846  21316945.2974                   21316940.9384
        49.2504         37.7504
  -3758046.62946  -2718542.79343  24466391.3364                   24466394.0944
        38.5004         22.5004
 -53762046.89548 -41723151.19146  20808523.5394                   20808520.9494
        48.2504         37.2504
 -43781759.60548 -34073132.07047  20639890.9774                   20639888.3094
        48.0004         46.7504
 -32281643.54747 -27499149.12145  21504630.3834                   21504628.5204
        46.2504         32.7504
 -69813195.27047 -54349734.05947  22449559.3444                   22449559.5044
        47.7504         42.7504
 -16889910.98446 -13123373.93445  22960910.8984                   22960912.7704
        41.0004         35.5004
   2805178.75045    264642.04344  24894650.6174                   24894655.8524
        33.7504         29.0004
 -57178958.17647 -44507991.47346  22938093.2344                   22938093.9924
        43.5004         37.7504
 25  7  1  0 18 30.0000000  0 10G25G02G04G28G31G01G32G03G26G10
  -2353515.30146  -3931502.52744  24347470.3594                   24347473.6414
        39.0004         27.5004
 -49999781.00048 -41221577.79746  21302143.4384                   21302138.7814
        49.5004         38.0004
  -3928434.45746  -2851312.35944  24433967.9224                   24433970.2974
        39.0004         24.0004
 -53843205.10548 -41786391.35246  20793079.9924                   20793076.9144
        48.2504         37.7504
 -43931270.31647 -34189633.90247  20611440.5234                   20611437.7344
        47.7504         46.7504
 -32423546.91447 -27609723.15645  21477627.3364                   21477625.3054
        45.5004         33.0004
 -69839180.94547 -54369982.66847  22444614.4694                   22444614.4264
        46.7504         42.2504
 -17066089.26647 -13260655.65246  22927386.2584                   22927387.7194
        42.0004         36.7504
   2626823.67245    125664.20744  24860710.2274                   24860714.8484
        35.0004         25.7504
 -57205559.37547 -44528719.72746  22933032.0474                   22933032.6684
        43.2504         37.5004
 25  7  1  0 19  0.0000000  0 10G25G02G04G28G31G01G32G03G26G10
  -2460058.69146  -4014523.34444  24327196.9844                   24327198.2504
        40.7504         26.7504
 -50077040.01248 -41281779.64146  21287441.3754                   21287436.7344
        49.0004         38.2504
  -4098678.50046  -2983969.88344  24401571.0554                   24401573.9144
        38.5004         24.5004
 -53923768.28547 -41849167.85546  20777749.0084                   20777746.3524
        47.7504         37.5004
 -44080222.53547 -34305700.53547  20583095.7814                   20583092.8164
        47.7504         47.0004
 -32564939.18447 -27719898.91845  21450721.0864                   21450719.1564
        47.0004         33.5004
 -69865085.70747 -54390168.22747  22439685.1414                   22439684.6764
        46.0004         42.0004
 -17242225.01246 -13397904.21945  22893867.8754                   22893869.8164
        41.0004         35.0004
   2448358.55945    -13399.39543  24826748.4224                   24826753.6884
        31.7504         23.0004
 -57231896.94547 -44549242.55146  22928020.0084                   22928020.9264
        43.7504         38.0004
 25  7  1  0 19 30.0000000  0 10G25G02G04G28G31G01G32G03G26G10
  -2566100.91046  -4097153.69143  24307017.6564                   24307018.4694
        38.7504         23.0004
 -50153777.33248 -41341574.97346  21272838.6094                   21272834.4804
        49.0004         38.0004
  -4268781.01646  -3116517.18043  24369201.8754                   24369204.1804
        37.7504         22.5004
 -54003739.64848 -41911483.21146  20762530.8914                   20762528.3364
        48.0004         37.2504
 -44228616.28147 -34421332.00447  20554857.2194                   20554854.2584
        47.5004         46.7504
 -32705820.84047 -27829676.82845  21423912.3834                   21423910.3954
        46.7504         33.7504
 -69890912.97747 -54410293.41046  22434770.2034                   22434769.8244
        45.7504         41.7504
 -17418319.43446 -13535120.58645  22860358.0554                   22860359.6764
        40.2504         35.7504
   2269783.69945   -152548.48444  24792767.6334                   24792771.8014
        34.5004         26.5004
 -57257973.29747 -44569561.82446  22923057.7814                   22923058.4884
        43.7504         38.0004
 25  7  1  0 20  0.0000000  0 10G25G02G04G28G31G01G32G03G26G10
  -2671638.61346  -4179390.83244  24286934.1884                   24286936.6524
        38.0004         26.0004
 -50229991.62948 -41400962.75846  21258336.1804                   21258331.6994
        49.5004         38.2504
  -4438739.91846  -3248952.57843  24336858.4694                   24336861.6334
        38.0004         20.7504
 -54083118.12148 -41973336.55546  20747425.5474                   20747423.1644
        48.0004         37.7504
 -44376448.57848 -34536525.97747  20526725.9774                   20526722.4844
        48.5004         46.7504
 -32846188.25847 -27939054.02745  21397201.2274                   21397199.1724
        46.7504         33.7504
 -69916661.88347 -54430357.53946  22429870.3364                   22429870.0234
        47.0004         41.5004
 -17594369.54346 -13672302.43046  22826857.7424                   22826859.1214
        41.0004         36.0004
   2091103.34445   -291779.77044  24758765.0394                   24758770.2854
        34.0004         25.0004
 -57283786.68747 -44589676.21546  22918145.5314                   22918146.5514
        44.2504         38.0004
 25  7  1  0 20 30.0000000  0 10G25G02G04G28G31G01G32G03G26G10
  -2776675.44546  -4261237.65244  24266945.7274                   24266948.9884
        36.0004         25.0004
 -50305688.25047 -41459947.15246  21243931.2894                   21243927.0004
        47.2504         38.2504
  -4608560.02346  -3381279.77343  24304543.0394                   24304545.9104
        40.7504         22.7504
 -54161909.39547 -42034732.35946  20732432.2814                   20732429.6564
        46.0004         37.5004
 -44523722.17648 -34651284.60247  20498700.5474                   20498697.2424
        48.5004         46.7504
 -32986044.47347 -28048032.87945  21370587.2034                   21370585.2814
        46.0004         33.7504
 -69942338.44547 -54450365.28547  22424984.4924                   22424984.3674
        46.7504         42.0004
 -17770379.05547 -13809452.66046  22793364.2114                   22793365.2544
        42.5004         36.5004
   1912315.24645   -431094.98043  24724742.8834                   24724748.2234
        35.2504         23.7504
 -57309342.10547 -44609589.58246  22913282.8674                   22913283.5274
        44.2504         38.0004
 25  7  1  0 21  0.0000000  0 10G25G02G04G28G31G01G32G03G26G10
  -2881207.55546  -4342691.22744  24247054.9844                   24247056.2734
        38.2504         26.5004
 -50380865.63348 -41518526.95746  21229625.3914                   21229621.3634
        49.2504         37.7504
  -4778238.79346  -3513496.79744  24272254.9534                   24272257.6484
        41.5004         24.0004
 -54240111.91448 -42095669.39546  20717551.0394                   20717548.2734
        48.2504         37.5004
 -44670432.57448 -34765604.37147  20470782.6094                   20470778.9104
        48.5004         46.5004
 -33125385.28547 -28156610.13345  21344071.9144                   21344069.4104
        46.2504         33.2504
 -69967941.27747 -54470315.57446  22420112.2734                   22420112.3014
        46.2504         41.7504
 -17946344.45347 -13946568.51246  22759878.8054                   22759880.3954
        42.0004         37.5004
   1733424.42245   -570490.32443  24690700.2894                   24690705.8754
        35.0004         22.7504
 -57334637.27047 -44629300.13746  22908469.1174                   22908469.5634
        44.5004         37.7504
 25  7  1  0 21 30.0000000  0 10G25G02G04G28G31G01G32G03G26G10
  -1409811.56246  -3196148.88344  24527051.5314                   24527054.0634
        36.7504         27.0004
 -48880103.21947 -40349101.71546  21515211.2424                   21515206.6884
        47.0004         38.0004
  -3372351.90246  -2418000.33643  24539786.1414                   24539788.8204
        39.5004         22.0004
 -52742305.44947 -40928547.47746  21002573.7734                   21002571.4454
        46.5004         38.0004
 -43241154.86748 -33651881.46547  20742764.6094                   20742761.7074
        48.0004         46.5004
 -31688785.81647 -27037181.95345  21617447.4534                   21617445.7194
        45.2504         33.7504
 -68418051.95347 -53262609.65646  22715046.5704                   22715046.0004
        46.2504         41.7504
 -16546840.12547 -12856045.60246  23026195.6954                   23026197.0514
        42.2504         36.0004
   3129857.87546    517639.73043  24956432.8834                   24956439.1764
        36.0004         23.7504
 -55784252.82847 -43421208.41446  23203497.7894                   23203498.0434
        44.2504         37.2504
 25  7  1  0 22  0.0000000  0 10G25G02G04G28G31G01G32G03G26G10
  -1513334.49246  -3276816.04744  24507351.5314                   24507354.2584
        37.2504         27.7504
 -48954248.13748 -40406876.99646  21501101.9384                   21501097.0944
        49.5004         37.5004
  -3541751.88346  -2550000.18443  24507550.5164                   24507552.0824
        39.7504         21.2504
 -52819337.46148 -40988572.42646  20987915.4064                   20987912.4224
        48.2504         38.2504
 -43386738.37548 -33765323.14547  20715061.4224                   20715058.2734
        48.5004         46.5004
 -31827094.88747 -27144955.23845  21591128.3364                   21591126.0474
        46.5004         33.5004
 -68443514.62547 -53282450.73047  22710200.9534                   22710200.8634
        47.0004         42.0004
 -16722718.00846 -12993093.27746  22992726.6644                   22992727.4884
        41.5004         36.0004
   2950764.94146    378086.87144  24922353.4304                   24922359.0784
        36.7504         24.7504
 -55809032.01247 -43440516.91046  23198781.6254                   23198782.8134
        44.0004         36.0004
 25  7  1  0 22 30.0000000  0 10G25G02G04G28G31G01G32G03G26G10
  -1616351.53546  -3357089.06244  24487747.9844                   24487750.0594
        38.0004         27.0004
 -49027878.47347 -40464251.30146  21487090.5394                   21487085.7814
        47.0004         37.0004
  -3711012.96146  -2681891.82043  24475340.8524                   24475343.0634
        39.7504         20.2504
 -52895786.30547 -41048142.95346  20973367.7584                   20973365.4654
        46.7504         38.5004
 -43531756.27048 -33878324.07447  20687465.2974                   20687462.1524
        48.5004         46.7504
 -31964886.23847 -27252325.10945  21564907.3914                   21564905.0744
        45.7504         34.5004
 -68468909.49647 -53302238.96947  22705368.8134                   22705368.2114
        47.0004         42.0004
 -16898551.04746 -13130105.99646  22959267.3134                   22959268.3014
        41.2504         36.5004
   2771573.97746    238457.69543  24888253.6954                   24888259.4024
        37.0004         22.7504
 -55833554.12547 -43459625.10246  23194115.6724                   23194116.4104
        44.2504         36.7504
 25  7  1  0 23  0.0000000  0 10G25G02G04G28G31G01G32G03G26G10
  -1718862.52346  -3436967.74244  24468241.3364                   24468243.9534
        37.2504         27.0004
 -49100996.00848 -40521226.02346  21473176.6334                   21473171.8714
        49.2504         37.0004
  -3880136.13346  -2813676.00843  24443156.7114                   24443159.5944
        38.0004         18.5004
 -52971653.99247 -41107260.63346  20958930.5704                   20958927.9344
        47.5004         38.5004
 -43676208.44148 -33990884.18047  20659977.1484                   20659973.9264
        49.0004         46.5004
 -32102159.11347 -27359290.99245  21538785.0394                   21538783.4844
        46.5004         34.5004
 -68494238.62547 -53321975.98047  22700548.9694                   22700548.9104
        46.5004         42.2504
 -17074339.13346 -13267083.66846  22925815.9454                   22925817.1334
        41.7504         36.5004
   2592286.71946     98753.41043  24854136.4694                   24854141.0204
        36.5004         22.0004
 -55857820.35547 -43478533.89846  23189498.3284                   23189498.8364
        44.5004         37.0004
 25  7  1  0 23 30.0000000  0 10G25G02G04G28G31G01G32G03G26G10
  -1820862.74646  -3516448.44544  24448831.8204                   24448833.4804
        38.5004         27.0004
 -49173597.64148 -40577798.75046  21459361.1884                   21459356.7424
        49.0004         37.0004
  -4049117.84846  -2945349.91043  24411000.7114                   24411003.5594
        39.2504         19.7504
 -53046938.02048 -41165923.52346  20944604.1564                   20944601.6994
        49.0004         38.2504
 -43820089.50848 -34102999.26247  20632597.2114                   20632594.0124
        49.0004         46.2504
 -32238908.36747 -27465848.86345  21512762.5394                   21512760.7304
        46.0004         34.7504
 -68519499.51647 -53341659.84047  22695741.9064                   22695741.9774
        46.0004         42.7504
 -17250077.55146 -13404022.67246  22892373.2664                   22892374.7504
        40.7504         36.2504
   2412909.18046    -41021.08243  24820001.9774                   24820006.0274
        38.5004         22.7504
 -55881827.39547 -43497240.73446  23184930.1024                   23184930.3054
        44.2504         37.2504
 25  7  1  0 24  0.0000000  0 10G25G02G04G28G31G01G32G03G26G10
  -1922349.54346  -3595529.05944  24429518.4454                   24429521.3164
        36.0004         24.5004
 -49245683.34447 -40633969.44946  21445643.8754                   21445639.2544
        47.0004         37.5004
  -4217956.69946  -3076912.54742  24378872.1254                   24378874.4384
        39.2504         17.7504
 -53121638.04747 -41224131.34846  20930389.5864                   20930386.8404
        46.7504         38.7504
 -43963396.20748 -34214666.78947  20605326.7974                   20605323.8404
        48.0004         46.0004
 -32375131.00447 -27571996.36345  21486840.4844                   21486838.4614
        45.0004         34.2504
 -68544691.84847 -53361290.25846  22690947.8444                   22690948.0434
        44.7504         41.7504
 -17425763.81246 -13540921.00845  22858941.1724                   22858942.4574
        40.5004         35.7504
   2233445.34446   -180862.91844  24785851.5864                   24785856.9774
        38.0004         27.0004
 -55905574.07447 -43515744.68746  23180410.6724                   23180411.7584
        42.2504         37.5004
 25  7  1  0 24 30.0000000  0 10G25G02G04G28G31G01G32G03G26G10
  -2023324.54746  -3674210.83244  24410304.0864                   24410306.3714
        36.5004         26.0004
 -49317256.15248 -40689740.48446  21432023.7584                   21432019.0474
        48.2504         37.2504
  -4386655.07446  -3208365.70742  24346769.8134                   24346772.5434
        39.0004         16.7504
 -53195757.76248 -41281886.97746  20916284.9694                   20916282.4224
        48.5004         38.7504
 -44106129.80548 -34325887.74647  20578165.7424                   20578162.4494
        48.0004         46.0004
 -32510828.05147 -27677734.30945  21461018.0474                   21461016.0274
        46.5004         33.5004
 -68569819.26247 -53380870.09046  22686166.2814                   22686166.2734
        45.7504         41.5004
 -17601399.26246 -13677779.75446  22825519.6484                   22825520.3444
        41.0004         36.0004
   2053895.08646   -320772.12544  24751684.2584                   24751689.1054
        37.2504         25.7504
 -55929063.14147 -43534047.90246  23175941.1954                   23175942.2504
        43.0004         37.0004
 25  7  1  0 25  0.0000000  0 10G25G02G04G28G31G01G32G03G26G10
  -2123784.41846  -3752491.23844  24391186.4694                   24391190.2114
        36.5004         27.2504
 -49388314.96148 -40745111.00446  21418501.5394                   21418497.3164
        49.0004         37.0004
  -4555211.14545  -3339707.90642  24314694.7194                   24314697.8714
        35.7504         14.7504
 -53269296.36748 -41339189.77746  20902290.9064                   20902288.1764
        48.2504         38.2504
 -44248286.68447 -34436659.32447  20551113.6484                   20551110.6914
        47.7504         46.2504
 -32645995.95747 -27783059.91045  21435296.6884                   21435294.3484
        47.2504         33.5004
 -68594880.88347 -53400398.64546  22681397.7194                   22681397.1454
        45.2504         41.7504
 -17776980.81246 -13814596.50846  22792107.5314                   22792108.5944
        41.0004         37.0004
   1874262.92246   -460745.10544  24717502.3204                   24717506.1024
        38.2504         27.0004
 -55952293.00047 -43552149.16446  23171520.9924                   23171521.8054
        42.0004         37.5004
 25  7  1  0 25 30.0000000  0 10G25G02G04G28G31G01G32G03G26G10
  -2223731.93446  -3830372.33244  24372167.5554                   24372169.8524
        36.0004         27.2504
 -49458864.53148 -40800084.71946  21405076.7664                   21405072.1564
        49.0004         36.7504
  -4723628.512 5                  24282644.656
        32.500
 -53342258.54748 -41396043.43746  20888406.6564                   20888403.8754
        48.7504         38.5004
 -44389869.10547 -34546983.26647  20524171.8754                   20524168.4694
        47.7504         46.5004
 -32780636.71947 -27887974.75845  21409675.5634                   21409673.0204
        47.2504         34.7504
 -68619881.28947 -53419879.52046  22676639.9304                   22676639.7774
        45.7504         41.5004
 -17952510.93047 -13951373.17246  22758705.3364                   22758705.9774
        42.7504         36.5004
   1694547.86745   -600782.68744  24683303.3444                   24683307.6294
        35.0004         25.7504
 -55975267.41447 -43570051.36746  23167149.4924                   23167150.1764
        42.5004         37.2504
 25  7  1  0 26  0.0000000  0 10G25G02G04G28G31G01G32G03G26G10
  -2323166.97346  -3907854.20344  24353246.2034                   24353247.7894
        36.7504         27.7504
 -49528906.64548 -40854663.00846  21391748.2814                   21391743.5394
        48.5004         37.0004
  -4891908.207 5                  24250622.977
        33.000
 -53414646.66448 -41452449.76246  20874631.5084                   20874629.1564
        48.2504         38.5004
 -44530876.50448 -34656859.14547  20497338.8204                   20497335.6884
        48.5004         46.5004
 -32914749.97747 -27992478.59445  21384154.1334                   21384152.5594
        45.7504         33.5004
 -68644822.71547 -53439314.41846  22671893.5474                   22671893.7464
        46.2504         41.0004
 -18127989.59047 -14088109.73446  22725312.3524                   22725313.2194
        42.0004         36.5004
   1514751.37145   -740883.68043  24649087.4224                   24649092.6054
        34.7504         22.5004
 -55997987.90247 -43587755.70346  23162825.4224                   23162826.9064
        43.0004         36.5004
 25  7  1  0 26 30.0000000  0 10G25G02G04G28G31G01G32G03G26G10
  -2422086.75445  -3984934.53544  24334421.4614                   24334424.6764
        35.7504         27.5004
 -49598440.51648 -40908845.27046  21378516.5164                   21378511.7194
        48.5004         36.5004
  -5060048.562 5                  24218626.586
        31.750
 -53486460.08247 -41508408.27346  20860966.1564                   20860963.2774
        47.5004         38.7504
 -44671305.50048 -34766284.32447  20470616.0554                   20470613.0984
        49.0004         47.0004
 -33048332.43447 -28096568.83645  21358733.9774                   21358732.5164
        44.5004         33.7504
 -68669704.35947 -53458702.74646  22667158.9534                   22667158.5124
        47.0004         41.5004
 -18303413.77047 -14224803.85546  22691930.2584                   22691931.1054
        42.0004         36.5004
   1334877.71955   -881044.87153  24614859.4534                   24614863.5944
        30.5004         21.7504
 -56020452.88747 -43605260.94146  23158550.0394                   23158551.3634
        42.0004         36.2504
 25  7  1  0 27  0.0000000  0 10G25G02G04G28G31G01G32G03G26G10
  -2520489.75045  -4061612.16444  24315696.8674                   24315698.1484
        35.0004         26.7504
 -49667466.47748 -40962631.75046  21365381.1724                   21365376.4184
        49.0004         37.0004
  -5228049.078 5                  24186657.398
        33.000
 -53557699.52748 -41563919.53146  20847409.6804                   20847407.3524
        48.0004         38.5004
 -44811154.29748 -34875257.39847  20444003.6254                   20444000.6254
        48.7504         47.0004
 -33181382.03547 -28200243.86745  21333415.6414                   21333413.9144
        46.2504         35.0004
 -68694526.75447 -53478044.89846  22662435.3834                   22662435.8054
        47.5004         41.5004
 -18478781.73047 -14361454.14146  22658558.6724                   22658560.6214
        42.5004         38.0004
   1154929.94555  -1021263.68053  24580617.0634                   24580621.0594
        32.5004         23.0004
 -56042662.13346 -43622566.90646  23154324.2114                   23154325.3524
        41.2504         37.0004
 25  7  1  0 27 30.0000000  0 10G25G02G04G28G31G01G32G03G26G10
  -2618376.39545  -4137887.46944  24297068.9454                   24297071.1134
        35.5004         25.0004
 -49735986.91448 -41016024.31246  21352342.3524                   21352337.8324
        48.0004         37.7504
  -5395911.098 5                  24154714.117
        33.250
 -53628367.62548 -41618985.58246  20833961.6884                   20833959.2734
        48.0004         38.2504
 -44950423.16448 -34983778.57047  20417501.7504                   20417498.6524
        49.2504         46.7504
 -33313898.80147 -28303503.67245  21308198.8364                   21308196.9654
        47.2504         35.5004
 -68719292.29747 -53497342.74647  22657722.5634                   22657722.8834
        47.5004         42.0004
 -18654093.71547 -14498060.82046  22625197.6024                   22625198.5744
        43.0004         36.5004
    974909.47745  -1161539.21143  24546359.3674                   24546363.6994
        33.2504         22.7504
 -56064617.37146 -43639674.93446  23150145.8674                   23150147.1334
        41.5004         37.5004
 25  7  1  0 28  0.0000000  0 10G25G02G04G28G31G01G32G03G26G10
  -2715747.45346  -4213760.98044  24278540.2734                   24278543.0904
        36.5004         27.5004
 -49804004.34048 -41069024.92246  21339399.0004                   21339394.4454
        48.7504         37.5004
  -5563636.461 5                  24122797.578
        32.250
 -53698467.45347 -41673608.81246  20820622.1334                   20820619.6024
        46.0004         37.5004
 -45089112.17648 -35091847.90647  20391109.9224                   20391106.9344
        48.2504         46.5004
 -33445883.00447 -28406348.48845  21283083.0944                   21283080.8484
        47.0004         35.2504
 -68744003.78547 -53516598.48846  22653020.0864                   22653020.4264
        45.5004         41.7504
 -18829350.27047 -14634624.32846  22591847.9844                   22591848.5634
        42.5004         36.5004
    794817.00045  -1301870.78944  24512088.2584                   24512092.3634
        34.5004         26.2504
 -56086320.67646 -43656586.66446  23146016.0314                   23146017.3244
        41.2504         37.0004
 25  7  1  0 28 30.0000000  0 10G25G02G04G28G31G01G32G03G26G10
  -2812601.37546  -4289231.59444  24260109.5634                   24260112.1954
        37.2504         27.0004
 -49871519.68048 -41121634.29746  21326551.0394                   21326546.5314
        48.5004         38.0004
  -5731224.54715                  24090906.609
        30.500
 -53767999.60947 -41727789.72346  20807390.6254                   20807388.2114
        46.2504         37.5004
 -45227219.30148 -35199463.83247  20364829.0864                   20364826.1914
        48.7504         46.5004
 -33577332.57047 -28508776.67645  21258068.8834                   21258066.9884
        47.5004         35.0004
 -68768661.60547 -53535812.40247  22648328.3674                   22648328.2234
        47.0004         42.0004
 -19004549.50447 -14771143.13746  22558508.4304                   22558508.9104
        42.2504         36.0004
    614655.84046  -1442255.99244  24477805.4454                   24477808.4614
        36.2504         27.5004
 -56107771.71547 -43673301.83246  23141934.3364                   23141935.7854
        43.0004         38.5004
 25  7  1  0 29  0.0000000  0  9G25G02G28G31G01G32G03G26G10
  -2908934.96146  -4364296.70744  24241777.9384                   24241780.3754
        36.5004         28.0004
 -49938531.26247 -41173851.13346  21313799.5704                   21313794.9454
        46.5004         37.5004
 -53836963.23847 -41781527.60546  20794267.5164                   20794265.0634
        45.2504         37.0004
 -45364741.37548 -35306623.87947  20338659.6024                   20338656.2934
        49.0004         46.5004
 -33708243.87547 -28610785.44945  21233157.3364                   21233155.5824
        46.5004         33.7504
 -68793264.51247 -53554983.53147  22643646.7424                   22643646.3634
        46.2504         42.0004
 -19179688.07447 -14907614.69146  22525180.3444                   22525181.3754
        43.0004         36.7504
    434430.73845  -1582690.98044  24443508.8834                   24443513.2584
        35.0004         28.7504
 -56128968.63347 -43689818.97346  23137901.0084                   23137901.7734
        43.0004         38.2504
 25  7  1  0 29 30.0000000  0  9G25G02G28G31G01G32G03G26G10
  -3004750.28546  -4438958.01244  24223545.1484                   24223547.5004
        38.0004         28.7504
 -50005042.98847 -41225678.46946  21301142.7194                   21301138.0084
        46.5004         38.0004
 -53905362.46547 -41834825.71146  20781251.4924                   20781248.8874
        45.2504         37.5004
 -45501679.59848 -35413328.96147  20312601.0634                   20312598.0394
        48.7504         46.7504
 -33838618.31647 -28712375.91845  21208347.4224                   21208346.1414
        45.5004         33.5004
 -68817816.27047 -53574114.81647  22638974.5394                   22638973.9574
        47.0004         42.0004
 -19354767.47347 -15044040.14846  22491864.4694                   22491865.0004
        43.5004         37.5004
    254141.62145  -1723175.86744  24409201.9384                   24409205.3284
        35.5004         28.2504
 -56149914.55147 -43706140.52746  23133914.8284                   23133915.9064
        42.5004         36.7504
 25  7  1  0 30  0.0000000  0  9G25G02G28G31G01G32G03G26G10
  -1524621.07845  -3285610.57844  24505204.6724                   24505205.8244
        35.0004         28.0004
 -48495631.85548 -40049513.97346  21588374.0234                   21588369.4694
        48.5004         36.7504
 -52397774.39847 -40660081.76646  21068135.9614                   21068133.7114
        46.5004         37.0004
 -44062605.93748 -34291972.84047  20586447.9064                   20586444.5354
        49.0004         46.7504
 -32393028.19947 -27585942.05145  21483434.4694                   21483432.5434
        45.5004         33.7504
 -67266895.11347 -52365604.84846  22934104.4454                   22934104.4884
        46.2504         41.5004
 -17954358.62947 -13952812.41046  22758353.1954                   22758353.4964
        43.0004         37.5004
   1649218.93445   -636102.43044  24674674.7114                   24674680.4414
        33.2504         26.7504
 -54595187.13347 -42494664.66446  23429769.8134                   23429770.8554
        43.0004         36.2504
 25  7  1  0 30 30.0000000  0 10G25G02G04G28G31G01G32G03G26G10
  -1619394.01645  -3359459.61744  24487169.5234                   24487171.6094
        35.5004         27.7504
 -48561144.41047 -40100562.73046  21575907.2504                   21575902.9184
        47.5004         36.7504
   6171567.14115                  24263398.898
        34.500
 -52465045.87947 -40712501.10246  21055334.6804                   21055332.3324
        46.5004         36.7504
 -44198369.20348 -34397762.37547  20560612.7734                   20560609.4384
        49.5004         47.0004
 -32522321.79347 -27686690.29345  21458830.9844                   21458828.9184
        46.0004         35.2504
 -67291344.52347 -52384656.37546  22929452.6024                   22929452.4804
        46.2504         41.2504
 -18129312.92247 -14089140.37546  22725060.6174                   22725060.7194
        43.2504         37.5004
   1468812.61345   -776678.62144  24640346.1094                   24640349.3754
        35.7504         28.0004
 -54615629.09847 -42510593.54346  23425879.7424                   23425881.3674
        43.5004         36.7504
 25  7  1  0 31  0.0000000  0 10G25G02G04G28G31G01G32G03G26G10
  -1713641.27345  -3432899.04744  24469234.6724                   24469237.3874
        34.7504         26.2504
 -48626155.71547 -40151220.90246  21563536.0084                   21563531.4024
        46.0004         36.7504
   6004672.35546  -2244826.36353  24231639.6954                   24231640.3284
        36.7504         18.2504
 -52531752.40247 -40764480.22346  21042640.8204                   21042638.4734
        46.0004         37.2504
 -44333539.65648 -34503089.97347  20534890.6334                   20534887.2974
        50.0004         47.0004
 -32651069.83247 -27787013.43445  21434330.7504                   21434328.9304
        46.7504         35.0004
 -67315741.01247 -52403666.66046  22924809.8594                   22924810.0864
        46.0004         41.5004
 -18304199.58247 -14225415.62546  22691781.2424                   22691780.9774
        43.0004         37.2504
   1288354.75445   -917294.94144  24606005.0234                   24606009.0474
        35.0004         26.5004
 -54635816.44147 -42526324.00846  23422038.6024                   23422039.8554
        42.7504         37.0004
 25  7  1  0 31 30.0000000  0 10G25G02G04G28G31G01G32G03G26G10
  -1807368.79746  -3505933.49644  24451398.6724                   24451400.8874
        36.0004         27.5004
 -48690673.59847 -40201494.60546  21551258.9614                   21551254.0634
        46.7504         36.7504
   5837911.89145  -2374769.45342  24199905.6174                   24199907.7544
        35.2504         17.7504
 -52597902.12147 -40816025.46546  21030052.7814                   21030050.5944
        46.7504         37.2504
 -44468123.53148 -34607960.50847  20509280.3284                   20509276.9924
        49.7504         47.2504
 -32779277.65247 -27886915.62945  21409933.5784                   21409932.0594
        46.5004         35.0004
 -67340092.34047 -52422641.76246  22920176.1564                   22920176.0634
        46.2504         41.0004
 -18479024.02047 -14361642.42646  22658512.7114                   22658513.0864
        42.7504         38.0004
   1107841.48846  -1057954.49244  24571654.6414                   24571658.7734
        37.5004         29.7504
 -54655756.29347 -42541861.63346  23418243.7344                   23418245.8404
        43.5004         37.0004
 25  7  1  0 32  0.0000000  0 10G25G02G04G28G31G01G32G03G26G10
  -1900576.62145  -3578562.95744  24433662.5394                   24433665.3554
        34.2504         26.5004
 -48754700.24247 -40251385.51246  21539074.9454                   21539070.4384
        47.0004         36.7504
   5671285.00045  -2504608.44542  24168197.8284                   24168200.0084
        33.7504         17.2504
 -52663497.22747 -40867138.54346  21017570.7114                   21017568.2034
        47.2504         37.5004
 -44602120.37948 -34712373.61347  20483781.6254                   20483778.3984
        50.0004         47.2504
 -32906944.75047 -27986396.47745  21385639.4224                   21385637.4224
        45.2504         35.0004
 -67364400.11347 -52441582.93446  22915550.4614                   22915550.5514
        46.0004         41.0004
 -18653785.76647 -14497820.34046  22625255.9534                   22625256.7974
        43.7504         38.2504
    927274.60546  -1198655.80145  24537294.1174                   24537298.5004
        39.2504         32.5004
 -54675449.77747 -42557207.28546  23414496.3914                   23414498.1484
        43.0004         36.0004
 25  7  1  0 32 30.0000000  0 10G25G02G04G28G31G01G32G03G26G10
  -1993257.75045  -3650781.96944  24416025.0474                   24416027.8324
        32.5004         24.5004
 -48818230.26247 -40300889.44546  21526985.4924                   21526981.0514
        46.0004         37.5004
   5504797.77345  -2634338.66042  24136515.0004                   24136518.2274
        34.2504         16.2504
 -52728532.88347 -40917815.69546  21005194.8524                   21005192.4304
        47.7504         37.2504
 -44735522.61748 -34816323.38747  20458395.9304                   20458392.5164
        49.0004         47.0004
 -33034063.50047 -28085450.03145  21361449.4384                   21361447.5084
        45.5004         34.0004
 -67388658.97347 -52460485.98046  22910934.3134                   22910934.2304
        47.0004         41.5004
 -18828477.18447 -14633943.48046  22592013.9144                   22592014.3094
        43.2504         38.0004
    746663.03946  -1339391.96545  24502925.0314                   24502928.8094
        40.0004         34.0004
 -54694891.04747 -42572356.39546  23410797.0084                   23410798.5474
        43.2504         36.7504
 25  7  1  0 33  0.0000000  0 10G25G02G04G28G31G01G32G03G26G10
  -2085414.65645  -3722592.53944  24398487.7194                   24398490.9384
        33.5004         24.0004
 -48881267.98447 -40350009.78146  21514989.9224                   21514985.6134
        46.7504         37.5004
   5338447.03146  -2763962.45742  24104860.5474                   24104862.1214
        37.0004         17.7504
 -52793013.87947 -40968060.63746  20992924.1564                   20992921.6054
        46.2504         37.0004
 -44868331.93448 -34919811.15647  20433122.8914                   20433119.5984
        48.7504         46.7504
 -33160635.99247 -28184077.94545  21337363.2974                   21337361.2464
        45.5004         34.0004
 -67412873.19147 -52479354.23046  22906326.4384                   22906326.1334
        47.2504         41.0004
 -19003100.26647 -14770013.37146  22558783.7194                   22558785.1884
        43.7504         38.2504
    566006.34046  -1480163.28145  24468546.2114                   24468550.6644
        39.7504         34.0004
 -54714083.68047 -42587311.77346  23407144.7734                   23407146.4734
        43.2504         36.2504
 25  7  1  0 33 30.0000000  0 10G25G02G04G28G31G01G32G03G26G10
  -2177047.77745  -3793994.97344  24381051.3594                   24381053.7114
        34.5004         25.5004
 -48943816.05547 -40398748.57046  21503087.5784                   21503083.0004
        46.7504         37.5004
   5172231.37546  -2893481.03143  24073231.0864                   24073232.1724
        39.0004         21.0004
 -52856942.87547 -41017875.45746  20980759.1564                   20980756.2854
        46.2504         37.5004
 -45000548.73848 -35022837.21947  20407962.8054                   20407959.7034
        48.7504         46.5004
 -33286662.17247 -28282280.13745  21313381.6254                   21313379.2704
        46.0004         34.0004
 -67437044.79747 -52498189.28546  22901726.7034                   22901726.4024
        47.0004         41.0004
 -19177654.85547 -14906029.90646  22525566.5784                   22525568.4964
        43.5004         39.0004
    385305.85246  -1620968.68045  24434159.9224                   24434164.0164
        40.2504         31.7504
 -54733029.37547 -42602074.71146  23403539.8444                   23403540.7034
        44.0004         36.5004
 25  7  1  0 34  0.0000000  0 10G25G02G04G28G31G01G32G03G26G10
  -2268154.20345  -3864987.02744  24363713.7504                   24363716.1414
        35.0004         24.5004
 -49005873.34847 -40447104.93746  21491278.4694                   21491274.0704
        47.0004         37.0004
   5006153.03946  -3022892.60943  24041626.8594                   24041628.6524
        38.0004         20.0004
 -52920319.16447 -41067259.58646  20968699.3674                   20968696.1024
        46.2504         37.2504
 -45132169.67248 -35125398.97747  20382916.3834                   20382912.7814
        48.7504         46.5004
 -33412138.52047 -28380053.89845  21289504.2974                   21289502.0594
        47.0004         35.0004
 -67461172.52047 -52516990.14146  22897135.0784                   22897135.4264
        46.0004         41.0004
 -19352137.40647 -15041990.28546  22492364.1884                   22492365.9884
        42.5004         39.5004
    204566.77746  -1761804.20345  24399766.7734                   24399769.3244
        40.0004         31.5004
 -54751726.23447 -42616643.74646  23399981.9614                   23399982.9924
        44.2504         37.5004
 25  7  1  0 34 30.0000000  0 10G25G02G04G28G31G01G32G03G26G10
  -2358734.52346  -3935569.10244  24346477.5004                   24346480.0704
        36.5004         28.0004
 -49067442.32447 -40495080.78946  21479562.0084                   21479557.9304
        47.0004         36.5004
   4840210.53146  -3152198.28143  24010049.0394                   24010050.4774
        38.5004         20.2504
 -52983145.52047 -41116215.20346  20956743.6884                   20956741.1254
        46.0004         37.2504
 -45263194.88348 -35227496.53147  20357983.0554                   20357979.6844
        48.5004         46.5004
 -33537065.11747 -28477399.28545  21265731.6024                   21265729.3444
        45.5004         35.0004
 -67485258.43747 -52535758.44946  22892551.7734                   22892552.4494
        46.2504         41.5004
 -19526547.79347 -15177894.43446  22459175.4144                   22459176.1954
        43.0004         39.7504
     23790.34446  -1902668.78945  24365365.4694                   24365369.6564
        39.5004         31.7504
 -54770175.99247 -42631020.24646  23396471.4534                   23396472.1844
        44.0004         37.5004
 25  7  1  0 35  0.0000000  0 10G25G02G04G28G31G01G32G03G26G10
  -2448787.63745  -4005740.35244  24329341.1174                   24329343.8554
        35.7504         26.5004
 -49128523.93448 -40542676.88346  21467938.5704                   21467934.1254
        48.2504         36.5004
   4674404.50846  -3281397.68443  23978496.8754                   23978498.6644
        37.5004         19.0004
 -53045422.96547 -41164743.09846  20944892.7034                   20944890.3284
        46.2504         37.5004
 -45393622.85548 -35329128.69947  20333163.4614                   20333159.8364
        49.2504         47.0004
 -33661440.27347 -28574314.98845  21242063.6644                   21242061.7274
        45.0004         35.0004
 -67509302.96147 -52554494.48446  22887976.5084                   22887976.7854
        45.5004         40.7504
 -19700884.11347 -15313740.87546  22426000.0704                   22426001.2934
        44.7504         39.7504
   -157020.03946  -2043559.89145  24330959.8984                   24330962.2544
        39.0004         31.5004
 -54788378.52347 -42645204.10246  23393007.5234                   23393008.6334
        44.0004         37.0004
 25  7  1  0 35 30.0000000  0 10G25G02G04G28G31G01G32G03G26G10
  -2538311.00045  -4075498.84044  24312304.9614                   24312306.7624
        35.0004         26.5004
 -49189117.29347 -40589892.52046  21456408.4384                   21456403.5314
        47.7504         37.2504
   4508736.57846  -3410489.45743  23946971.2734                   23946973.2664
        36.7504         18.2504
 -53107151.28147 -41212843.08246  20933146.0864                   20933143.8324
        46.5004         37.7504
 -45523450.48048 -35430293.07447  20308458.0084                   20308454.6524
        48.7504         47.0004
 -33785260.99647 -28670798.67245  21218501.1174                   21218499.1724
        44.7504         35.2504
 -67533305.08647 -52573197.47346  22883409.0004                   22883409.2464
        46.0004         40.7504
 -19875143.23847 -15449527.17246  22392839.8524                   22392840.8984
        44.5004         40.2504
   -337859.97746  -2184473.95744  24296545.8984                   24296549.1564
        38.2504         28.7504
 -54806332.39547 -42659194.21946  23389590.7814                   23389592.0514
        44.2504         37.0004
 25  7  1  0 36  0.0000000  0 10G25G02G04G28G31G01G32G03G26G10
  -2627304.25045  -4144844.25844  24295370.5634                   24295372.7544
        35.5004         27.5004
 -49249223.93447 -40636728.88746  21444970.6564                   21444965.8204
        47.5004         37.0004
   4343206.42646  -3539473.87142  23915472.0864                   23915473.6994
        37.5004         17.7504
 -53168332.34447 -41260516.64846  20921503.7274                   20921501.1294
        46.5004         37.7504
 -45652677.00848 -35530989.05147  20283866.9534                   20283863.4844
        49.5004         47.0004
 -33908526.39847 -28766849.64545  21195044.7664                   21195042.8914
        44.5004         35.0004
 -67557266.02047 -52591868.37146  22878850.1024                   22878849.4884
        46.2504         40.7504
 -20049324.02347 -15585252.42246  22359694.0634                   22359695.4104
        43.5004         40.5004
   -518726.85546  -2325409.04744  24262127.8444                   24262130.0904
        38.0004         26.0004
 -54824038.39547 -42672991.17646  23386221.5004                   23386222.6644
        43.5004         36.7504
 25  7  1  0 36 30.0000000  0 10G25G02G04G28G31G01G32G03G26G10
  -2715767.78945  -4213776.87544  24278536.7034                   24278538.9694
        34.5004         27.0004
 -49308846.21947 -40683187.84446  21433624.4304                   21433620.2194
        46.5004         37.5004
   4177813.08246  -3668351.71543  23883998.6334                   23883999.8204
        37.0004         18.2504
 -53228968.58247 -41307765.66446  20909965.0084                   20909962.5354
        46.5004         37.7504
 -45781302.48848 -35631216.68447  20259390.4614                   20259387.0634
        49.2504         47.5004
 -34031236.19547 -28862467.66845  21171693.7424                   21171691.6724
        45.0004         34.7504
 -67581187.43047 -52610508.47746  22874297.5164                   22874296.9844
        46.5004         40.0004
 -20223425.91847 -15720916.19546  22326563.5314                   22326565.0164
        43.7504         40.2504
   -699618.74645  -2466363.66444  24227703.8204                   24227707.2504
        35.0004         24.5004
 -54841497.87547 -42686596.04746  23382899.1564                   23382900.1724
        43.0004         36.0004
 25  7  1  0 37  0.0000000  0 10G25G02G04G28G31G01G32G03G26G10
  -2803701.80546  -4282296.93044  24261803.6414                   24261805.3634
        36.0004         27.7504
 -49367986.30947 -40729271.05546  21422370.8134                   21422366.5904
        46.0004         36.7504
   4012555.52746  -3797123.69143  23852550.2504                   23852552.8484
        37.0004         19.0004
 -53289062.50447 -41354592.10246  20898529.6254                   20898527.1804
        46.2504         38.0004
 -45909327.04348 -35730976.06647  20235028.2814                   20235025.2234
        49.5004         47.5004
 -34153390.16047 -28957652.56245  21148448.6094                   21148446.4734
        46.7504         34.5004
 -67605070.96547 -52629119.06646  22869752.3984                   22869752.8444
        45.5004         40.0004
 -20397448.36747 -15856518.07446  22293448.0864                   22293449.0594
        43.7504         39.2504
   -880533.74646  -2607336.28944  24193277.4694                   24193281.9024
        36.7504         25.7504
 -54858711.98847 -42700009.71145  23379623.4924                   23379624.4144
        42.5004         35.2504
 25  7  1  0 37 30.0000000  0 10G25G02G04G28G31G01G32G03G26G10
  -2891103.47345  -4350402.09444  24245170.8444                   24245173.8874
        34.5004         28.7504
 -49426643.45347 -40774977.94546  21411208.6484                   21411204.2344
        46.7504         36.7504
   3847436.07046  -3925788.11743  23821129.2584                   23821131.5984
        37.5004         18.5004
 -53348613.39547 -41400995.38746  20887197.5234                   20887194.5314
        46.5004         37.7504
 -46036747.26248 -35830264.53547  20210780.7584                   20210777.6094
        49.0004         47.5004
 -34274984.88747 -29052401.68445  21125309.8284                   21125307.7344
        45.5004         34.0004
 -67628915.20347 -52647699.03946  22865215.1174                   22865215.2194
        46.5004         40.2504
 -20571387.59847 -15992055.10546  22260348.4694                   22260349.5394
        44.5004         39.5004
  -1061466.80546  -2748323.00844  24158848.0004                   24158850.4734
        37.5004         24.5004
 -54875678.99646 -42713230.80945  23376394.8834                   23376395.7464
        41.0004         35.0004
 25  7  1  0 38  0.0000000  0 10G25G02G04G28G31G01G32G03G26G10
  -2977975.90646  -4418094.96944  24228640.0944                   24228642.0394
        36.2504         28.2504
 -49484822.50447 -40820312.29346  21400137.2274                   21400132.8244
        46.0004         36.5004
   3682450.97746  -4054347.80143  23789734.6484                   23789735.9414
        36.5004         19.0004
 -53407626.55147 -41446979.67246  20875967.6174                   20875964.9804
        46.7504         37.2504
 -46163565.74648 -35929084.11747  20186648.5554                   20186644.8754
        49.5004         47.5004
 -34396022.85247 -29146716.96545  21102277.1884                   21102274.8954
        46.0004         34.7504
 -67652724.52047 -52666251.78946  22860684.0394                   22860684.4414
        45.5004         39.7504
 -20745245.85547 -16127529.03946  22227264.6564                   22227265.5044
        44.0004         39.5004
  -1242418.71945  -2889324.37943  24124413.0394                   24124417.0354
        34.5004         22.0004
 -54892402.97747 -42726262.54345  23373212.6884                   23373213.6954
        42.5004         34.2504
 25  7  1  0 38 30.0000000  0 10G25G02G04G28G31G01G32G03G26G10
  -3064314.52745  -4485371.78544  24212210.7344                   24212212.5634
        35.2504         28.5004
 -49542520.58647 -40865271.85246  21389158.0864                   21389153.5514
        46.2504         36.5004
   3517604.34445  -4182799.61342  23758364.7194                   23758366.2194
        35.5004         16.2504
 -53466099.50847 -41492543.02046  20864840.6954                   20864837.8594
        47.2504         37.5004
 -46289777.38748 -36027430.84047  20162630.7504                   20162627.5904
        49.7504         47.5004
 -34516498.93047 -29240594.43045  21079351.2664                   21079349.3834
        45.7504         34.7504
 -67676495.59047 -52684774.73446  22856160.9924                   22856160.9964
        44.5004         39.2504
 -20919017.59047 -16262935.56246  22194196.9534                   22194198.1254
        43.7504         38.7504
  -1423382.49245  -3030335.03543  24089977.2344                   24089979.4264
        32.5004         20.2504
 -54908880.21147 -42739102.02345  23370076.8834                   23370078.2624
        42.5004         34.7504
 25  7  1  0 39  0.0000000  0 10G25G02G04G28G31G01G32G03G26G10
  -1574696.99646  -3324630.88744  24495675.1564                   24495677.8164
        36.7504         29.2504
 -48024318.04747 -39682256.91446  21678062.1884                   21678057.8484
        46.5004         37.0004
   4928320.23045  -3083540.37942  24026815.0084                   24026816.7504
        35.5004         16.2504
 -51948613.24647 -40310086.19946  21153608.4694                   21153606.2194
        46.5004         37.5004
 -44839958.54748 -34897701.85547  20438522.3054                   20438518.9774
        49.0004         47.5004
 -33060989.28947 -28106431.08245  21356325.7114                   21356323.7074
        45.7504         35.5004
 -66124809.62547 -51475668.84046  23151436.3754                   23151437.7854
        45.0004         39.0004
 -19517276.58247 -15170669.79746  22460939.3054                   22460939.6414
        43.7504         39.0004
    -28930.55145  -1943748.97343  24355332.5474                   24355334.7154
        33.5004         20.2504
 -53349691.84447 -41524150.12145  23666781.2424                   23666782.1564
        43.0004         35.5004
 25  7  1  0 39 30.0000000  0 10G25G02G04G28G31G01G32G03G26G10
  -1659970.57045  -3391077.84044  24479448.0704                   24479450.3364
        34.0004         28.0004
 -48081061.98047 -39726472.98846  21667264.1174                   21667260.0434
        45.7504         36.7504
   4763745.94945  -3211780.01242  23995495.8834                   23995499.8204
        35.2504         17.2504
 -52006015.00047 -40354814.85946  21142685.3364                   21142683.0944
        46.5004         37.7504
 -44964958.27348 -34995104.22747  20414735.6564                   20414732.0204
        48.5004         47.5004
 -33180342.63347 -28199433.69946  21333613.3524                   21333611.4384
        46.2504         36.0004
 -66148510.87947 -51494137.37546  23146926.4774                   23146927.0204
        43.7504         39.0004
 -19690874.80147 -15305941.10546  22427904.9454                   22427905.1524
        44.2504         39.7504
   -209913.77055  -2084774.70753  24320891.6094                   24320895.4024
        31.2504         21.2504
 -53365681.19147 -41536609.43745  23663738.3674                   23663739.3754
        43.2504         34.7504
 25  7  1  0 40  0.0000000  0 10G25G02G04G28G31G01G32G03G26G10
  -1744710.84046  -3457109.26644  24463322.9774                   24463325.4844
        36.2504         28.5004
 -48137331.52347 -39770319.42246  21656556.3134                   21656552.2704
        46.5004         37.0004
   4599307.719 5                  23964205.328
        33.500
 -52062883.69947 -40399128.14546  21131863.5944                   21131861.2194
        46.7504         36.5004
 -45089350.62148 -35092033.31647  20391064.4384                   20391060.9694
        49.0004         47.5004
 -33299133.02047 -28291997.64546  21311008.4614                   21311006.4884
        45.7504         36.0004
 -66172178.13347 -51512579.41846  23142423.0004                   23142423.0084
        43.7504         38.7504
 -19864383.99247 -15441143.04346  22394887.0864                   22394887.5004
        43.0004         39.5004
   -390902.35945  -2225804.64144  24286450.3444                   24286454.4494
        32.0004         24.5004
 -53381427.32447 -41548879.21945  23660742.0394                   23660742.8244
        42.0004         35.2504
 25  7  1  0 40 30.0000000  0 10G25G02G04G28G31G01G32G03G26G10
  -1828916.39845  -3522723.98044  24447298.8984                   24447301.1254
        34.7504         28.0004
 -48193126.62547 -39813796.15246  21645938.9224                   21645934.7934
        47.2504         37.0004
   4435006.652 5                  23932940.383
        32.750
 -52119219.95347 -40443026.52346  21121142.9304                   21121140.5634
        47.0004         37.0004
 -45213134.10948 -35188487.96547  20367509.1724                   20367506.1454
        48.7504         47.5004
 -33417358.39847 -28384121.32045  21288510.7734                   21288508.7934
        47.0004         35.5004
 -66195811.14147 -51530994.78946  23137926.0784                   23137926.2154
        43.7504         38.5004
 -20037801.60247 -15576273.60546  22361886.7344                   22361887.3984
        42.5004         39.7504
   -571892.37945  -2366835.71544  24252009.9304                   24252013.2624
        35.5004         27.0004
 -53396929.55147 -41560958.94145  23657792.1254                   23657793.2234
        42.2504         34.5004
 25  7  1  0 41  0.0000000  0 10G25G02G04G28G31G01G32G03G26G10
  -1912587.84845  -3587922.53144  24431376.7344                   24431379.6024
        33.5004         28.5004
 -48248449.72747 -39856905.09446  21635411.3834                   21635406.9024
        47.0004         37.2504
   4270841.500 5                  23901700.555
        33.750
 -52175026.54747 -40486512.19946  21110523.6804                   21110521.2624
        46.7504         37.0004
 -45336308.49647 -35284467.99647  20344069.6804                   20344066.5044
        47.7504         47.5004
 -33535018.83647 -28475804.77345  21266120.9454                   21266118.7584
        45.7504         35.2504
 -66219411.74247 -51549384.88746  23133434.1644                   23133435.1094
        42.5004         39.0004
 -20211127.09047 -15711332.38346  22328903.6724                   22328903.8594
        43.2504         39.7504
   -752882.02345  -2507866.50444  24217568.3594                   24217571.3134
        34.7504         26.0004
 -53412189.49246 -41572849.90245  23654887.6724                   23654889.8794
        40.7504         33.5004
 25  7  1  0 41 30.0000000  0 10G25G02G04G28G31G01G32G03G26G10
  -1995722.98445  -3652703.12544  24415556.7194                   24415559.3404
        34.7504         28.7504
 -48303300.45347 -39899645.96146  21624974.1724                   21624969.3954
        47.5004         36.0004
   4106814.133 5                  23870487.164
        34.750
 -52230303.36347 -40529585.04746  21100004.8444                   21100002.6334
        46.7504         37.5004
 -45458871.32847 -35379971.49247  20320747.2344                   20320743.6414
        47.7504         47.5004
 -33652111.47747 -28567045.77745  21243838.7344                   21243836.7894
        46.5004         34.5004
 -66242978.70747 -51567748.78946  23128950.1724                   23128950.1414
        44.0004         38.5004
 -20384357.04347 -15846316.72346  22295939.1334                   22295939.7344
        42.7504         40.0004
   -933866.51646  -2648893.23844  24183127.8754                   24183131.5984
        37.0004         28.0004
 -53427205.72747 -41584550.95745  23652030.6484                   23652031.1724
        42.2504         33.5004
 25  7  1  0 42  0.0000000  0 10G25G02G04G28G31G01G32G03G26G10
  -2078323.39845  -3717067.10944  24399837.7894                   24399840.1174
        35.5004         28.2504
 -48357682.54748 -39942021.65646  21614625.7814                   21614620.6994
        48.0004         36.5004
   3942922.363 5                  23839298.859
        32.500
 -52285054.25847 -40572248.09846  21089586.0864                   21089583.6174
        47.5004         37.5004
 -45580824.07448 -35474999.59847  20297540.1804                   20297536.5744
        49.0004         47.2504
 -33768637.44547 -28657845.22345  21221664.7664                   21221662.4104
        46.5004         34.2504
 -66266514.85947 -51586088.70346  23124471.9534                   23124471.9884
        44.0004         39.0004
 -20557492.06247 -15981227.08246  22262992.8444                   22262993.1914
        43.7504         40.7504
  -1114844.99646  -2789915.30144  24148689.1174                   24148691.6764
        37.5004         28.0004
 -53441980.87547 -41596064.14145  23649219.4304                   23649219.7114
        42.5004         32.0004
 25  7  1  0 42 30.0000000  0 10G25G02G04G28G31G01G32G03G26G10
  -2160388.41846  -3781013.88745  24384221.8984                   24384224.2814
        37.5004         31.0004
 -48411596.81247 -39984032.80545  21604365.7814                   21604361.2704
        47.0004         35.7504
   3779166.41815                  23808138.211
        33.000
 -52339280.55947 -40614502.37546  21079267.3594                   21079264.7544
        47.0004         36.5004
 -45702165.35948 -35569551.23847  20274449.6564                   20274446.4104
        48.5004         47.2504
 -33884595.50047 -28748202.14145  21199598.6414                   21199596.4454
        46.0004         34.7504
 -66290020.56247 -51604404.85946  23119998.1414                   23119998.8094
        43.0004         38.7504
 -20730530.10247 -16116061.86746  22230064.8134                   22230064.9804
        44.0004         41.0004
  -1295814.12145  -2930930.08244  24114250.7814                   24114254.3834
        35.5004         28.5004
 -53456515.01647 -41607389.53945  23646453.6414                   23646454.1684
        42.5004         32.0004
 25  7  1  0 43  0.0000000  0 10G25G02G04G28G31G01G32G03G26G10
  -2241917.39846  -3844543.00445  24368707.3364                   24368709.7274
        37.7504         31.7504
 -48465044.43747 -40025680.33645  21594195.4144                   21594190.8324
        46.2504         35.5004
   3615546.699 5                  23777001.648
        32.000
 -52392983.75347 -40656349.02246  21069047.5864                   21069045.0744
        46.5004         37.0004
 -45822894.21948 -35663625.65647  20251475.5554                   20251472.4534
        48.0004         47.2504
 -33999984.36747 -28838115.54745  21177640.7344                   21177639.0664
        45.5004         34.7504
 -66313496.05547 -51622697.50446  23115532.0314                   23115531.7664
        43.0004         39.0004
 -20903469.29747 -16250819.64546  22197155.3594                   22197156.0234
        44.5004         40.7504
  -1476770.69946  -3071935.08645  24079816.5634                   24079819.4844
        37.5004         30.5004
 -53470808.27746 -41618527.25045  23643733.2034                   23643735.1294
        41.7504         34.0004
 25  7  1  0 43 30.0000000  0 10G25G02G04G28G31G01G32G03G26G10
  -2322906.03145  -3907651.01644  24353296.0004                   24353298.1764
        35.7504         29.2504
 -48518022.93747 -40066962.31645  21584113.6024                   21584109.0274
        46.2504         35.5004
   3452067.105 5                  23745892.648
        34.500
 -52446161.75847 -40697786.44546  21058928.0864                   21058925.7624
        46.5004         36.2504
 -45943006.23048 -35757219.41847  20228619.0944                   20228615.6804
        48.0004         47.5004
 -34114799.18747 -28927581.65245  21155792.6484                   21155790.1884
        46.0004         35.7504
 -66336938.03547 -51640964.01246  23111070.3754                   23111071.0354
        44.2504         39.5004
 -21076304.02347 -16385496.01646  22164265.8914                   22164266.1564
        44.0004         39.7504
  -1657707.77346  -3212924.88345  24045384.3914                   24045388.4384
        37.7504         31.7504
 -53484857.22746 -41629474.56645  23641060.0784                   23641062.2274
        41.0004         34.2504
 25  7  1  0 44  0.0000000  0 10G25G02G04G28G31G01G32G03G26G10
  -2403356.59445  -3970339.76644  24337986.3594                   24337989.2854
        34.0004         27.2504
 -48570536.48847 -40107881.99245  21574120.4534                   21574116.0124
        47.2504         35.5004
   3288724.859 5                  23714809.617
        33.250
 -52498818.75847 -40738817.89146  21048908.4144                   21048905.6644
        46.7504         36.7504
 -46062503.07448 -35850333.83647  20205879.6024                   20205876.3204
        48.7504         47.5004
 -34229041.66047 -29016601.77045  21134052.8284                   21134050.5984
        46.0004         35.7504
 -66360349.75847 -51659206.95346  23106615.3054                   23106616.3164
        43.7504         39.7504
 -21249035.25047 -16520091.71546  22131395.3204                   22131397.2854
        43.7504         40.0004
  -1838625.04746  -3353899.26245  24010957.9844                   24010961.3364
        40.0004         33.0004
 -53498664.95346 -41640233.92645  23638432.4224                   23638434.4414
        41.5004         34.0004
 25  7  1  0 44 30.0000000  0 10G25G02G04G28G31G01G32G03G26G10
  -2483267.21955  -4032607.77354  24322779.0554                   24322781.6294
        33.7504         27.0004
 -48622584.86347 -40148439.19546  21564216.0554                   21564212.0164
        46.5004         36.0004
   3125521.484 5                  23683753.008
        35.500
 -52550955.05147 -40779443.58246  21038986.6414                   21038984.3914
        46.7504         36.5004
 -46181382.44947 -35942967.10247  20183257.7344                   20183254.5864
        47.5004         47.5004
 -34342709.22347 -29105173.91446  21112422.3754                   21112420.0704
        45.7504         36.0004
 -66383730.18447 -51677425.51246  23102166.0864                   23102166.6214
        43.5004         39.7504
 -21421659.69147 -16654604.21146  22098546.5314                   22098547.3834
        44.0004         40.7504
  -2019517.76646  -3494854.50445  23976535.2344                   23976538.3284
        38.7504         33.5004
 -53512230.30946 -41650804.37545  23635851.4774                   23635853.1724
        40.5004         34.0004
 25  7  1  0 45  0.0000000  0 10G25G02G04G28G31G01G32G03G26G10
  -2562639.48045  -4094456.31644  24307676.2194                   24307678.4734
        35.7504         28.0004
 -48674171.63347 -40188636.71546  21554399.7194                   21554395.4534
        47.2504         37.0004
   2962455.19545  -3450000.20752  23652722.2034                   23652723.9804
        35.0004         16.7504
 -52602574.40247 -40819666.46546  21029164.0704                   21029161.7304
        46.2504         37.0004
 -46299645.77348 -36035120.32447  20160752.7274                   20160749.6804
        48.7504         47.7504
 -34455803.05947 -29193298.99245  21090901.4774                   21090899.1724
        47.0004         35.5004
 -66407081.92647 -51695621.70346  23097722.7664                   23097723.2114
        44.2504         39.7504
 -21594177.68047 -16789033.76246  22065718.1954                   22065718.4654
        44.2504         41.0004
  -2200384.96946  -3635789.89145  23942116.5474                   23942120.5634
        38.2504         31.7504
 -53525555.78146 -41661187.94545  23633315.4924                   23633317.6134
        40.7504         34.0004
 25  7  1  0 45 30.0000000  0 10G25G02G04G28G31G01G32G03G26G10
  -2641473.52346  -4155885.45344  24292674.8364                   24292676.1214
        36.0004         28.7504
 -48725298.57847 -40228475.92246  21544670.5864                   21544666.2234
        47.0004         37.5004
   2799525.34846  -3576958.46942  23621718.1094                   23621719.0314
        36.7504         17.2504
 -52653678.96147 -40859488.21946  21019439.2664                   21019437.0164
        47.0004         37.0004
 -46417292.75448 -36126793.28148  20138365.1954                   20138362.2424
        48.7504         48.0004
 -34568322.66047 -29280976.60945  21069489.8364                   21069487.4264
        46.2504         34.7504
 -66430405.87547 -51713796.25446  23093284.6334                   23093284.8484
        43.0004         39.0004
 -21766587.85247 -16923379.28546  22032909.1334                   22032910.0664
        44.5004         41.0004
  -2381223.91846  -3776703.26245  23907703.9304                   23907706.6994
        38.0004         31.2504
 -53538642.21147 -41671385.27045  23630825.3674                   23630827.5004
        42.2504         34.5004
 25  7  1  0 46  0.0000000  0 10G25G02G04G28G31G01G32G03G26G10
  -2719769.29345  -4216895.16044  24277774.6254                   24277778.1524
        34.2504         28.7504
 -48775967.60947 -40267958.31646  21535028.4144                   21535024.0354
        47.2504         36.7504
   2636731.89846  -3703810.38742  23590739.6094                   23590740.0124
        38.5004         17.2504
 -52704270.67247 -40898910.35246  21009811.7734                   21009809.3914
        46.5004         38.0004
 -46534322.82448 -36217985.52748  20116095.1334                   20116092.3054
        48.2504         48.2504
 -34680267.40247 -29368206.27745  21048187.6804                   21048185.4104
        45.7504         34.5004
 -66453702.78147 -51731949.72346  23088851.1804                   23088851.8794
        43.0004         39.2504
 -21938888.68747 -17057639.62946  22000120.9144                   22000121.4264
        43.7504         40.7504
  -2562031.91046  -3917592.48345  23873297.9924                   23873301.1454
        38.7504         33.0004
 -53551490.28146 -41681396.84045  23628380.4844                   23628382.0044
        41.7504         33.5004
 25  7  1  0 46 30.0000000  0 10G25G02G04G28G31G01G32G03G26G10
  -2797527.36746  -4277485.84844  24262979.3594                   24262981.0904
        36.5004         29.7504
 -48826180.99647 -40307085.67246  21525473.0234                   21525468.7274
        46.7504         36.5004
   2474073.80946  -3830556.87943  23559785.7814                   23559787.3284
        38.2504         19.0004
 -52754352.34847 -40937935.03546  21000281.9534                   21000279.5664
        46.2504         37.0004
 -46650736.45348 -36308697.43448  20093942.4614                   20093939.3484
        48.7504         48.0004
 -34791637.31647 -29454988.02045  21026994.4534                   21026992.4574
        46.7504         34.2504
 -66476974.07047 -51750083.23446  23084422.3754                   23084423.3054
        42.2504         38.5004
 -22111079.33247 -17191814.09446  21967353.7664                   21967354.6884
        43.2504         40.5004
  -2742806.62546  -4058455.77745  23838897.1564                   23838901.4384
        38.5004         32.0004
 -53564101.34447 -41691223.72745  23625981.1644                   23625981.9304
        42.5004         33.5004
 25  7  1  0 47  0.0000000  0 10G25G02G04G28G31G01G32G03G26G10
  -2874748.23845  -4337657.98844  24248283.2504                   24248285.7894
        33.0004         26.7504
 -48875940.85947 -40345859.61345  21516004.2194                   21515999.5394
        46.7504         35.7504
   2311550.70746  -3957198.17242  23528858.4064                   23528860.1684
        37.5004         17.7504
 -52803926.28147 -40976564.09046  20990847.8674                   20990845.3444
        46.2504         36.7504
 -46766533.46148 -36398928.85548  20071906.8054                   20071903.5984
        48.2504         48.2504
 -34902432.11347 -29541321.62945  21005910.5784                   21005908.5864
        45.7504         35.0004
 -66500220.77047 -51768197.60246  23079999.3524                   23079999.5234
        42.2504         38.2504
 -22283158.53947 -17325901.73446  21934608.6414                   21934609.4534
        43.0004         40.7504
  -2923545.53946  -4199291.18445  23804503.2584                   23804507.1684
        37.5004         30.7504
 -53576476.40247 -41700866.73045  23623626.1954                   23623627.0434
        42.0004         33.2504
 25  7  1  0 47 30.0000000  0 10G25G02G04G28G31G01G32G03G26G10
  -1376005.93445  -3169806.86344  24533485.3984                   24533487.1844
        34.5004         26.5004
 -47349823.98447 -39156677.66445  21806414.3364                   21806410.5204
        47.0004         35.2504
   3724590.80946  -2856127.89543  23797751.3834                   23797753.5124
        37.2504         18.5004
 -51277569.69547 -39787195.34446  21281304.0864                   21281301.7464
        46.5004         36.0004
 -45306286.56648 -35261074.12548  20349782.5704                   20349779.3794
        49.0004         48.2504
 -33437224.35947 -28399601.29745  21284730.2584                   21284728.6954
        47.0004         35.2504
 -64948019.67247 -50558690.28946  23375373.5164                   23375373.2234
        42.0004         38.0004
 -20879695.84047 -16232294.37946  22201678.5474                   22201679.5824
        42.7504         40.5004
  -1528816.48046  -3112489.23045  24069911.7274                   24069915.3954
        37.7504         30.0004
 -52013192.59846 -40482723.58245  23921108.8984                   23921111.2424
        41.2504         33.7504
 25  7  1  0 48  0.0000000  0 10G25G02G04G28G31G01G32G03G26G10
  -1452142.76245  -3229134.23044  24518995.9614                   24518999.0124
        33.5004         26.7504
 -47398672.50047 -39194741.46945  21797119.0004                   21797115.0164
        47.0004         35.2504
   3562346.18846  -2982552.16443  23766877.3134                   23766878.7624
        37.0004         18.2504
 -51326124.90247 -39825030.57046  21272064.4144                   21272061.9494
        46.0004         36.5004
 -45420840.25848 -35350336.73448  20327983.8834                   20327980.3364
        49.2504         48.5004
 -33546857.74247 -28485029.91445  21263867.9614                   21263865.8404
        47.0004         35.7504
 -64971209.86346 -50576760.62946  23370959.9614                   23370961.0044
        41.2504         37.2504
 -21051538.04747 -16366197.36746  22168978.0704                   22168978.9104
        43.5004         40.5004
  -1709465.66846  -3253254.72745  24035535.1414                   24035539.1054
        37.7504         30.7504
 -52025088.35546 -40491993.08645  23918845.3444                   23918847.2854
        40.7504         34.0004
 25  7  1  0 48 30.0000000  0 10G25G02G04G28G31G01G32G03G26G10
  -1527743.05145  -3288043.54744  24504610.6024                   24504613.3054
        34.0004         26.2504
 -47447073.54347 -39232456.60945  21787908.9064                   21787904.7074
        47.2504         35.7504
   3400235.02346  -3108872.44942  23736028.1334                   23736030.0944
        36.0004         16.2504
 -51374179.27047 -39862475.55146  21262919.6644                   21262917.0004
        47.2504         37.0004
 -45534777.09048 -35439118.66848  20306302.4924                   20306298.9884
        49.5004         48.5004
 -33655915.07847 -28570009.65646  21243115.2734                   21243112.8134
        47.5004         36.7504
 -64994378.41447 -50594814.10246  23366551.2584                   23366552.1644
        43.0004         37.2504
 -21223264.82447 -16500010.39846  22136299.8524                   22136300.6214
        44.2504         40.7504
  -1890071.16846  -3393986.18045  24001167.1804                   24001171.1954
        37.2504         30.2504
 -52036750.93746 -40501080.87945  23916626.0394                   23916628.0634
        41.5004         35.7504
 25  7  1  0 49  0.0000000  0 10G25G02G04G28G31G01G32G03G26G10
  -1602808.38345  -3346536.05544  24490325.9454                   24490328.7974
        34.0004         26.5004
 -47495030.35948 -39269825.60946  21778782.9224                   21778779.0434
        48.2504         36.5004
   3238255.62546  -3235090.10242  23705204.6254                   23705206.5704
        36.2504         15.5004
 -51421736.39548 -39899533.05946  21253870.1804                   21253867.5704
        48.2504         36.5004
 -45648098.27348 -35527420.87948  20284738.0704                   20284734.8714
        49.5004         48.2504
 -33764397.39548 -28654541.33246  21222471.8754                   21222469.5784
        48.0004         36.7504
 -65017527.33647 -50612852.26246  23362146.3594                   23362147.1644
        43.2504         38.2504
 -21394876.11347 -16633733.44946  22103642.9064                   22103643.9184
        43.7504         39.7504
  -2070631.44546  -3534682.40645  23966807.3754                   23966810.7704
        38.2504         30.0004
 -52048182.57447 -40509988.74245  23914451.3524                   23914452.9144
        42.2504         35.2504
 25  7  1  0 49 30.0000000  0 10G25G02G04G28G31G01G32G03G26G10
  -1677334.25045  -3404608.16444  24476144.4384                   24476146.3914
        32.0004         24.7504
 -47542540.16048 -39306846.26646  21769742.2424                   21769738.0084
        49.0004         36.5004
   3076412.22746  -3361201.71542  23674406.2194                   23674408.1564
        37.2504         16.7504
 -51468793.80947 -39936201.19946  21244915.3984                   21244913.0204
        47.2504         36.5004
 -45760799.12548 -35615239.71948  20263291.8364                   20263288.3404
        49.7504         48.5004
 -33872299.53148 -28738620.93046  21201938.6724                   21201935.9694
        48.0004         36.5004
 -65040652.86747 -50630872.21946  23357745.5474                   23357746.0984
        42.5004         38.0004
 -21566365.74247 -16767361.69146  22071009.4614                   22071010.5124
        43.7504         40.7504
  -2251139.07446  -3675337.61945  23932458.1954                   23932460.9844
        40.5004         30.5004
 -52059379.52347 -40518713.73446  23912320.8834                   23912322.0784
        43.0004         36.0004
 25  7  1  0 50  0.0000000  0 10G25G02G04G28G31G01G32G03G26G10
  -1751325.82045  -3462264.00044  24462063.5314                   24462065.4104
        31.5004         24.0004
 -47589610.01648 -39343524.10946  21760784.9844                   21760780.9224
        48.7504         36.2504
   2914699.69546  -3487211.33242  23643634.1024                   23643635.3914
        36.7504         16.7504
 -51515358.61347 -39972485.47346  21236054.1884                   21236051.8094
        47.2504         36.5004
 -45872884.32848 -35702578.82848  20241963.0394                   20241959.2074
        49.5004         49.0004
 -33979626.05147 -28822251.98846  21181515.0084                   21181513.1724
        47.7504         36.2504
 -65063760.62947 -50648878.32046  23353348.5554                   23353349.1214
        43.5004         38.5004
 -21737737.05147 -16900897.74646  22038398.7894                   22038399.0434
        45.2504         40.7504
  -2431596.19946  -3815953.45345  23898118.5084                   23898121.8634
        39.0004         31.0004
 -52070347.44947 -40527260.26645  23910233.9064                   23910234.4884
        42.5004         34.7504
 25  7  1  0 50 30.0000000  0 10G25G02G04G28G31G01G32G03G26G10
  -1824780.16045  -3519501.11743  24448085.2814                   24448088.4264
        30.7504         22.5004
 -47636238.37547 -39379857.91846  21751912.3594                   21751907.7734
        47.0004         36.7504
   2753120.88746  -3613116.84042  23612886.5084                   23612887.3914
        36.0004         16.2504
 -51561429.85947 -40008385.16846  21227287.6334                   21227284.8834
        47.5004         37.2504
 -45984350.59448 -35789435.64548  20220751.4774                   20220747.6994
        48.5004         48.5004
 -34086373.42247 -28905431.75445  21161201.6884                   21161199.5084
        46.0004         34.7504
 -65086848.13747 -50666868.61346  23348955.6414                   23348955.5944
        44.0004         39.7504
 -21908985.37147 -17034337.93046  22005811.5314                   22005811.5944
        44.2504         40.5004
  -2611996.72346  -3956525.24244  23863788.8524                   23863791.7814
        38.5004         29.5004
 -52081083.97347 -40535626.47745  23908190.5164                   23908191.9024
        43.0004         35.5004
 25  7  1  0 51  0.0000000  0 10G25G02G04G28G31G01G32G03G26G10
  -1897696.78945  -3576319.33644  24434211.0634                   24434212.5084
        30.7504         24.2504
 -47682426.73447 -39415848.87546  21743122.6724                   21743118.5474
        47.0004         36.2504
   2591676.15645  -3738917.85942  23582163.8054                   23582166.3914
        35.2504         17.2504
 -51607009.05947 -40043901.44546  21218614.1414                   21218611.3484
        47.5004         37.2504
 -46095197.04348 -35875809.50048  20199658.3594                   20199654.8364
        49.0004         49.0004
 -34192540.58247 -28988159.42645  21140998.7034                   21140996.2194
        46.5004         34.2504
 -65109915.44947 -50684843.18446  23344565.8524                   23344566.3954
        44.0004         38.2504
 -22080108.32847 -17167680.49246  21973248.1024                   21973248.0554
        44.5004         41.0004
  -2792337.06646  -4097050.10944  23829472.2974                   23829473.9574
        39.2504         29.2504
 -52091589.25047 -40543812.49245  23906191.1414                   23906192.8324
        43.0004         35.2504
 25  7  1  0 51 30.0000000  0 10G25G02G04G28G31G01G32G03G26G10
  -1970078.21145  -3632720.44143  24420437.1094                   24420439.1414
        30.2504         23.5004
 -47728178.89147 -39451499.92645  21734416.3594                   21734412.2384
        47.5004         35.7504
   2430362.85545  -3864616.43742  23551467.5784                   23551469.4774
        34.5004         17.7504
 -51652100.69547 -40079037.79746  21210033.3204                   21210031.0434
        47.5004         36.5004
 -46205425.89148 -35961702.10548  20178682.2584                   20178678.9184
        49.2504         49.0004
 -34298129.48047 -29070436.49245  21120905.4534                   21120903.5204
        46.5004         33.5004
 -65132965.55147 -50702804.35946  23340179.2194                   23340180.2934
        43.7504         38.7504
 -22251106.74647 -17300925.97746  21940707.6414                   21940708.4734
        44.2504         41.0004
  -2972616.64546  -4237527.60945  23795165.1564                   23795168.1094
        39.7504         30.5004
 -52101866.36347 -40551820.69945  23904235.4224                   23904236.9654
        42.0004         34.7504
 25  7  1  0 52  0.0000000  0 10G25G02G04G28G31G01G32G03G26G10
  -2041908.33254  -3688691.95753  24406765.0474                   24406770.5354
        28.0004         21.7504
 -47773480.85248 -39486800.18046  21725795.6414                   21725791.2274
        48.7504         36.0004
   2269197.33645  -3990199.89142  23520798.7034                   23520800.6604
        35.2504         17.2504
 -51696690.52047 -40113783.12145  21201547.8524                   21201545.4844
        47.7504         35.7504
 -46315021.07448 -36047100.94548  20157827.0234                   20157823.7344
        49.2504         49.2504
 -34403123.33247 -29152249.88745  21100926.3834                   21100923.8874
        47.0004         34.2504
 -65155982.59447 -50720739.77046  23335799.8134                   23335800.4224
        44.0004         38.5004
 -22421962.45347 -17434060.25446  21908194.4774                   21908195.9184
        44.5004         41.5004
  -3152816.07446  -4377942.69545  23760874.2344                   23760877.3714
        38.5004         30.7504
 -52111899.66446 -40559638.94145  23902326.6024                   23902328.0434
        41.2504         34.0004
 25  7  1  0 52 30.0000000  0 10G25G02G04G28G31G01G32G03G26G10
  -2113201.68455  -3744245.23853  24393201.4384                   24393202.9454
        34.0004         22.5004
 -47818348.94547 -39521762.37945  21717257.5004                   21717253.0594
        46.2504         34.7504
   2108164.73046  -4115679.77043  23490154.6254                   23490156.8834
        36.7504         18.5004
 -51740795.25047 -40148150.44545  21193155.1334                   21193152.8794
        45.0004         35.2504
 -46423996.59847 -36132016.91848  20137089.5394                   20137085.9304
        47.2504         48.2504
 -34507536.25847 -29233610.59845  21081056.7114                   21081054.8324
        45.0004         33.5004
 -65178981.78147 -50738661.24646  23331422.7114                   23331423.1214
        42.7504         37.0004
 -22592688.32847 -17567093.37546  21875707.0314                   21875707.6484
        43.7504         40.7504
  -3332946.95346  -4518304.30545  23726597.2344                   23726599.5594
        38.5004         30.2504
 -52121704.48046 -40567279.15645  23900459.6484                   23900462.7934
        40.0004         32.5004
 25  7  1  0 53  0.0000000  0 10G25G02G04G28G31G01G32G03G26G10
  -2183959.48055  -3799381.16453  24379735.6804                   24379738.9384
        30.2504         22.5004
 -47862785.74648 -39556388.52745  21708801.6254                   21708797.4614
        48.2504         35.5004
   1947264.02046  -4241056.85943  23459536.5784                   23459537.9224
        37.5004         18.2504
 -51784417.75848 -40182142.03945  21184854.4454                   21184851.8014
        48.0004         35.2504
 -46532353.09048 -36216450.55148  20116470.1804                   20116466.8834
        48.5004         49.5004
 -34611368.68947 -29314518.99945  21061298.4534                   21061296.3634
        45.7504         34.7504
 -65201964.43447 -50756569.87146  23327049.4694                   23327049.8674
        43.5004         36.7504
 -22763283.46547 -17700024.63747  21843243.7424                   21843243.8714
        43.5004         42.0004
  -3513007.06646  -4658610.79745  23692331.3914                   23692335.2774
        38.0004         31.0004
 -52131282.20346 -40574742.40645  23898637.8984                   23898640.7584
        40.0004         33.5004
 25  7  1  0 53 30.0000000  0 10G25G02G04G28G31G01G32G03G26G10
  -2254182.18445  -3854100.21544  24366373.6884                   24366375.5514
        33.5004         24.2504
 -47906793.48848 -39590680.33645  21700427.3444                   21700422.9884
        48.7504         35.7504
   1786494.59046  -4366331.64143  23428943.1484                   23428943.4774
        37.7504         20.0004
 -51827560.68747 -40215759.93045  21176644.4694                   21176641.8794
        47.0004         35.7504
 -46640090.88348 -36300402.06648  20095967.9844                   20095964.9734
        49.5004         49.5004
 -34714620.63747 -29394975.06645  21041649.9304                   21041648.1484
        47.5004         35.5004
 -65224931.52747 -50774466.36346  23322679.3834                   23322679.4224
        44.2504         37.2504
 -22933746.50447 -17832852.95347  21810805.6804                   21810806.7114
        45.2504         42.2504
  -3692993.68445  -4798860.05544  23658081.0704                   23658084.8954
        35.0004         29.5004
 -52140634.22346 -40582029.78545  23896858.4924                   23896861.3794
        39.7504         33.2504
 25  7  1  0 54  0.0000000  0 10G25G02G04G28G31G01G32G03G26G10
  -2323868.96545  -3908401.65644  24353113.2114                   24353115.5984
        34.7504         26.5004
 -47950372.90247 -39624638.37546  21692134.3204                   21692130.3134
        47.7504         36.0004
   1625857.53546  -4491503.30143  23398374.6254                   23398375.8204
        38.5004         20.0004
 -51870224.90647 -40249004.79346  21168525.5784                   21168523.4264
        47.5004         36.7504
 -46747208.90648 -36383870.64148  20075584.5394                   20075581.1884
        49.0004         49.5004
 -34817290.66047 -29474977.68745  21022112.6484                   21022110.4534
        46.7504         35.5004
 -65247882.33247 -50792350.14546  23318311.2194                   23318311.8524
        43.0004         36.0004
 -23104074.46547 -17965576.00847  21778393.0314                   21778394.1454
        44.5004         42.2504
  -3872902.68446  -4939048.77745  23623847.1024                   23623849.0864
        39.2504         31.5004
 -52149759.89546 -40589140.81645  23895122.5864                   23895123.5744
        39.7504         32.0004
 25  7  1  0 54 30.0000000  0 10G25G02G04G28G31G01G32G03G26G10
  -2393022.96545  -3962287.89844  24339953.8834                   24339956.1684
        33.0004         26.5004
 -47993528.90247 -39658266.47346  21683922.2034                   21683918.0984
        47.0004         36.0004
   1465349.72346  -4616574.21143  23367831.5234                   23367832.3674
        39.2504         20.7504
 -51912415.59847 -40281880.66846  21160497.3834                   21160494.5634
        46.5004         36.5004
 -46853710.03548 -36466858.52048  20055317.7194                   20055314.9694
        49.0004         49.2504
 -34919381.30947 -29554528.85945  21002685.4384                   21002683.5274
        47.7504         35.7504
 -65270820.37947 -50810223.99646  23313946.6564                   23313947.0664
        43.5004         36.0004
 -23274268.52747 -18098194.73847  21746006.4614                   21746007.6214
        45.5004         42.7504
  -4052733.84346  -5079176.86145  23589625.3444                   23589628.1214
        38.5004         30.5004
 -52158662.93046 -40596078.38345  23893428.0634                   23893429.0784
        39.5004         31.0004
 25  7  1  0 55  0.0000000  0 10G25G02G04G28G31G01G32G03G26G10
  -2461642.23445  -4015757.45344  24326895.6174                   24326898.0474
        34.5004         25.0004
 -48036260.92247 -39691564.17646  21675790.4064                   21675786.4414
        46.5004         36.0004
   1304973.26646  -4741542.79343  23337312.0784                   23337312.9064
        38.2504         20.2504
 -51954132.54347 -40314387.38746  21152558.8444                   21152556.5354
        47.5004         36.5004
 -46959591.94948 -36549363.89848  20035168.9224                   20035166.2194
        49.0004         49.2504
 -35020889.91847 -29633626.48045  20983369.1954                   20983366.7234
        47.7504         35.5004
 -65293743.79347 -50828086.44146  23309584.4454                   23309584.8714
        44.5004         36.0004
 -23444324.59447 -18230705.92647  21713645.6954                   21713646.6804
        45.5004         43.0004
  -4232481.87146  -5219240.18045  23555419.8594                   23555423.7854
        37.0004         30.5004
 -52167341.82446 -40602841.21945  23891775.5554                   23891778.5634
        38.0004         31.0004
 25  7  1  0 55 30.0000000  0 10G25G02G04G28G31G01G32G03G26G10
  -2529727.80545  -4068811.14844  24313938.5704                   24313942.4144
        33.0004         25.7504
 -48078571.88347 -39724533.78146  21667738.7344                   21667735.3914
        45.7504         36.5004
   1144727.12946  -4866409.80143  23306818.1094                   23306818.5554
        39.0004         21.2504
 -51995378.82447 -40346527.36746  21144709.6484                   21144707.4384
        47.2504         36.0004
 -47064855.18048 -36631387.18048  20015138.0864                   20015135.0164
        49.0004         49.2504
 -35121817.13347 -29712271.07446  20964163.2194                   20964161.0164
        47.7504         36.0004
 -65316653.95347 -50845938.54746  23305225.0634                   23305224.9264
        44.5004         36.5004
 -23614241.71147 -18363108.84847  21681311.8594                   21681312.3054
        46.5004         43.2504
  -4412144.51646  -5359236.94945  23521232.2114                   23521235.2664
        37.5004         30.2504
 -52175798.16046 -40609430.63745  23890167.8834                   23890169.4184
        40.0004         32.5004
 25  7  1  0 56  0.0000000  0 10G25G02G04G28G31G01G32G03G26G10
  -1021863.77345  -2893852.23843  24600874.3204                   24600877.5664
        30.5004         22.7504
 -46545048.35947 -38529580.41845  21959558.8984                   21959555.0044
        45.5004         35.7504
   2560030.46546  -3763575.97743  23576141.6804                   23576142.4384
        39.7504         21.0004
 -50460741.23047 -39150705.88346  21436741.2034                   21436739.0274
        45.2504         36.5004
 -45594082.39148 -35485330.45748  20295016.6884                   20295013.8404
        48.2504         48.5004
 -33646745.30948 -28562864.46546  21244860.0864                   21244858.0984
        48.5004         36.7504
 -63764136.56647 -49636184.79346  23600659.6254                   23600659.6414
        44.5004         37.0004
 -22208598.43047 -17267802.35547  21948796.6564                   21948797.6604
        46.2504         43.2504
  -3016298.71146  -4271564.84044  23786851.8754                   23786854.9924
        37.5004         29.5004
 -50608618.39546 -39388251.70745  24188392.0164                   24188394.2854
        38.0004         30.2504
 25  7  1  0 56 30.0000000  0 10G25G02G04G28G31G01G32G03G26G10
  -1088888.96555  -2946079.63754  24588120.6254                   24588123.9534
        31.2504         24.0004
 -46586528.74647 -38561902.84446  21951665.7114                   21951661.5594
        47.0004         36.5004
   2400038.57446  -3888244.91043  23545697.0004                   23545697.0084
        40.2504         22.7504
 -50501058.62147 -39182122.03945  21429069.4774                   21429067.2734
        46.0004         35.7504
 -45698114.28548 -35566394.25048  20275219.9614                   20275217.0474
        48.7504         48.5004
 -33746514.80947 -28640606.94146  21225874.5084                   21225872.7974
        47.2504         36.7504
 -63787027.53147 -49654021.94946  23596303.5554                   23596302.5354
        45.2504         37.0004
 -22378238.09847 -17399989.05947  21916514.9064                   21916515.6454
        46.5004         42.7504
  -3195787.25446  -4411425.94545  23752696.9384                   23752699.6294
        38.5004         31.2504
 -50616637.71946 -39394500.61744  24186865.7974                   24186867.8524
        38.5004         28.5004
 25  7  1  0 57  0.0000000  0 10G25G02G04G28G31G01G32G03G26G10
  -1155384.07055  -2997894.07053  24575469.2734                   24575470.1524
        30.2504         23.2504
 -46627596.50447 -38593903.75045  21943850.9144                   21943846.2584
        47.0004         35.5004
   2240173.91446  -4012814.71144  23515275.2504                   23515275.7704
        40.5004         24.5004
 -50540914.41047 -39213178.51646  21421485.2034                   21421482.4534
        45.0004         36.2504
 -45801530.55947 -35646978.35948  20255540.5164                   20255537.5634
        47.5004         48.5004
 -33845704.64147 -28717897.71946  21206999.3134                   21206997.2734
        46.2504         37.0004
 -63809909.13747 -49671851.80146  23591949.2664                   23591949.4184
        43.2504         36.7504
 -22547735.86347 -17532065.18447  21884260.8594                   21884261.2544
        46.7504         42.7504
  -3375183.58246  -4551215.22745  23718558.2274                   23718560.5164
        38.2504         30.7504
 -50624439.16446 -39400579.76645  24185381.2974                   24185383.2894
        39.5004         32.2504
 25  7  1  0 57 30.0000000  0 10G25G02G04G28G31G01G32G03G26G10
  -1221349.95345  -3049296.02043  24562914.7034                   24562918.0824
        30.7504         22.5004
 -46668254.05547 -38625585.02345  21936113.8594                   21936109.6844
        46.5004         35.0004
   2080435.87146  -4137285.84444  23484878.1254                   23484878.2894
        40.7504         24.2504
 -50580311.29747 -39243877.39546  21413988.3754                   21413985.6094
        45.7504         36.0004
 -45904331.73448 -35727083.15648  20235978.2664                   20235974.8244
        48.2504         48.2504
 -33944315.14548 -28794737.07846  21188234.2194                   21188232.4804
        48.0004         36.5004
 -63832782.32447 -49689675.10546  23587596.5554                   23587597.1804
        43.0004         37.0004
 -22717090.35547 -17664029.67247  21852033.5784                   21852033.3164
        45.7504         42.0004
  -3554485.23046  -4690930.68445  23684438.3054                   23684440.9024
        39.5004         31.7504
 -50632024.10246 -39406490.18744  24183938.5394                   24183940.3444
        38.7504         29.7504
 25  7  1  0 58  0.0000000  0 10G25G02G04G28G31G01G32G03G26G10
  -1286786.32045  -3100285.42243  24550462.6174                   24550465.8594
        32.0004         23.0004
 -46708502.61747 -38656947.59845  21928454.4064                   21928450.7424
        45.5004         35.2504
   1920824.92246  -4261657.94144  23454504.8674                   23454505.6844
        41.0004         24.5004
 -50619250.80147 -39274219.87946  21406578.2274                   21406575.9494
        46.0004         36.0004
 -46006517.20747 -35806708.19148  20216532.7664                   20216529.3714
        47.0004         48.0004
 -34042345.44547 -28871124.33246  21169579.5554                   21169578.0594
        46.5004         36.2504
 -63855646.86747 -49707491.67646  23583245.8674                   23583246.4574
        43.0004         37.0004
 -22886299.02747 -17795880.53947  21819834.2114                   21819834.4064
        46.2504         42.5004
  -3733688.29746  -4830569.37545  23650337.1094                   23650339.6414
        38.5004         31.2504
 -50639392.60546 -39412231.95744  24182535.7974                   24182537.4384
        36.5004         27.7504
 25  7  1  0 58 30.0000000  0 10G25G02G04G28G31G01G32G03G26G10
  -1351693.47745  -3150862.50044  24538110.9064                   24538114.1764
        33.5004         24.5004
 -46748344.25047 -38687993.06645  21920872.9304                   21920868.9774
        45.0004         35.0004
   1761340.86346  -4385931.14844  23424155.7194                   23424156.7424
        40.5004         27.2504
 -50657735.22347 -39304207.76245  21399254.8914                   21399252.4734
        47.0004         35.5004
 -46108086.71548 -35885853.26648  20197205.4144                   20197201.5124
        48.7504         48.0004
 -34139795.37148 -28947059.34846  21151035.9304                   21151034.0354
        48.0004         36.0004
 -63878503.17247 -49725301.82846  23578896.0864                   23578896.7584
        43.0004         36.7504
 -23055360.04747 -17927616.34847  21787662.8364                   21787663.5234
        46.0004         42.7504
  -3912789.70346  -4970128.82045  23616255.1254                   23616258.4574
        39.0004         30.7504
 -50646545.46546 -39417805.73444  24181174.0634                   24181176.5514
        36.7504         29.2504
 25  7  1  0 59  0.0000000  0 10G25G02G04G28G31G01G32G03G26G10
  -1416071.48845  -3201027.18743  24525860.9844                   24525862.5204
        33.0004         22.0004
 -46787780.02347 -38718722.27545  21913368.9844                   21913364.6294
        46.5004         35.7504
   1601984.26546  -4510105.05244  23393830.6094                   23393832.0514
        40.0004         27.7504
 -50695766.11747 -39333842.23445  21392017.8914                   21392015.6294
        45.7504         35.7504
 -46209040.24248 -35964518.35248  20177994.2424                   20177990.9344
        48.7504         48.2504
 -34236664.16847 -29022541.52746  21132601.9454                   21132600.9024
        47.5004         36.0004
 -63901350.98847 -49743105.38746  23574548.0944                   23574549.4144
        43.0004         37.5004
 -23224270.84047 -18059235.10247  21755520.1804                   21755520.8444
        46.5004         42.7504
  -4091785.64146  -5109606.09045  23582193.1884                   23582195.5274
        39.0004         30.2504
 -50653482.84046 -39423211.64145  24179854.8914                   24179857.2424
        39.0004         30.2504
 25  7  1  0 59 30.0000000  0 10G25G02G04G28G31G01G32G03G26G10
  -1479926.76645  -3250784.66443  24513711.1254                   24513711.0474
        33.0004         22.0004
 -46826818.44547 -38749141.84846  21905939.9844                   21905936.2424
        45.5004         36.5004
   1442748.80546  -4634184.58244  23363529.6644                   23363530.3874
        40.7504         26.0004
 -50733351.78547 -39363129.78945  21384865.3284                   21384863.0314
        45.0004         35.5004
 -46309383.68748 -36042708.05548  20158899.5864                   20158896.1844
        49.0004         48.2504
 -34332957.75847 -29097575.51245  21114278.0234                   21114276.1914
        47.2504         35.2504
 -63924196.82447 -49760907.38346  23570200.7814                   23570201.6214
        42.0004         36.2504
 -23393035.59447 -18190740.05947  21723405.7814                   21723405.7114
        47.2504         43.5004
  -4270679.08646  -5249003.47745  23548151.5084                   23548153.5204
        38.7504         31.0004
 -50660211.54746 -39428454.84445  24178574.5554                   24178577.4574
        38.7504         31.2504
 25  7  1  1  0  0.0000000  0 10G25G02G04G28G31G01G32G03G26G10
  -1543254.77045  -3300131.16843  24501658.2894                   24501660.3484
        32.7504         21.5004
 -46865456.41047 -38779249.39546  21898587.7814                   21898583.4844
        46.5004         37.0004
   1283639.30546  -4758165.91444  23333252.2504                   23333252.7934
        39.0004         26.0004
 -50770489.50447 -39392068.29346  21377798.9064                   21377796.1524
        45.2504         36.0004
 -46409112.29747 -36120418.66448  20139922.2894                   20139918.5824
        47.5004         48.2504
 -34428671.12947 -29172157.35946  21096064.1484                   21096062.2194
        47.5004         36.0004
 -63947036.03547 -49778704.21945  23565854.1884                   23565855.7734
        42.5004         35.7504
 -23561647.41447 -18322125.85547  21691320.0084                   21691319.9884
        46.5004         43.5004
  -4449461.85546  -5388314.64545  23514129.8674                   23514133.0664
        39.5004         33.0004
 -50666727.45746 -39433532.25045  24177334.8054                   24177336.8404
        39.5004         31.0004
 25  7  1  1  0 30.0000000  0 10G25G02G04G28G31G01G32G03G26G10
  -1606055.33245  -3349066.78944  24489708.5314                   24489710.6684
        34.5004         25.0004
 -46903695.19547 -38809045.88346  21891311.3444                   21891306.9024
        47.7504         37.2504
   1124656.35546  -4882048.65644  23302997.9924                   23302998.9884
        38.7504         26.5004
 -50807180.81247 -39420658.94946  21370816.2274                   21370814.1954
        46.7504         36.0004
 -46508225.81248 -36197649.97348  20121061.1414                   20121057.6454
        48.5004         48.0004
 -34523803.43447 -29246286.43745  21077961.5704                   21077959.4454
        46.7504         35.5004
 -63969868.34846 -49796495.70345  23561509.5474                   23561511.2154
        41.7504         35.7504
 -23730103.68747 -18453390.44547  21659263.3284                   21659264.1724
        46.5004         43.7504
  -4628130.14846  -5527536.60245  23480130.6804                   23480133.1914
        39.5004         33.5004
 -50673030.59446 -39438443.91845  24176135.4614                   24176137.2544
        40.2504         30.7504
 25  7  1  1  1  0.0000000  0 10G25G02G04G28G31G01G32G03G26G10
  -1668332.19145  -3397594.19144  24477856.7894                   24477861.1684
        35.0004         27.7504
 -46941540.16847 -38838535.49646  21884109.1254                   21884105.6564
        47.7504         36.5004
    965796.52746  -5005835.45744  23272768.9694                   23272768.7194
        39.5004         26.2504
 -50843431.19147 -39448906.02345  21363918.1644                   21363915.5394
        46.5004         35.7504
 -46606727.66047 -36274404.66047  20102316.7734                   20102313.4144
        47.5004         47.5004
 -34618357.89147 -29319965.24245  21059968.4774                   21059966.3674
        47.0004         35.0004
 -63992697.27347 -49814284.52745  23557165.6804                   23557166.3954
        42.0004         35.5004
 -23898405.71547 -18584534.83647  21627236.7344                   21627236.9964
        46.7504         44.0004
  -4806683.97346  -5666669.37145  23446152.7194                   23446155.3754
        39.0004         33.5004
 -50679125.09846 -39443192.98445  24174974.9614                   24174977.4964
        40.0004         31.7504
 25  7  1  1  1 30.0000000  0 10G25G02G04G28G31G01G32G03G26G10
  -1730083.42246  -3445712.10544  24466105.9144                   24466109.1844
        36.2504         25.5004
 -46978990.89147 -38867717.91445  21876982.7814                   21876978.1884
        44.7504         34.0004
    807062.09046  -5129524.53544  23242562.2274                   23242562.8244
        40.0004         26.5004
 -50879240.49247 -39476809.39145  21357103.8834                   21357101.8284
        45.5004         35.5004
 -46704615.63747 -36350681.00047  20083688.9774                   20083686.1374
        47.5004         47.5004
 -34712331.96947 -29393191.81645  21042085.9144                   21042083.6484
        45.7504         34.7504
 -64015520.81647 -49832069.18446  23552822.6414                   23552823.7114
        42.2504         36.2504
 -24066549.02747 -18715555.57047  21595239.6804                   21595240.3134
        46.0004         43.7504
  -4985117.66446  -5805708.53545  23412197.6094                   23412200.3634
        38.2504         33.0004
 -50685009.20346 -39447778.10245  24173856.2274                   24173858.4024
        39.5004         32.5004
 25  7  1  1  2  0.0000000  0 10G25G02G04G28G31G01G32G03G26G10
  -1791308.23846  -3493419.80144  24454455.7974                   24454458.8094
        36.0004         24.5004
 -47016047.91047 -38896593.57445  21869931.2974                   21869926.6564
        45.0004         33.5004
    648454.35246  -5253114.89844  23212380.5004                   23212381.0944
        40.7504         26.2504
 -50914609.55547 -39504369.71945  21350373.5864                   21350371.2584
        45.5004         35.7504
 -46801888.75048 -36426478.22747  20065178.4774                   20065175.5864
        48.7504         47.5004
 -34805724.35247 -29465965.11345  21024313.5394                   21024311.8054
        46.5004         35.0004
 -64038337.83647 -49849848.73446  23548481.0164                   23548481.4924
        42.5004         36.5004
 -24234530.31247 -18846450.04747  21563273.7974                   21563274.4384
        46.0004         43.2504
  -5163426.76246  -5944650.62145  23378267.3524                   23378269.3984
        39.0004         33.5004
 -50690682.39146 -39452198.82845  24172776.9774                   24172778.8914
        40.7504         32.5004
 25  7  1  1  2 30.0000000  0 10G25G02G04G28G31G01G32G03G26G10
  -1852008.89846  -3540719.07844  24442904.8134                   24442908.1214
        36.0004         24.5004
 -47052715.18747 -38925165.52745  21862953.3674                   21862949.2344
        46.2504         34.5004
    489971.30546  -5376608.10544  23182222.5164                   23182222.5554
        40.2504         28.0004
 -50949542.48847 -39531590.20745  21343725.7504                   21343723.8484
        45.5004         35.2504
 -46898548.94547 -36501797.84847  20046785.1804                   20046781.9414
        46.7504         47.5004
 -34898536.78547 -29538286.50845  21006651.8444                   21006649.9774
        45.5004         34.7504
 -64061150.55547 -49867624.91846  23544139.6804                   23544140.9804
        43.5004         37.0004
 -24402349.36747 -18977218.12147  21531338.8754                   21531339.6724
        46.0004         42.7504
  -5341609.78146  -6083494.46145  23344359.3914                   23344362.1334
        38.5004         33.2504
 -50696147.28446 -39456457.29345  24171736.8134                   24171738.6884
        39.2504         31.2504
 25  7  1  1  3  0.0000000  0 10G25G02G04G28G31G01G32G03G26G10
  -1912184.93746  -3587609.59444  24431454.1564                   24431457.4494
        37.0004         26.7504
 -47088993.73847 -38953434.56645  21856049.8444                   21856045.9884
        46.5004         35.7504
    331613.96946  -5500003.34044  23152087.0084                   23152087.7814
        39.5004         27.2504
 -50984040.36347 -39558471.68445  21337160.9144                   21337158.8324
        45.0004         35.0004
 -46994595.04347 -36576638.96547  20028507.9614                   20028504.7344
        46.7504         47.7504
 -34990768.19147 -29610155.14845  20989101.0704                   20989099.0474
        46.0004         35.0004
 -64083957.97347 -49885396.99646  23539800.2274                   23539800.7274
        43.7504         36.7504
 -24570003.09847 -19107857.35547  21499435.8524                   21499436.2464
        46.2504         43.0004
  -5519662.44946  -6222236.67645  23310476.9304                   23310479.2854
        40.7504         34.0004
 -50701403.43046 -39460553.11745  24170736.2504                   24170739.1454
        39.7504         31.2504
 25  7  1  1  3 30.0000000  0 10G25G02G04G28G31G01G32G03G26G10
  -1971838.38746  -3634092.83644  24420102.1254                   24420105.3834
        36.0004         25.5004
 -47124886.87947 -38981403.29346  21849220.1414                   21849216.2194
        46.5004         36.2504
    173380.81346  -5623301.81644  23121976.5084                   23121976.9344
        40.0004         25.7504
 -51018106.89847 -39585017.06645  21330678.5944                   21330676.6414
        45.2504         35.5004
 -47090029.53947 -36651003.50848  20010347.6954                   20010344.7464
        47.2504         48.0004
 -35082419.92647 -29681572.10245  20971660.4694                   20971658.4614
        46.0004         35.0004
 -64106761.91847 -49903166.34845  23535460.3984                   23535460.4184
        43.2504         35.5004
 -24737490.85947 -19238367.28147  21467564.1254                   21467564.1374
        46.2504         42.7504
  -5697582.85946  -6360875.86345  23276620.4304                   23276622.1054
        40.5004         34.2504
 -50706453.16046 -39464488.05945  24169775.6094                   24169778.8634
        38.2504         31.7504
 25  7  1  1  4  0.0000000  0 10G25G02G04G28G31G01G32G03G26G10
  -2030966.75046  -3680166.90644  24408850.9064                   24408853.3554
        37.5004         25.2504
 -47160394.10547 -39009071.29345  21842462.9614                   21842459.3054
        46.0004         35.2504
     15274.66446  -5746501.33244  23091889.8284                   23091890.3524
        40.0004         25.2504
 -51051741.36347 -39611225.76245  21324278.2734                   21324275.6094
        45.5004         35.5004
 -47184849.58647 -36724889.25848  19992303.8444                   19992300.6884
        47.0004         48.2504
 -35173489.16847 -29752535.17245  20954330.5164                   20954328.5664
        46.0004         35.0004
 -64129559.66847 -49920930.86746  23531121.5634                   23531123.7074
        43.5004         36.5004
 -24904807.64547 -19368743.97747  21435724.2344                   21435724.9494
        47.0004         43.2504
  -5875364.84446  -6499407.19945  23242788.2734                   23242791.2544
        40.5004         34.7504
 -50711294.25446 -39468260.41845  24168854.3134                   24168856.9534
        39.2504         31.7504
 25  7  1  1  4 30.0000000  0 10G25G02G04G28G31G01G32G03G26G10
   -514157.31246  -2498237.48843  24697488.9774                   24697493.1524
        36.2504         22.5004
 -45620104.50047 -37808845.64845  22135569.8674                   22135566.6214
        45.0004         35.0004
   1432712.21946  -4642004.43744  23361619.7814                   23361619.5434
        40.5004         26.7504
 -49509533.38747 -38409505.27746  21617750.6724                   21617748.3834
        46.2504         36.0004
 -45703640.75048 -35570700.56248  20274168.7034                   20274165.3674
        49.2504         48.0004
 -33688561.37147 -28595448.59445  21236902.8914                   21236901.2544
        47.0004         35.0004
 -62576939.11347 -48711096.73846  23826576.0944                   23826576.8914
        45.0004         36.7504
 -23496534.30147 -18271388.09847  21703709.6414                   21703709.9924
        46.5004         43.0004
  -4477587.65246  -5410230.14545  23508776.6954                   23508779.7074
        40.0004         34.0004
 -49140515.87846 -38244277.32644  24467763.6884                   24467765.7734
        38.0004         29.7504
 25  7  1  1  5  0.0000000  0 10G25G02G04G28G31G01G32G03G26G10
   -572258.25046  -2543511.00843  24686433.8134                   24686436.7114
        38.5004         22.2504
 -45654865.98047 -37835932.53545  22128954.9534                   22128951.8914
        44.2504         34.2504
   1274839.20746  -4765022.27344  23331577.6884                   23331576.7624
        40.2504         24.7504
 -49542331.06247 -38435061.92246  21611509.6174                   21611507.2974
        46.2504         36.0004
 -45797253.45348 -35643645.52348  20256354.7504                   20256351.2934
        49.2504         48.0004
 -33778486.25047 -28665519.93745  21219790.6254                   21219788.5824
        46.5004         35.2504
 -62599745.55947 -48728868.06646  23822236.8754                   23822236.2934
        43.7504         36.7504
 -23663523.50447 -18401509.52747  21671932.8524                   21671933.0004
        47.5004         43.5004
  -4655103.50046  -5548554.08245  23474997.5314                   23474999.7734
        41.0004         35.0004
 -49144962.75846 -38247742.52745  24466917.5554                   24466920.0354
        37.5004         30.0004
 25  7  1  1  5 30.0000000  0 10G25G02G04G28G31G01G32G03G26G10
   -629835.48946  -2588376.41243  24675476.7114                   24675480.2974
        39.2504         22.7504
 -45689246.89547 -37862722.87545  22122413.0394                   22122409.5274
        46.0004         34.2504
   1117093.44946  -4887940.92644  23301559.2344                   23301559.0824
        40.2504         24.7504
 -49574702.96147 -38460286.79746  21605349.7974                   21605347.2034
        46.2504         36.2504
 -45890252.30148 -35716112.15648  20238657.4694                   20238654.4064
        48.0004         48.0004
 -33867828.32847 -28735137.16046  21202789.4144                   21202787.8204
        46.7504         36.0004
 -62622546.02347 -48746634.69146  23817897.2344                   23817898.6054
        43.0004         36.5004
 -23830334.97747 -18531492.46147  21640190.0704                   21640190.1884
        47.2504         44.5004
  -4832470.59446  -5686762.12545  23441245.6024                   23441247.6844
        40.5004         35.0004
 -49149202.85246 -38251046.61345  24466110.2664                   24466113.1764
        39.0004         30.7504
 25  7  1  1  6  0.0000000  0 10G25G02G04G28G31G01G32G03G26G10
   -686891.32446  -2632835.53544  24664619.8674                   24664623.3134
        39.0004         24.5004
 -45723250.90247 -37889219.58645  22115942.3444                   22115938.0984
        46.7504         33.7504
    959473.37146  -5010761.69543  23271564.7034                   23271564.7664
        40.5004         22.7504
 -49606652.77047 -38485182.77745  21599269.4534                   21599267.1724
        46.2504         35.0004
 -45982639.00447 -35788101.80548  20221077.0164                   20221073.5984
        47.2504         48.0004
 -33956589.19147 -28804301.48446  21185898.5004                   21185896.8284
        47.7504         36.0004
 -62645342.02747 -48764397.90646  23813559.1334                   23813560.8594
        43.0004         36.5004
 -23996968.07047 -18661336.38347  21608481.0314                   21608481.0394
        46.5004         44.5004
  -5009687.15646  -5824852.86745  23407521.6644                   23407524.1484
        40.0004         33.7504
 -49153238.46546 -38254191.34845  24465342.3524                   24465345.2274
        38.0004         30.5004
 25  7  1  1  6 30.0000000  0 10G25G02G04G28G31G01G32G03G26G10
   -743430.23046  -2676891.89543  24653860.8054                   24653862.0474
        39.5004         20.2504
 -45756883.93047 -37915427.22745  22109542.5164                   22109538.5044
        47.2504         34.0004
    801974.97746  -5133487.60243  23241594.1484                   23241594.4804
        40.5004         23.5004
 -49638186.66047 -38509754.67245  21593268.9774                   21593266.6994
        45.7504         35.2504
 -46074418.12948 -35859618.00848  20203612.3054                   20203608.4884
        48.0004         48.2504
 -34044772.84447 -28873016.02345  21169118.2034                   21169115.7584
        46.5004         35.7504
 -62668137.68046 -48782160.85945  23809221.9924                   23809223.1604
        41.2504         34.2504
 -24163424.58248 -18791042.71947  21576805.4534                   21576805.6844
        48.0004         44.5004
  -5186753.64546  -5962826.68445  23373826.5554                   23373830.1054
        40.0004         33.5004
 -49157074.36346 -38257180.43445  24464613.2504                   24464615.4924
        37.7504         30.5004
 25  7  1  1  7  0.0000000  0 10G25G02G04G28G31G01G32G03G26G10
   -799451.58246  -2720544.93742  24643199.9614                   24643200.7544
        37.7504         17.2504
 -45790146.62947 -37941346.27745  22103212.7664                   22103208.8134
        46.5004         34.5004
    644599.40646  -5256117.83244  23211646.2424                   23211646.4614
        41.0004         25.5004
 -49669305.70747 -38534003.32845  21587346.7814                   21587344.5204
        46.2504         35.2504
 -46165588.69947 -35930660.01648  20186262.7504                   20186259.1684
        47.5004         48.5004
 -34132378.20347 -28941279.95746  21152447.5474                   21152445.3094
        45.7504         36.0004
 -62690932.03147 -48799922.71946  23804883.5784                   23804884.1724
        42.5004         36.2504
 -24329701.14547 -18920608.82847  21545163.7034                   21545164.0784
        47.0004         44.2504
  -5363665.60946  -6100680.10845  23340162.2194                   23340164.2734
        40.2504         33.2504
 -49160710.11346 -38260013.57045  24463921.2814                   24463923.9384
        38.2504         32.0004
 25  7  1  1  7 30.0000000  0 10G25G02G04G28G31G01G32G03G26G10
   -854956.68446  -2763795.75843  24632638.3284                   24632639.2974
        38.0004         21.7504
 -45823041.99247 -37966979.07845  22096952.8284                   22096949.2544
        45.5004         34.5004
    487346.12546  -5378652.75044  23181722.0864                   23181721.7074
        41.0004         24.7504
 -49700012.64147 -38557930.84845  21581503.9694                   21581501.5434
        45.2504         34.7504
 -46256151.79348 -36001228.66048  20169029.0704                   20169025.9534
        48.0004         48.5004
 -34219405.94147 -29009093.78945  21135886.4774                   21135884.3054
        47.7504         35.5004
 -62713725.55547 -48817683.97345  23800546.7734                   23800547.0164
        43.0004         35.5004
 -24495796.12147 -19050033.45747  21513556.7894                   21513557.0124
        47.0004         44.7504
  -5540420.28146  -6238410.93445  23306526.6884                   23306528.7854
        39.5004         32.5004
 -49164146.92246 -38262691.68745  24463267.0944                   24463270.3554
        39.0004         33.0004
 25  7  1  1  8  0.0000000  0 10G25G02G04G28G31G01G32G03G26G10
   -909946.16846  -2806644.60543  24622173.5864                   24622176.9804
        38.2504         22.0004
 -45855571.88347 -37992327.07045  22090762.4844                   22090759.1884
        44.7504         34.7504
    330215.12546  -5501092.43444  23151820.0704                   23151820.5824
        40.7504         24.0004
 -49730309.63347 -38581538.92245  21575738.6724                   21575735.6764
        45.0004         34.2504
 -46346107.92248 -36071324.35248  20151911.2504                   20151907.8714
        48.7504         48.5004
 -34305856.14547 -29076457.59445  21119435.7504                   21119433.5474
        46.7504         34.7504
 -62736518.39846 -48835444.70746  23796209.4224                   23796211.3364
        41.5004         36.7504
 -24661707.21147 -19179314.79747  21481984.8674                   21481985.5354
        46.2504         44.5004
  -5717014.10246  -6376016.44145  23272921.8834                   23272924.3364
        39.0004         33.0004
 -49167385.50046 -38265215.36345  24462651.4304                   24462653.9494
        39.7504         33.5004
 25  7  1  1  8 30.0000000  0 10G25G02G04G28G31G01G32G03G26G10
   -964419.25846  -2849091.13743  24611808.4064                   24611810.3164
        39.5004         22.2504
 -45887736.93747 -38017390.78545  22084642.2424                   22084638.1294
        45.2504         35.0004
    173207.89846  -5623435.63744  23121943.4774                   23121943.6804
        41.5004         25.0004
 -49760197.40247 -38604828.10246  21570050.8914                   21570048.7774
        45.5004         36.0004
 -46435455.96547 -36140946.20748  20134908.5634                   20134905.6334
        47.5004         48.7504
 -34391727.48847 -29143370.34045  21103094.7504                   21103093.0944
        46.2504         35.0004
 -62759309.13347 -48853203.78146  23791873.4304                   23791874.2384
        44.0004         36.7504
 -24827430.72347 -19308449.96547  21450448.9844                   21450449.2344
        47.0004         44.7504
  -5893442.31246  -6513492.89145  23239348.2894                   23239351.0164
        38.2504         34.0004
 -49170425.15246 -38267584.03145  24462072.0234                   24462075.4064
        37.2504         31.5004
 25  7  1  1  9  0.0000000  0 10G25G02G04G28G31G01G32G03G26G10
  -1018380.11746  -2891138.54744  24601539.1884                   24601542.7154
        37.5004         24.2504
 -45919542.65647 -38042174.50445  22078589.4774                   22078585.9574
        45.7504         34.0004
     16320.92646  -5745685.16044  23092088.0004                   23092088.5594
        41.0004         25.0004
 -49789681.72347 -38627802.91446  21564440.1564                   21564438.4024
        45.5004         36.5004
 -46524199.94147 -36210097.35248  20118020.9454                   20118018.0744
        47.2504         48.5004
 -34477023.73047 -29209834.95745  21086863.3674                   21086861.7114
        46.2504         34.7504
 -62782101.38347 -48870964.02345  23787535.5554                   23787535.9884
        43.0004         35.7504
 -24992968.06647 -19437440.06647  21418948.0394                   21418948.4694
        47.0004         45.2504
  -6069705.07046  -6650840.43445  23205806.4064                   23205809.7194
        39.0004         35.0004
 -49173270.32046 -38269801.12945  24461530.3054                   24461534.3444
        36.2504         30.5004
 25  7  1  1  9 30.0000000  0 10G25G02G04G28G31G01G32G03G26G10
  -1071829.94146  -2932787.74243  24591368.3444                   24591371.0664
        39.2504         22.5004
 -45950991.30147 -38066679.99645  22072604.8674                   22072601.2384
        44.7504         33.7504
   -140446.16446  -5867841.25443  23062256.6334                   23062256.5514
        41.0004         22.5004
 -49818765.10547 -38650465.30545  21558906.2274                   21558904.0664
        45.2504         35.5004
 -46612340.64147 -36278778.42248  20101248.4144                   20101245.7974
        47.0004         48.7504
 -34561745.31647 -29275851.78545  21070741.6334                   21070739.7384
        45.7504         34.5004
 -62804895.48047 -48888725.71545  23783198.0004                   23783198.8634
        43.0004         35.5004
 -25158317.10548 -19566283.43447  21387483.3594                   21387483.1524
        48.0004         45.2504
  -6245799.14146  -6788056.52745  23172297.0944                   23172299.2304
        39.0004         34.0004
 -49175921.89146 -38271867.37545  24461027.2424                   24461030.2814
        38.5004         33.0004
 25  7  1  1 10  0.0000000  0 10G25G02G04G28G31G01G32G03G26G10
  -1124764.30146  -2974035.30943  24581295.7194                   24581298.0784
        37.7504         22.7504
 -45982079.98847 -38090905.02345  22066689.3524                   22066684.9844
        45.5004         33.0004
   -297088.31246  -5989900.03943  23032448.9534                   23032448.6174
        41.5004         22.5004
 -49847444.80947 -38672813.14845  21553448.2584                   21553446.3634
        45.0004         35.5004
 -46699873.93448 -36346986.17648  20084591.5234                   20084588.3484
        48.0004         48.7504
 -34645887.53547 -29341417.14845  21054729.9064                   21054727.7934
        46.7504         34.5004
 -62827686.47347 -48906484.97746  23778861.1884                   23778862.1054
        44.0004         36.7504
 -25323470.69948 -19694974.52347  21356055.2274                   21356055.6684
        48.2504         45.5004
  -6421716.25446  -6925134.72345  23138820.6644                   23138823.4844
        38.5004         32.7504
 -49178375.63946 -38273779.48545  24460559.2194                   24460563.0084
        38.0004         32.2504
 25  7  1  1 10 30.0000000  0 10G25G02G04G28G31G01G32G03G26G10
  -1177186.67246  -3014883.91444  24571320.9454                   24571322.4534
        39.2504         24.5004
 -46012813.86747 -38114853.58245  22060840.8594                   22060837.1214
        46.7504         33.0004
   -453608.16846  -6111863.50044  23002663.7974                   23002663.7704
        41.2504         24.0004
 -49875725.65647 -38694850.19145  21548067.1954                   21548064.7504
        45.2504         34.7504
 -46786802.78547 -36414722.94948  20068049.9064                   20068046.3324
        47.7504         48.5004
 -34729453.15247 -29406533.23045  21038827.8674                   21038825.7274
        47.5004         34.0004
 -62850476.98847 -48924243.88345  23774524.3914                   23774525.1214
        43.0004         35.2504
 -25488429.14148 -19823513.52747  21324664.6724                   21324664.9384
        48.5004         45.7504
  -6597455.53946  -7062074.36345  23105379.1334                   23105381.2274
        40.5004         34.0004
 -49180635.01646 -38275540.13345  24460130.6884                   24460132.9454
        38.2504         31.7504
 25  7  1  1 11  0.0000000  0 10G25G02G04G28G31G01G32G03G26G10
  -1229097.24646  -3055333.73444  24561440.9694                   24561443.5824
        36.5004         25.5004
 -46043194.00047 -38138526.48045  22055059.4694                   22055055.6884
        45.5004         34.0004
   -610005.17646  -6233731.22744  22972901.6724                   22972902.5664
        41.5004         24.5004
 -49903609.28947 -38716577.73845  21542761.0704                   21542758.4344
        45.7504         34.7504
 -46873127.29348 -36481988.79348  20051622.8364                   20051619.4454
        48.5004         48.2504
 -34812441.96547 -29471199.84845  21023035.8834                   21023033.9344
        46.2504         34.2504
 -62873266.48446 -48942001.98445  23770187.6954                   23770188.2704
        40.7504         33.7504
 -25653189.63348 -19951898.28547  21293312.1334                   21293312.9064
        48.5004         46.0004
  -6773013.06246  -7198872.32845  23071972.5084                   23071973.7114
        40.7504         33.5004
 -49182700.21146 -38277149.48044  24459737.6564                   24459740.3554
        37.5004         29.7504
 25  7  1  1 11 30.0000000  0 10G25G02G04G28G31G01G32G03G26G10
  -1280501.48456  -3095388.91454  24551659.5084                   24551662.5234
        37.7504         26.0004
 -46073227.28947 -38161929.09845  22049344.2894                   22049341.0594
        45.7504         34.0004
   -766283.93447  -6355506.82843  22943163.8204                   22943163.2584
        43.0004         23.7504
 -49931102.58247 -38738001.11345  21537528.6254                   21537526.2664
        45.7504         35.0004
 -46958852.45747 -36548787.62548  20035309.5784                   20035306.3364
        47.5004         48.2504
 -34894858.79347 -29535420.75445  21007352.2034                   21007350.4964
        47.5004         33.5004
 -62896059.59447 -48959762.87145  23765849.9534                   23765850.7034
        42.5004         34.7504
 -25817754.46548 -20080130.59047  21261996.4304                   21261996.4534
        48.7504         45.5004
  -6948389.95346  -7335529.57845  23038598.3984                   23038600.5234
        40.2504         34.2504
 -49184576.56645 -38278611.68044  24459379.4304                   24459384.0044
        32.7504         26.7504
 25  7  1  1 12  0.0000000  0 10G25G02G04G28G31G01G32G03G26G10
  -1331398.10956  -3128682.82854  24541973.8204                   24541978.1524
        36.2504         28.5004
 -46102912.89847 -38185060.78945  22043695.1024                   22043691.3954
        44.5004         34.7504
   -922441.38347  -6477187.91844  22913447.7194                   22913447.1054
        43.2504         25.7504
 -49958204.74247 -38759119.70345  21532371.5474                   21532369.4344
        45.0004         34.5004
 -47043975.86347 -36615117.54748  20019110.9844                   20019107.7894
        47.0004         48.0004
 -34976700.99647 -29599193.90245  20991777.9924                   20991776.1484
        45.2504         34.0004
 -62918853.28946 -48977524.27345  23761512.1564                   23761513.9454
        39.5004         33.7504
 -25982118.31248 -20208206.27347  21230718.7974                   21230718.6724
        48.7504         45.2504
  -7123579.83246  -7472041.10245  23005260.5784                   23005262.7934
        39.0004         35.0004
 -49186262.04345 -38279925.09044  24459059.7344                   24459062.6524
        35.7504         27.2504
 25  7  1  1 12 30.0000000  0 10G25G02G04G28G31G01G32G03G26G10
  -1381786.04746  -3167946.12944  24532386.1024                   24532389.6804
        37.5004         28.7504
 -46132252.99247 -38207923.23845  22038112.4144                   22038109.1054
        46.0004         34.7504
  -1078477.59047  -6598774.48844  22883755.2274                   22883755.0554
        45.0004         27.0004
 -49984918.03147 -38779935.28145  21527288.2894                   21527285.8054
        45.5004         34.2504
 -47128498.38348 -36680979.24648  20003027.2194                   20003024.0704
        49.0004         48.0004
 -35057968.88747 -29662519.54745  20976313.8134                   20976311.4924
        47.2504         33.2504
 -62941647.58246 -48995286.11345  23757174.8524                   23757176.2734
        39.7504         34.5004
 -26146278.87947 -20336123.58647  21199480.4384                   21199479.5784
        47.7504         45.2504
  -7298579.24246  -7608404.22345  22971959.4224                   22971961.5204
        41.0004         35.0004
 -49187757.30546 -38281090.31244  24458774.8524                   24458778.5594
        36.0004         27.2504
 25  7  1  1 13  0.0000000  0 10G25G02G04G28G31G01G32G03G26G10
  -1431669.60946  -3206816.44944  24522893.1254                   24522895.8094
        36.7504         27.0004
 -46161251.82047 -38230519.78545  22032594.0634                   22032590.4774
        45.2504         34.0004
  -1234394.98847  -6720268.51644  22854085.3134                   22854084.7114
        44.0004         25.7504
 -50011247.16447 -38800451.52045  21522278.0394                   21522275.8794
        45.2504         34.2504
 -47212423.07047 -36746375.10548  19987056.8674                   19987053.5474
        47.0004         48.2504
 -35138665.28947 -29725399.87545  20960957.3914                   20960955.1994
        46.0004         33.2504
 -62964444.98046 -49013050.38745  23752836.2814                   23752837.6644
        40.2504         33.7504
 -26310236.37148 -20463882.63747  21168280.0234                   21168280.3794
        48.0004         44.5004
  -7473387.23446  -7744618.19145  22938694.5704                   22938696.7234
        40.7504         35.0004
 -49189065.51246 -38282109.85944  24458526.6174                   24458528.6294
        36.5004         28.0004
 25  7  1  1 13 30.0000000  0 10G25G02G04G28G31G01G32G03G26G10
     94371.40246  -2017693.54744  24813289.9224                   24813291.6524
        37.0004         26.2504
 -44614491.27747 -37025251.89145  22326932.6804                   22326929.3164
        46.5004         34.5004
    185231.22347  -5614066.21944  23124230.6724                   23124230.0744
        43.5004         27.2504
 -48461773.98447 -37593069.84045  21817132.5314                   21817131.2384
        44.5004         34.5004
 -45720328.09848 -35583703.70348  20270992.8364                   20270989.2584
        49.2504         48.2504
 -33643368.35248 -28560233.44145  21245503.1724                   21245500.9774
        48.2504         33.7504
 -61411825.02047 -47803216.70345  24048290.8364                   24048292.8094
        42.7504         35.0004
 -24898563.35247 -19363877.66447  21436912.5164                   21436912.8914
        47.7504         44.5004
  -6072575.01646  -6653076.14145  23205260.3984                   23205262.8954
        40.2504         34.5004
 -47614768.16845 -37055384.76244  24758105.6724                   24758107.7114
        35.0004         25.7504
 25  7  1  1 14  0.0000000  0 10G25G02G04G28G31G01G32G03G26G10
     45496.68445  -2055777.81244  24803988.6644                   24803992.6454
        35.0004         27.2504
 -44642811.90247 -37047319.96145  22321543.8524                   22321540.1644
        46.2504         33.5004
     29554.27747  -5735372.87144  23094606.1334                   23094605.7114
        43.0004         27.7504
 -48487338.80547 -37612990.49645  21812268.1254                   21812265.8834
        46.0004         35.5004
 -45803056.19947 -35648167.15648  20255250.4614                   20255247.5944
        47.7504         48.5004
 -33722920.19947 -28622221.90645  21230364.9384                   21230362.7774
        46.0004         34.0004
 -61434625.63746 -47820983.49245  24043952.1174                   24043953.2664
        40.2504         34.0004
 -25062104.83647 -19491312.56247  21405791.2424                   21405791.8914
        47.5004         44.5004
  -6246987.14846  -6788981.61345  23172070.6414                   23172072.5704
        40.5004         33.5004
 -47615702.27746 -37056112.68744  24757927.2584                   24757930.2734
        37.5004         28.0004
 25  7  1  1 14 30.0000000  0 11G16G25G02G04G28G31G01G32G03G26G10
  13912648.19556  10878161.01252  25285386.9304                   25285390.3984
        36.7504         17.2504
     -2874.70745  -2093469.73844  24794783.9064                   24794787.9144
        34.5004         28.2504
 -44670796.17647 -37069125.93445  22316218.8594                   22316214.6334
        46.5004         33.5004
   -126002.14847  -5856585.60244  23065004.9924                   23065004.4224
        43.2504         28.0004
 -48512524.54747 -37632615.77745  21807475.5634                   21807473.4384
        45.5004         34.7504
 -45885187.17648 -35712165.31648  20239621.5864                   20239618.4924
        48.5004         48.5004
 -33801900.07447 -28683764.68045  21215335.7734                   21215333.7814
        47.7504         33.2504
 -61457427.63746 -47838751.33645  24039612.5944                   24039613.3834
        40.2504         33.7504
 -25225434.51647 -19618582.43447  21374711.2034                   21374710.9734
        47.0004         44.5004
  -6421195.89146  -6924728.60245  23138920.1484                   23138921.3094
        40.0004         33.7504
 -47616450.29346 -37056695.60544  24757783.7894                   24757787.5594
        36.7504         27.5004
 25  7  1  1 15  0.0000000  0 11G16G25G02G04G28G31G01G32G03G26G10
  13724207.21945  10731324.13742  25249527.8754                   25249530.7974
        34.5004         15.5004
    -50746.98854  -2130772.79353  24785672.8444                   24785677.6294
        29.5004         22.2504
 -44698449.78947 -37090674.27745  22310956.0394                   22310952.6994
        46.0004         33.0004
   -281441.28547  -5977706.95744  23035425.9384                   23035425.5744
        42.0004         27.5004
 -48537336.73847 -37651949.98045  21802754.1484                   21802752.0044
        45.0004         34.7504
 -45966724.87148 -35775701.18448  20224105.8674                   20224102.4264
        48.0004         48.2504
 -33880311.72747 -28744864.68445  21200414.0634                   21200412.2544
        47.0004         33.0004
 -61480234.04346 -47856522.62145  24035273.0084                   24035273.2734
        41.0004         34.7504
 -25388553.34047 -19745687.99247  21343670.1094                   21343670.1454
        47.5004         44.7504
  -6595201.07846  -7060316.98845  23105807.2504                   23105808.8754
        40.5004         33.5004
 -47617016.19546 -37057136.64544  24757677.3834                   24757679.6884
        38.7504         26.0004
 25  7  1  1 15 30.0000000  0 11G16G25G02G04G28G31G01G32G03G26G10
  13535568.17245  10584332.89142  25213630.7814                   25213634.4224
        33.0004         15.5004
    -98126.53155  -2167691.90253  24776659.4924                   24776661.0234
        32.0004         21.5004
 -44725780.00047 -37111970.61345  22305755.9694                   22305751.5744
        46.0004         33.2504
   -436768.68746  -6098741.24244  23005867.2274                   23005867.5084
        40.5004         27.5004
 -48561783.21947 -37670999.20745  21798101.6254                   21798099.8714
        45.5004         33.7504
 -46047675.67648 -35838779.73048  20208700.9694                   20208697.7424
        48.7504         48.2504
 -33958161.19147 -28805526.63345  21185599.9304                   21185598.0944
        47.5004         33.0004
 -61503050.41046 -47874301.67645  24030931.2504                   24030932.1414
        41.0004         35.0004
 -25551464.45747 -19872631.70347  21312668.8674                   21312669.7034
        47.7504         44.7504
  -6769004.73846  -7195748.38345  23072733.6484                   23072735.8634
        41.2504         35.0004
 -47617406.41846 -37057440.73444  24757603.4694                   24757605.5234
        41.5004         26.0004
 25  7  1  1 16  0.0000000  0 11G16G25G02G04G28G31G01G32G03G26G10
  13346732.20345  10437188.20742  25177695.5084                   25177701.1644
        34.0004         15.5004
   -145016.05954  -2204229.30953  24767737.0944                   24767738.7384
        29.7504         21.5004
 -44752790.82047 -37133018.05545  22300616.1414                   22300612.1564
        45.5004         33.0004
   -591985.90246  -6219689.64844  22976330.4224                   22976330.7814
        40.2504         27.0004
 -48585867.75847 -37689766.40245  21793518.3754                   21793516.4844
        46.0004         33.5004
 -46128041.75048 -35901402.64848  20193407.7034                   20193404.1954
        48.7504         48.2504
 -34035450.51647 -28865752.09045  21170892.5474                   21170890.2424
        47.0004         33.0004
 -61525878.22747 -47892089.64545  24026587.5474                   24026588.5594
        42.0004         35.0004
 -25714167.10947 -19999412.97347  21281707.8364                   21281708.1914
        47.5004         44.5004
  -6942605.16047  -7331021.37945  23039699.4224                   23039700.3054
        42.0004         35.0004
 -47617623.37546 -37057609.84444  24757562.5634                   24757564.7934
        41.5004         26.0004
 25  7  1  1 16 30.0000000  0 11G16G25G02G04G28G31G01G32G03G26G10
  13157711.17245  10289899.40242  25141726.6884                   25141730.7854
        35.7504         17.2504
   -191407.58655  -2240378.51653  24758907.9304                   24758910.6134
        30.5004         22.0004
 -44779475.78547 -37153811.57045  22295537.7504                   22295534.3984
        45.2504         33.7504
   -747083.99646  -6340545.25444  22946816.1254                   22946816.7704
        40.0004         26.0004
 -48609583.79347 -37708246.46545  21789006.0944                   21789003.2074
        47.0004         34.5004
 -46207814.93748 -35963563.56648  20178227.2424                   20178224.1604
        48.0004         48.2504
 -34112171.33647 -28925534.57445  21156292.9694                   21156290.8874
        45.5004         33.5004
 -61548708.52046 -47909879.55945  24022243.2194                   24022244.5354
        41.2504         35.0004
 -25876650.01247 -20126023.00047  21250788.3134                   21250788.6884
        47.0004         44.7504
  -7115989.84046  -7466126.25445  23006704.7194                   23006706.6454
        41.7504         35.0004
 -47617659.00846 -37057637.68744  24757555.3054                   24757557.3634
        39.7504         26.0004
 25  7  1  1 17  0.0000000  0 11G16G25G02G04G28G31G01G32G03G26G10
  12968507.26646  10142468.06643  25105722.3444                   25105725.8484
        37.5004         19.0004
   -237302.62955  -2276140.87553  24750174.9144                   24750176.5704
        32.2504         21.5004
 -44805837.35947 -37174353.07445  22290520.9534                   22290517.9494
        45.0004         34.2504
   -902063.53946  -6461308.46544  22917324.6414                   22917324.8284
        40.0004         26.7504
 -48632934.13747 -37726441.57045  21784562.7504                   21784560.0164
        46.7504         35.0004
 -46286997.08248 -36025263.93748  20163159.6724                   20163156.1524
        48.5004         48.5004
 -34188324.72747 -28984874.90645  21141801.3054                   21141799.4804
        44.5004         32.7504
 -61571541.78946 -47927671.77745  24017897.4614                   24017899.1414
        41.5004         34.0004
 -26038911.33647 -20252460.37947  21219910.7894                   21219910.8524
        47.2504         45.0004
  -7289155.94147  -7601060.81645  22973752.6334                   22973754.1524
        42.7504         35.0004
 -47617514.78146 -37057525.31644  24757583.1174                   24757586.8094
        40.2504         28.0004
 25  7  1  1 17 30.0000000  0 11G16G25G02G04G28G31G01G32G03G26G10
  12779128.85545   9994900.69542  25069683.3134                   25069687.4414
        33.7504         17.2504
   -282699.71155  -2304893.98053  24741535.8204                   24741537.7974
        31.7504         22.7504
 -44831872.36347 -37194640.13345  22285567.4144                   22285563.9064
        45.2504         35.5004
  -1056918.84846  -6581974.87144  22887856.4774                   22887856.6884
        39.5004         26.2504
 -48655915.40247 -37744349.10545  21780189.2424                   21780187.1024
        45.7504         34.5004
 -46365583.18048 -36086499.86748  20148205.1884                   20148201.7974
        50.0004         48.7504
 -34263905.66847 -29043769.16845  21127418.4774                   21127416.6134
        46.7504         32.2504
 -61594372.37146 -47945461.90645  24013553.0864                   24013554.7544
        39.7504         33.2504
 -26200943.07447 -20378718.86747  21189077.3204                   21189077.1294
        47.7504         44.5004
  -7462094.45747  -7735818.02345  22940843.9534                   22940845.1094
        42.0004         35.5004
 -47617185.78546 -37057269.02044  24757645.9224                   24757647.5664
        40.0004         28.2504
 25  7  1  1 18  0.0000000  0 11G16G25G02G04G28G31G01G32G03G26G10
  12589575.59445   9847197.07442  25033612.3594                   25033617.0274
        33.0004         17.2504
   -327596.99645  -2339878.83643  24732991.0864                   24732995.3244
        30.2504         23.2504
 -44857585.99247 -37214676.77045  22280674.2274                   22280670.2664
        46.5004         34.5004
  -1211653.12146  -6702546.96544  22858411.9694                   22858412.2464
        39.5004         26.2504
 -48678533.08247 -37761973.29345  21775885.3834                   21775883.3164
        46.5004         34.7504
 -46443577.36748 -36147274.55948  20133363.2114                   20133360.0634
        48.5004         49.0004
 -34338917.87947 -29102220.25845  21113144.2504                   21113142.4414
        44.7504         33.0004
 -61617203.22346 -47963252.25045  24009208.9694                   24009209.9924
        40.2504         32.7504
 -26362746.02747 -20504799.06647  21158287.5704                   21158286.9614
        47.5004         44.7504
  -7634805.04747  -7870397.63346  22907977.8444                   22907979.2854
        43.0004         36.7504
 -47616676.14546 -37056872.00044  24757742.8834                   24757744.2424
        41.2504         25.5004
 25  7  1  1 18 30.0000000  0 10G16G02G04G28G31G01G32G03G26G10
  12399854.87145   9699363.02342  24997510.8594                   24997513.7154
        34.0004         16.2504
 -44882975.66047 -37234460.98445  22275842.0784                   22275838.7544
        46.0004         32.7504
  -1366261.37546  -6823020.85944  22828990.4144                   22828991.1334
        40.2504         27.0004
 -48700784.48447 -37779312.07445  21771650.7664                   21771648.8444
        46.5004         34.0004
 -46520975.50448 -36207584.80548  20118634.7584                   20118631.6414
        50.5004         49.2504
 -34413357.07047 -29160224.85245  21098979.2034                   21098977.2504
        46.0004         32.7504
 -61640029.33646 -47981038.88345  24004865.6564                   24004866.5554
        41.5004         33.2504
 -26524312.85247 -20630695.27047  21127542.1724                   21127542.5864
        46.2504         45.0004
  -7807279.36747  -8004793.14546  22875156.7034                   22875158.5274
        42.0004         36.2504
 -47615981.77346 -37056330.97744  24757874.7584                   24757876.5044
        40.5004         27.0004
 25  7  1  1 19  0.0000000  0 11G16G25G02G04G28G31G01G32G03G26G10
  12209961.52746   9551394.40643  24961376.3054                   24961377.6374
        36.7504         18.5004
   -415900.64155  -2394511.32454  24716189.2814                   24716192.2704
        32.0004         25.7504
 -44908051.50447 -37254000.68045  22271070.6724                   22271067.3554
        45.2504         32.5004
  -1520751.70746  -6943402.87544  22799592.1484                   22799592.0084
        40.0004         26.0004
 -48722680.00447 -37796373.54345  21767484.3834                   21767482.2344
        46.5004         34.2504
 -46597786.85248 -36267437.80148  20104018.1884                   20104014.9064
        48.7504         49.2504
 -34487231.96547 -29217789.71945  21084921.3524                   21084919.1994
        44.5004         32.7504
 -61662858.76646 -47998828.11745  24000520.7114                   24000522.8634
        41.5004         33.2504
 -26685649.23447 -20756411.91447  21096841.1484                   21096841.2704
        47.0004         45.2504
  -7979522.03546  -8139008.14545  22842379.7664                   22842381.7114
        40.5004         35.0004
 -47615111.69146 -37055653.03944  24758040.3364                   24758043.3794
        38.5004         29.5004
 25  7  1  1 19 30.0000000  0 10G16G02G04G28G31G01G32G03G26G10
  12019902.62146   9403296.78543  24925208.6174                   24925210.0744
        37.5004         19.0004
 -44932811.79747 -37273294.46545  22266358.9534                   22266355.4734
        45.7504         32.2504
  -1675119.94546  -7063689.76244  22770217.3204                   22770217.0434
        41.2504         26.0004
 -48744217.85947 -37813156.30545  21763386.1334                   21763383.8674
        46.2504         35.0004
 -46674008.24648 -36326831.10248  20089513.7894                   20089510.4494
        50.5004         49.2504
 -34560539.21547 -29274912.28145  21070970.8134                   21070969.2194
        46.2504         33.2504
 -61685687.22346 -48016616.60545  23996176.9304                   23996178.2424
        40.5004         33.5004
 -26846748.70347 -20881943.95347  21066185.1484                   21066185.1214
        47.2504         45.7504
  -8151525.52346  -8273036.77745  22809648.7504                   22809650.3874
        41.2504         35.5004
 -47614062.68746 -37054835.71544  24758239.8364                   24758243.8404
        38.5004         28.2504
 25  7  1  1 20  0.0000000  0 10G16G02G04G28G31G01G32G03G26G10
  11829690.10546   9255079.45342  24889013.1414                   24889013.2664
        37.0004         17.2504
 -44957249.71547 -37292337.04745  22261708.7734                   22261705.1844
        45.2504         32.5004
  -1829357.15246  -7183874.53544  22740866.7194                   22740866.4884
        41.5004         26.5004
 -48765391.34847 -37829655.15645  21759356.4534                   21759354.5744
        45.5004         35.0004
 -46749631.51248 -36385758.32448  20075123.3054                   20075120.0704
        49.2504         49.2504
 -34633270.46547 -29331586.00845  21057131.1954                   21057129.3204
        44.7504         33.0004
 -61708505.66446 -48034397.23045  23991835.3444                   23991835.8634
        40.7504         33.5004
 -27007599.85247 -21007282.46947  21035575.9924                   21035575.9264
        47.2504         46.2504
  -8323277.42246  -8406869.35945  22776964.7344                   22776967.2854
        40.5004         35.5004
 -47612826.68046 -37053872.65244  24758475.7894                   24758477.5274
        36.5004         27.5004
 25  7  1  1 20 30.0000000  0 10G16G02G04G28G31G01G32G03G26G10
  11639323.77745   9106742.27042  24852785.6094                   24852789.4304
        34.0004         16.2504
 -44981370.35947 -37311132.38345  22257118.7114                   22257115.1524
        45.5004         32.2504
  -1983466.15646  -7303959.41444  22711540.2664                   22711540.5634
        41.0004         26.2504
 -48786205.61347 -37845874.09445  21755395.9774                   21755393.6484
        46.2504         34.5004
 -46824660.39148 -36444222.38748  20060845.4454                   20060842.4694
        49.0004         49.2504
 -34705429.29747 -29387813.69545  21043399.6174                   21043397.4384
        44.7504         33.2504
 -61731316.77346 -48052172.14545  23987494.5704                   23987495.2894
        40.7504         34.5004
 -27168203.08648 -21132427.81647  21005014.1174                   21005013.9414
        48.0004         46.2504
  -8494777.12146  -8540505.42645  22744329.5864                   22744331.3284
        39.5004         35.2504
 -47611407.35546 -37052766.80544  24758745.8984                   24758747.3364
        39.2504         28.5004
 25  7  1  1 21  0.0000000  0 10G16G02G04G28G31G01G32G03G26G10
  11448809.10515                  24816532.930
        32.000
 -45005173.52347 -37329680.35245  22252588.7504                   22252585.8754
        46.0004         32.0004
  -2137444.27746  -7423942.32844  22682239.1174                   22682238.9264
        41.0004         25.2504
 -48806660.30147 -37861812.84045  21751503.9454                   21751501.7544
        46.0004         34.0004
 -46899093.53948 -36502222.25048  20046681.3984                   20046677.9344
        50.2504         49.5004
 -34777013.77747 -29443593.82445  21029777.6644                   21029775.7234
        47.2504         33.5004
 -61754117.77346 -48069939.20345  23983155.0084                   23983157.0784
        40.0004         34.0004
 -27328553.41048 -21257376.10247  20974500.6094                   20974500.5274
        48.0004         46.2504
  -8666018.62546  -8673940.28545  22711743.3834                   22711745.3134
        40.7504         35.2504
 -47609803.05945 -37051516.77044  24759050.7424                   24759054.3914
        35.5004         27.7504
 25  7  1  1 21 30.0000000  0 10G16G02G04G28G31G01G32G03G26G10
  11258144.75815                  24780251.625
        31.250
 -45028665.86747 -37347986.13745  22248118.2974                   22248115.1994
        45.0004         32.0004
  -2291295.87947  -7543826.64144  22652962.0704                   22652962.1564
        42.5004         24.2504
 -48826762.11747 -37877476.62545  21747678.6484                   21747676.5944
        45.5004         34.5004
 -46972936.45348 -36559762.19148  20032629.6564                   20032626.4694
        48.0004         49.2504
 -34848029.11347 -29498930.46545  21016264.0164                   21016261.7304
        45.0004         33.0004
 -61776912.90646 -48087701.74645  23978817.4384                   23978819.0634
        40.7504         34.0004
 -27488652.73448 -21382128.77747  20944034.5084                   20944034.6214
        48.5004         47.0004
  -8837002.76246  -8807174.62545  22679206.2664                   22679207.9344
        40.7504         35.5004
 -47608019.08246 -37050126.76244  24759390.5394                   24759393.7154
        36.7504         27.5004
 25  7  1  1 22  0.0000000  0 10G16G02G04G28G31G01G32G03G26G10
  12642761.43415                  25043733.023
        31.500
 -43476427.22347 -36138449.61345  22543499.9924                   22543496.0664
        46.5004         33.2504
   -869594.14147  -6436007.05544  22923503.5234                   22923502.7664
        42.5004         25.0004
 -47271091.05147 -36665265.43745  22043712.6954                   22043710.7154
        46.0004         33.0004
 -45470766.24248 -35389239.94548  20318483.3054                   20318479.8094
        48.5004         49.0004
 -33343052.08247 -28326221.10945  21302651.5554                   21302649.4344
        46.7504         33.5004
 -60224279.60946 -46877857.66845  24274273.9454                   24274274.6604
        40.2504         33.0004
 -26073071.66848 -20279078.55147  21213410.2664                   21213411.3054
        48.7504         47.2504
  -7432298.84846  -7712600.08645  22946512.5784                   22946514.8204
        40.0004         35.7504
 -46030634.75845 -35820996.12944  25059556.8524                   25059560.0824
        35.0004         25.7504
 25  7  1  1 22 30.0000000  0 10G16G02G04G28G31G01G32G03G26G10
  12451804.551 5                  25007394.977
        31.500
 -43499306.16847 -36156277.42645  22539146.4304                   22539142.5904
        46.5004         32.7504
  -1023194.06647  -6555695.25844  22894274.0164                   22894273.6374
        43.5004         24.7504
 -47290495.50047 -36680385.82045  22040020.4454                   22040018.1764
        47.5004         34.0004
 -45543433.46548 -35445863.76648  20304654.8134                   20304651.7194
        49.0004         49.2504
 -33412932.98447 -28380673.78145  21289353.6254                   21289351.4264
        47.0004         33.2504
 -60247064.03546 -46895611.79745  24269938.0634                   24269939.3754
        39.5004         33.2504
 -26232663.21147 -20403435.56247  21183041.1954                   21183041.8554
        47.5004         46.7504
  -7602759.55146  -7845426.54746  22914075.5634                   22914077.0274
        41.2504         36.0004
 -46028495.58646 -35819329.33244  25059963.9304                   25059967.2774
        36.5004         28.0004
 25  7  1  1 23  0.0000000  0 10G16G02G04G28G31G01G32G03G26G10
  12260700.17615                  24971029.648
        34.500
 -43521887.69547 -36173873.48445  22534849.1804                   22534845.8444
        45.2504         32.2504
  -1176673.96947  -6675289.94544  22865067.7034                   22865067.3714
        42.5004         25.0004
 -47309560.47747 -36695241.68045  22036392.3754                   22036390.6454
        47.0004         34.0004
 -45615520.09847 -35502035.16848  20290936.8134                   20290933.9494
        47.2504         49.0004
 -33482253.64847 -28434689.89545  21276161.8134                   21276160.4414
        45.2504         33.5004
 -60269848.62946 -46913366.10245  24265602.2734                   24265604.1844
        39.7504         32.7504
 -26392002.94147 -20527596.39547  21152719.8914                   21152720.3754
        46.5004         46.5004
  -7772959.14446  -7978049.54145  22881686.6954                   22881688.2114
        41.0004         35.5004
 -46026186.08645 -35817529.82844  25060402.0474                   25060406.5784
        32.5004         25.0004
 25  7  1  1 23 30.0000000  0 10G16G02G04G28G31G01G32G03G26G10
  12069447.96545  10113329.31652  24934634.2664                   24934635.3954
        35.7504         17.2504
 -43544177.14847 -36191241.93045  22530607.3914                   22530604.6884
        44.0004         32.0004
  -1330036.95347  -6794793.53144  22835883.7114                   22835883.5434
        43.0004         26.5004
 -47328291.47347 -36709837.27745  22032828.2974                   22032826.3554
        45.7504         33.7504
 -45687030.77748 -35557757.77348  20277329.0944                   20277325.9454
        49.7504         49.2504
 -33551018.14547 -28488272.62945  21263076.7734                   21263075.1844
        47.5004         32.7504
 -60292636.35546 -46931122.81645  24261266.2664                   24261267.2974
        40.5004         33.5004
 -26551091.66447 -20651561.59047  21122446.0944                   21122446.0164
        47.2504         45.5004
  -7942897.42246  -8110468.90645  22849348.3284                   22849350.5704
        41.0004         35.7504
 -46023710.21945 -35815600.69544  25060873.4144                   25060878.5394
        34.5004         26.7504
 25  7  1  1 24  0.0000000  0 10G16G02G04G28G31G01G32G03G26G10
  11878052.29746   9964189.98442  24898213.1254                   24898216.0234
        36.0004         17.2504
 -43566175.28147 -36208383.37145  22526421.3204                   22526418.3204
        45.5004         32.7504
  -1483281.46147  -6914204.80944  22806721.7274                   22806722.0664
        42.5004         24.0004
 -47346689.22347 -36724173.20345  22029326.8204                   22029324.5864
        47.0004         32.5004
 -45757964.93448 -35613031.14548  20263831.1804                   20263827.8714
        49.0004         49.0004
 -33619225.78547 -28541421.46145  21250097.3524                   21250095.5784
        47.0004         32.7504
 -60315425.59846 -46948880.75045  24256929.6644                   24256931.3014
        40.7504         33.7504
 -26709925.32447 -20775328.05147  21092221.0784                   21092220.6644
        46.5004         45.5004
  -8112569.30946  -8242680.70746  22817060.5554                   22817063.1054
        40.2504         36.5004
 -46021067.58246 -35813541.48044  25061376.9304                   25061381.1094
        36.0004         28.5004
 25  7  1  1 24 30.0000000  0 10G16G02G04G28G31G01G32G03G26G10
  11686516.21146   9814941.19542  24861764.9924                   24861767.8794
        36.0004         17.2504
 -43587884.29347 -36225299.52345  22522291.0864                   22522286.6524
        47.0004         32.2504
  -1636407.35247  -7033523.66044  22777583.2504                   22777583.0514
        42.7504         24.0004
 -47364756.04747 -36738251.28545  22025889.2194                   22025886.6134
        45.5004         32.7504
 -45828323.55948 -35667856.05148  20250442.3364                   20250439.0944
        48.5004         49.0004
 -33686877.41447 -28594137.02745  21237223.9694                   21237222.0944
        47.0004         34.0004
 -60338215.99646 -46966639.57845  24252593.1564                   24252594.3444
        41.0004         34.0004
 -26868501.39847 -20898893.78947  21062044.7034                   21062044.5084
        46.2504         45.5004
  -8281971.44946  -8374682.31246  22784825.2894                   22784827.0514
        41.2504         37.0004
 -46018258.79345 -35811352.96544  25061912.1724                   25061914.9964
        33.5004         24.5004
 25  7  1  1 25  0.0000000  0 10G16G02G04G28G31G01G32G03G26G10
  11494842.93045   9665585.60542  24825290.7114                   24825293.6054
        35.2504         15.5004
 -43609306.20747 -36241992.00045  22518214.2034                   22518210.8794
        45.7504         32.5004
  -1789414.28947  -7152749.79344  22748466.6954                   22748466.1844
        42.2504         24.7504
 -47382493.81247 -36752072.96145  22022513.4384                   22022511.4804
        45.0004         33.2504
 -45898107.53948 -35722233.18048  20237162.9844                   20237159.5204
        48.0004         48.5004
 -33753973.61747 -28646419.80545  21224456.1024                   21224454.3484
        46.2504         33.5004
 -60361007.07446 -46984398.91445  24248254.9924                   24248257.4614
        39.0004         31.5004
 -27026817.10947 -21022256.65647  21031918.5394                   21031918.4344
        46.2504         45.5004
  -8451099.90246  -8506470.66046  22752640.5394                   22752642.9734
        40.5004         36.5004
 -46015284.72345 -35809035.57444  25062477.5554                   25062481.1724
        35.5004         26.2504
 25  7  1  1 25 30.0000000  0 10G16G02G04G28G31G01G32G03G26G10
  11303032.09046   9516122.80942  24788789.7584                   24788793.0004
        37.5004         17.2504
 -43630446.93447 -36258465.38345  22514191.4454                   22514187.2154
        46.0004         31.2504
  -1942305.70746  -7271885.91444  22719372.6724                   22719372.6914
        41.2504         24.7504
 -47399908.36347 -36765642.77745  22019199.7894                   22019197.9924
        46.5004         34.0004
 -45967321.90247 -35776166.44948  20223991.4534                   20223988.3674
        47.5004         48.2504
 -33820518.85547 -28698273.25045  21211792.4454                   21211790.9344
        45.5004         34.2504
 -60383802.08646 -47002161.33645  24243917.4534                   24243919.4224
        37.7504         30.7504
 -27184873.48847 -21145417.43747  21001841.4844                   21001841.2344
        47.0004         46.0004
  -8619954.82046  -8638045.88346  22720508.4384                   22720510.5204
        41.2504         37.0004
 -46012149.71146 -35806592.76644  25063074.1804                   25063078.7664
        38.0004         28.5004
 25  7  1  1 26  0.0000000  0 10G16G02G04G28G31G01G32G03G26G10
  11111089.64546   9366557.44542  24752264.5084                   24752266.6524
        38.2504         16.2504
 -43651306.06647 -36274719.32845  22510221.4774                   22510218.4454
        45.0004         30.5004
  -2095078.72746  -7390929.76244  22690300.4534                   22690300.9574
        40.2504         26.0004
 -47416999.11347 -36778960.28545  22015947.9454                   22015945.8594
        46.7504         34.7504
 -46035964.72748 -35829654.36747  20210929.5234                   20210926.2194
        48.7504         47.7504
 -33886511.19147 -28749695.87145  21199234.5554                   21199232.8014
        46.0004         33.0004
 -60406597.91846 -47019924.38745  24239580.5084                   24239581.3714
        39.5004         32.7504
 -27342665.16047 -21268371.95347  20971814.7584                   20971814.8954
        47.2504         46.2504
  -8788529.93047  -8769403.05146  22688429.8364                   22688431.5744
        42.2504         37.7504
 -46008851.90246 -35804023.06644  25063701.6414                   25063705.0824
        38.0004         26.5004
 25  7  1  1 26 30.0000000  0 10G16G02G04G28G31G01G32G03G26G10
  10919015.39846   9216889.37942  24715713.6884                   24715716.8244
        39.0004         16.2504
 -43671888.73847 -36290757.82445  22506305.4774                   22506301.8524
        45.0004         31.5004
  -2247736.21546  -7509883.58244  22661250.8674                   22661250.7274
        40.2504         26.2504
 -47433771.29347 -36792029.53945  22012755.9454                   22012754.1844
        45.0004         33.7504
 -46104040.19148 -35882700.18447  20197975.1334                   20197972.2664
        48.2504         47.7504
 -33951954.59047 -28800690.74645  21186781.3444                   21186779.4734
        45.5004         34.5004
 -60429397.38746 -47037690.25445  24235241.8204                   24235243.3054
        40.0004         33.0004
 -27500192.57047 -21391120.57447  20941838.1334                   20941837.8794
        47.5004         46.7504
  -8956824.73847  -8900541.78146  22656404.8594                   22656406.7624
        43.0004         37.7504
 -46005395.07446 -35801329.54344  25064360.2274                   25064363.3554
        38.2504         26.0004
 25  7  1  1 27  0.0000000  0 10G16G02G04G28G31G01G32G03G26G10
  10726811.33646   9067120.03942  24679138.2114                   24679140.3954
        38.5004         15.5004
 -43692198.69947 -36306583.82045  22502440.0784                   22502437.3834
        45.2504         33.2504
  -2400279.50046  -7628748.41844  22632222.6954                   22632222.5084
        41.7504         27.7504
 -47450228.61347 -36804853.44545  22009624.0634                   22009622.3284
        44.7504         32.7504
 -46171551.09447 -35935306.08647  20185127.9694                   20185125.0474
        47.5004         47.7504
 -34016851.39847 -28851259.69945  21174431.9224                   21174429.8364
        45.5004         33.5004
 -60452201.57846 -47055459.84045  24230901.8054                   24230903.5234
        40.0004         33.5004
 -27657454.64547 -21513662.42647  20911912.1884                   20911911.9454
        47.2504         46.7504
  -9124837.18446  -9031460.49246  22624432.4454                   22624434.9304
        41.2504         36.0004
 -46001781.69146 -35798513.91844  25065048.3984                   25065051.0314
        40.2504         28.7504
 25  7  1  1 27 30.0000000  0 10G16G02G04G28G31G01G32G03G26G10
  10534483.45746   8917254.25842  24642539.9614                   24642541.2664
        37.7504         17.2504
 -43712234.96947 -36322196.53145  22498627.7894                   22498624.6564
        45.7504         33.5004
  -2552705.30547  -7747521.70744  22603217.0634                   22603217.5164
        42.5004         28.5004
 -47466370.12547 -36817431.25845  22006552.4774                   22006550.7664
        44.5004         33.0004
 -46238495.43048 -35987470.51247  20172389.1334                   20172386.2034
        48.0004         47.5004
 -34081199.44147 -28901401.05545  21162186.8984                   21162185.3484
        45.7504         34.5004
 -60475007.03946 -47073230.39145  24226562.7344                   24226563.2774
        41.0004         32.2504
 -27814445.68048 -21635993.08647  20882038.2974                   20882037.5274
        48.0004         47.7504
  -9292560.57846  -9162153.99645  22592516.3984                   22592518.1094
        41.0004         35.5004
 -45998009.48846 -35795574.64844  25065765.5164                   25065768.7774
        39.0004         29.7504
 25  7  1  1 28  0.0000000  0  9G16G02G04G28G31G01G32G03G26
  10342031.75846   8767292.04742  24605917.6094                   24605919.2304
        38.0004         15.5004
 -43732002.84847 -36337600.12945  22494866.3914                   22494863.0354
        46.0004         33.0004
  -2705016.58647  -7866205.77044  22574233.3364                   22574232.8364
        43.5004         29.2504
 -47482201.20347 -36829767.19945  22003539.7504                   22003537.9264
        46.0004         33.5004
 -46304877.55148 -36039196.83647  20159756.9534                   20159753.7774
        48.7504         47.5004
 -34145002.85547 -28951118.02745  21150045.6094                   21150043.9144
        46.2504         34.5004
 -60497816.56246 -47091004.06245  24222222.1334                   24222223.0434
        41.2504         31.5004
 -27971166.17648 -21758112.93047  20852215.0004                   20852214.8794
        48.2504         47.5004
  -9459994.53546  -9292621.96946  22560653.7664                   22560655.8554
        41.7504         36.5004
 25  7  1  1 28 30.0000000  0  9G16G02G04G28G31G01G32G03G26
  10149463.17646   8617238.78542  24569272.5474                   24569274.6454
        37.5004         14.7504
 -43751500.97747 -36352793.54345  22491156.0314                   22491152.5744
        45.0004         31.5004
  -2857209.50047  -7984797.57845  22545271.6334                   22545272.2074
        43.5004         30.7504
 -47497720.24647 -36841860.00845  22000587.1254                   22000584.7974
        46.0004         32.5004
 -46370695.15648 -36090483.29347  20147232.6094                   20147228.9774
        48.5004         47.5004
 -34208258.81247 -29000408.40245  21138008.2894                   21138006.4494
        46.0004         35.2504
 -60520626.07447 -47108777.76245  24217881.9774                   24217882.8794
        42.0004         32.2504
 -28127609.80947 -21880017.03547  20822444.7814                   20822444.5984
        47.7504         47.2504
  -9627131.87947  -9422858.80546  22528849.4384                   22528850.6994
        42.7504         37.5004
 25  7  1  1 29  0.0000000  0  9G16G02G04G28G31G01G32G03G26
   9956781.64545   8467097.44542  24532606.7194                   24532608.0784
        35.5004         13.7504
 -43770730.70747 -36367777.81644  22487496.1644                   22487492.4884
        44.5004         29.7504
  -3009283.14147  -8103296.44545  22516333.3054                   22516333.2504
        43.2504         30.0004
 -47512928.68747 -36853710.78145  21997692.8134                   21997691.2814
        45.2504         33.5004
 -46435948.56647 -36141330.11747  20134815.2584                   20134811.8594
        47.0004         47.5004
 -34270967.59847 -29049272.42245  21126075.2584                   21126073.4454
        45.7504         34.7504
 -60543434.45747 -47126550.56245  24213542.1414                   24213542.3834
        42.5004         34.0004
 -28283773.22347 -22001702.79747  20792727.8674                   20792727.2074
        47.5004         46.5004
  -9793968.32847  -9552861.17246  22497101.6804                   22497102.6804
        42.5004         37.5004
 25  7  1  1 29 30.0000000  0  9G16G02G04G28G31G01G32G03G26
   9763994.02346   8316873.47342  24495920.8054                   24495922.0084
        36.2504         16.2504
 -43789690.95747 -36382552.10945  22483888.3594                   22483884.9264
        44.5004         30.0004
  -3161233.71947  -8221699.43044  22487418.2894                   22487417.9344
        43.0004         29.7504
 -47527825.17247 -36865318.45345  21994858.2664                   21994856.4144
        45.7504         33.0004
 -46500635.46547 -36191735.50447  20122505.5084                   20122502.1054
        47.5004         47.5004
 -34333126.59447 -29097708.02045  21114246.5634                   21114244.9804
        45.7504         35.2504
 -60566237.71546 -47144319.37945  24209202.1724                   24209203.9454
        41.2504         34.2504
 -28439650.14147 -22123165.31647  20763065.6724                   20763064.7664
        46.7504         46.2504
  -9960496.71547  -9682623.50846  22465411.4924                   22465413.2544
        42.5004         37.0004
 25  7  1  1 30  0.0000000  0  9G16G02G04G28G31G01G32G03G26
   9571102.28545   8166568.50042  24459214.1024                   24459215.8204
        32.5004         15.5004
 -43808385.20747 -36397119.10945  22480331.3594                   22480328.2114
        44.2504         32.2504
  -3313062.37547  -8340007.40244  22458526.1334                   22458525.7464
        42.5004         29.0004
 -47542413.16847 -36876685.74245  21992082.3914                   21992080.6564
        46.2504         33.2504
 -46564758.47348 -36241701.49647  20110303.3594                   20110299.8874
        48.0004         47.7504
 -34394738.16047 -29145717.06245  21102522.4924                   21102521.0634
        47.0004         35.2504
 -60589036.80146 -47162084.96545  24204863.1954                   24204865.4144
        41.2504         34.0004
 -28595239.37147 -22244403.66047  20733457.9064                   20733457.7074
        46.7504         46.0004
 -10126714.89546  -9812144.12546  22433781.4454                   22433783.2504
        41.7504         36.5004
 25  7  1  1 30 30.0000000  0  9G16G02G04G28G31G01G32G03G26
                                  24722279.9924                   24722284.1294
        30.7504         14.7504
 -42251402.32047 -35183885.74645  22776614.9304                   22776612.2464
        45.2504         32.7504
  -1889351.05947  -7230621.89844  22729449.0394                   22729448.8914
        42.0004         28.0004
 -45981281.56247 -35660219.57845  22289156.1174                   22289153.7194
        46.7504         32.2504
 -45052904.06248 -35063633.14147  20398000.0394                   20397996.6094
        48.0004         47.7504
 -32880388.47347 -27965704.35245  21390693.6644                   21390691.8554
        46.2504         35.7504
 -59036417.66846 -45952251.94145  24500316.9454                   24500319.1374
        41.2504         33.2504
 -27175120.13347 -21137817.23047  21003696.7974                   21003697.3204
        46.5004         46.0004
  -8717200.89546  -8713821.48446  22702002.8834                   22702004.9454
        41.5004         37.0004
 25  7  1  1 31  0.0000000  0  9G16G02G04G28G31G01G32G03G26
  10760419.02355   9093309.10552  24685531.2814                   24685536.1844
        31.0004         15.5004
 -42269590.08647 -35198058.09045  22773154.0554                   22773151.1484
        45.7504         33.2504
  -2040954.38747  -7348754.28944  22700599.7274                   22700599.3954
        42.5004         27.0004
 -45995278.13347 -35671126.04745  22286492.3834                   22286490.1414
        46.0004         33.0004
 -45115922.21548 -35112738.20348  20386007.7734                   20386004.6134
        48.2504         48.0004
 -32940927.36347 -28012877.53945  21379173.4534                   21379171.5274
        46.0004         35.2504
 -59059226.23847 -45970024.88745  24495977.7114                   24495978.1294
        43.2504         32.2504
 -27330144.93447 -21258615.77347  20974196.9844                   20974197.0084
        47.0004         46.7504
  -8882806.99646  -8842865.15246  22670488.9304                   22670491.3714
        41.5004         37.0004
 25  7  1  1 31 30.0000000  0  9G16G02G04G28G31G01G32G03G26
  10567204.51245   8942752.59442  24648766.2034                   24648767.3714
        35.2504         16.2504
 -42287529.03147 -35212036.55545  22769741.0234                   22769737.5204
        46.5004         33.0004
  -2192445.50447  -7466799.26244  22671772.5164                   22671771.5314
        42.5004         25.5004
 -46008982.95747 -35681805.17245  22283884.3594                   22283882.5274
        45.0004         32.0004
 -45178390.59848 -35161414.87548  20374120.4534                   20374117.0044
        48.5004         48.0004
 -33000932.22347 -28059634.59045  21367755.2344                   21367753.4104
        46.7504         35.5004
 -59082039.64546 -45987801.60245  24491636.1564                   24491637.4534
        41.5004         32.0004
 -27484884.29347 -21379191.87947  20944751.6484                   20944751.2814
        47.2504         47.2504
  -9048102.52346  -8971666.82046  22639034.3054                   22639036.6214
        41.5004         37.2504
 25  7  1  1 32  0.0000000  0  9G16G02G04G28G31G01G32G03G26
  10373885.50446   8792114.55943  24611978.7814                   24611980.0704
        37.0004         18.2504
 -42305224.19147 -35225825.04745  22766373.1414                   22766370.1954
        45.2504         31.0004
  -2343827.16447  -7584758.93444  22642965.2504                   22642964.7304
        42.7504         26.0004
 -46022401.14147 -35692260.91845  22281330.5784                   22281328.9734
        45.2504         32.2504
 -45240313.48048 -35209666.47348  20362336.9304                   20362333.7234
        48.0004         48.2504
 -33060407.18447 -28105978.74645  21356437.1414                   21356435.5784
        46.2504         34.5004
 -59104860.43046 -46005584.07445  24487292.9384                   24487294.5514
        38.7504         30.5004
 -27639338.54747 -21499545.83648  20915359.4224                   20915359.6134
        47.2504         48.5004
  -9213086.96147  -9100226.07046  22607639.1644                   22607640.6844
        42.2504         37.2504
 25  7  1  1 32 30.0000000  0  9G16G02G04G28G31G01G32G03G26
  10180462.27346   8641395.32843  24575170.9844                   24575171.9534
        36.7504         21.0004
 -42322680.75847 -35239427.63744  22763051.4144                   22763048.3054
        45.0004         29.7504
  -2495102.22747  -7702635.57044  22614178.7814                   22614178.1524
        43.2504         25.5004
 -46035537.94947 -35702497.43045  22278831.3204                   22278829.0784
        46.0004         32.2504
 -45301695.37547 -35257496.52748  20350656.6254                   20350653.3284
        47.0004         48.0004
 -33119356.41447 -28151913.23445  21345219.6954                   21345218.2074
        44.5004         34.2504
 -59127691.25846 -46023374.41845  24482948.4454                   24482950.3524
        39.0004         30.0004
 -27793508.10247 -21619677.93047  20886022.0084                   20886021.9734
        47.0004         47.5004
  -9377759.82046  -9228542.54346  22576302.9064                   22576304.0784
        41.5004         37.2504
 25  7  1  1 33  0.0000000  0  9G16G02G04G28G31G01G32G03G26
   9986940.76245   8490599.52343  24538344.3364                   24538345.6024
        35.2504         19.5004
 -42339898.24247 -35252843.93444  22759774.8524                   22759771.7464
        44.5004         28.5004
  -2646267.82447  -7820426.87144  22585412.1884                   22585411.9964
        43.0004         27.5004
 -46048392.80147 -35712514.23045  22276385.0234                   22276382.8444
        45.0004         32.0004
 -45362534.98847 -35304904.02048  20339078.5314                   20339075.6454
        47.0004         48.2504
 -33177778.26647 -28197436.77745  21334102.5704                   21334100.2854
        44.0004         34.2504
 -59150528.88746 -46041170.06645  24478603.2894                   24478604.5594
        40.7504         31.5004
 -27947387.53547 -21739583.98047  20856739.6094                   20856739.4964
        46.5004         47.0004
  -9542114.89547  -9356611.36746  22545026.8054                   22545028.3014
        42.5004         37.5004
 25  7  1  1 33 30.0000000  0  9G16G02G04G28G31G01G32G03G26
   9793316.90245   8339724.00842  24501497.9384                   24501499.4414
        35.0004         17.2504
 -42356886.64547 -35266081.71944  22756542.1174                   22756539.3204
        44.0004         29.0004
  -2797331.10247  -7938138.47744  22556666.7504                   22556665.5004
        43.2504         27.5004
 -46060975.27347 -35722318.77745  22273990.7344                   22273988.6764
        45.7504         32.2504
 -45422840.95347 -35351895.68448  20327602.7344                   20327599.6994
        47.0004         48.2504
 -33235681.43047 -28242556.14545  21323083.4384                   21323081.4964
        44.0004         33.0004
 -59173380.47746 -46058976.54345  24474253.7274                   24474256.4104
        40.5004         31.7504
 -28100981.63347 -21859267.68447  20827511.3284                   20827511.4804
        47.0004         46.7504
  -9706156.13347  -9484435.65246  22513811.5004                   22513812.2034
        42.5004         37.5004
 25  7  1  1 34  0.0000000  0  9G16G02G04G28G31G01G32G03G26
   9599597.26645   8188773.68442  24464634.1334                   24464635.4264
        35.0004         17.7504
 -42373644.68747 -35279140.01245  22753353.3984                   22753350.8554
        44.5004         31.5004
  -2948288.50047  -8055767.54744  22527940.1484                   22527939.4574
        43.0004         27.7504
 -46073284.11747 -35731910.11745  22271648.6094                   22271646.8834
        46.0004         33.2504
 -45482611.53947 -35398470.16448  20316228.9144                   20316225.9304
        47.0004         48.0004
 -33293063.64547 -28287269.58645  21312164.4304                   21312162.4104
        45.7504         33.5004
 -59196242.03146 -46076790.80145  24469903.8364                   24469905.4384
        38.7504         30.0004
 -28254284.35948 -21978724.33647  20798338.8754                   20798339.0354
        48.0004         47.0004
  -9869876.64147  -9612010.02346  22482655.6954                   22482657.3284
        42.0004         37.0004
 25  7  1  1 34 30.0000000  0  9G16G02G04G28G31G01G32G03G26
   9405791.00046   8037755.94943  24427754.9144                   24427755.9884
        36.7504         19.0004
 -42390168.81647 -35292016.00845  22750209.2194                   22750206.6094
        45.0004         32.0004
  -3099134.08247  -8173309.50044  22499235.0314                   22499234.3014
        43.0004         29.5004
 -46085315.75047 -35741285.44545  22269358.8364                   22269357.5044
        45.0004         33.2504
 -45541842.25447 -35444623.96948  20304958.2424                   20304954.5664
        47.0004         48.2504
 -33349920.37947 -28331573.57445  21301344.5864                   21301343.3094
        44.5004         33.5004
 -59219107.40246 -46094608.04745  24465552.6254                   24465555.3134
        39.0004         30.2504
 -28407287.33647 -22097947.41047  20769223.4774                   20769223.6524
        47.2504         47.2504
 -10033267.10547  -9739327.24646  22451563.8054                   22451565.1914
        42.0004         37.5004
 25  7  1  1 35  0.0000000  0  9G16G02G04G28G31G01G32G03G26
   9211894.89846   7886668.24643  24390857.6254                   24390859.5634
        38.2504         19.0004
 -42406468.05547 -35304716.78545  22747108.0634                   22747105.1094
        45.0004         31.2504
  -3249874.10547  -8290769.18745  22470550.3284                   22470549.2814
        43.0004         30.0004
 -46097078.80147 -35750451.48845  22267120.4614                   22267118.5824
        45.0004         32.7504
 -45600540.73048 -35490363.04348  20293788.0944                   20293784.9064
        48.5004         48.2504
 -33406259.36747 -28375474.10545  21290623.6094                   21290622.4104
        47.0004         33.5004
 -59241982.69546 -46112433.02345  24461200.3134                   24461202.0744
        40.5004         31.5004
 -28559994.32048 -22216939.84447  20740164.5704                   20740164.3094
        48.2504         47.5004
 -10196330.60947  -9866389.68446  22420533.8364                   22420534.9654
        42.0004         38.0004
 25  7  1  1 35 30.0000000  0  9G16G02G04G28G31G01G32G03G26
   9017911.69546   7735512.65643  24353943.8524                   24353944.5044
        38.2504         19.5004
 -42422545.19547 -35317244.48845  22744048.2584                   22744045.2464
        44.7504         30.2504
  -3400509.19547  -8408147.12545  22441884.5864                   22441884.3834
        42.2504         30.0004
 -46108576.23447 -35759410.56645  22264932.5864                   22264930.8054
        44.0004         32.2504
 -45658709.87548 -35535689.65248  20282718.7664                   20282715.7704
        48.0004         48.0004
 -33462082.64147 -28418972.80545  21280000.9224                   21279999.5394
        47.7504         34.0004
 -59264868.17246 -46130265.93745  24456844.2274                   24456847.0434
        39.7504         31.7504
 -28712403.52747 -22335700.24647  20711161.8284                   20711161.7704
        47.0004         47.5004
 -10359064.47347  -9993195.24646  22389566.4064                   22389567.6684
        43.5004         38.5004
 25  7  1  1 36  0.0000000  0  9G16G02G04G28G31G01G32G03G26
   8823846.60946   7584293.22343  24317014.9614                   24317014.6174
        39.0004         18.5004
 -42438400.63747 -35329599.44944  22741030.6644                   22741027.6954
        44.5004         29.7504
  -3551037.16047  -8525441.57844  22413240.0864                   22413240.0594
        42.5004         29.7504
 -46119808.27747 -35768162.83645  22262795.3134                   22262793.0204
        44.2504         32.5004
 -45716348.86748 -35580603.16447  20271750.6954                   20271747.2234
        48.2504         47.7504
 -33517389.50447 -28462069.10245  21269476.5864                   21269474.9654
        47.5004         34.2504
 -59287761.39546 -46148104.85945  24452489.2114                   24452490.2464
        39.0004         31.0004
 -28864510.26248 -22454224.95348  20682216.5864                   20682216.6174
        49.0004         48.0004
 -10521463.26647 -10119739.70346  22358662.9844                   22358664.8554
        43.7504         38.5004
 25  7  1  1 36 30.0000000  0  9G16G02G04G28G31G01G32G03G26
   8629703.35546   7433012.98043  24280069.9844                   24280070.6564
        39.2504         19.7504
 -42454036.64147 -35341783.41045  22738056.2584                   22738052.4184
        45.0004         30.0004
  -3701457.47747  -8642652.14845  22384616.4844                   22384616.0744
        43.5004         30.5004
 -46130776.74647 -35776709.71145  22260707.6414                   22260706.0354
        44.2504         32.7504
 -45773459.48048 -35625104.94547  20260882.5704                   20260879.1954
        48.7504         47.5004
 -33572180.99248 -28504763.80945  21259050.0474                   21259048.5204
        48.2504         34.5004
 -59310661.66846 -46165949.29744  24448130.4064                   24448131.5474
        39.0004         29.5004
 -29016311.62548 -22572511.71948  20653330.4064                   20653329.9144
        48.5004         48.0004
 -10683523.29347 -10246020.17246  22327824.2274                   22327825.6484
        43.5004         38.2504
 25  7  1  1 37  0.0000000  0  9G16G02G04G28G31G01G32G03G26
   8435484.72446   7281673.90643  24243110.9224                   24243111.4494
        38.7504         18.5004
 -42469455.65247 -35353798.28145  22735121.6334                   22735118.8484
        44.5004         30.0004
  -3851770.52747  -8759779.15244  22356012.2274                   22356011.8324
        42.0004         29.2504
 -46141484.32447 -35785053.31645  22258670.3054                   22258668.6024
        45.2504         32.7504
 -45830042.91448 -35669195.93747  20250114.9064                   20250111.8094
        48.5004         47.0004
 -33626459.01648 -28547058.41845  21248721.1724                   21248720.1174
        48.2504         34.7504
 -59333569.02746 -46183799.28144  24443770.8444                   24443772.3874
        39.0004         28.0004
 -29167805.47748 -22690558.85948  20624501.8364                   20624501.9224
        49.2504         48.0004
 -10845241.61347 -10372034.39546  22297050.1254                   22297051.5514
        42.5004         38.5004
 25  7  1  1 37 30.0000000  0  9G16G02G04G28G31G01G32G03G26
   8241191.14546   7130276.39143  24206138.5944                   24206139.3484
        39.7504         19.0004
 -42484663.14547 -35365648.32845  22732227.8054                   22732225.2814
        44.7504         30.0004
  -4001978.88347  -8876824.57844  22327428.7344                   22327427.7504
        42.7504         27.5004
 -46151935.98847 -35793197.50445  22256681.8204                   22256679.7304
        45.5004         33.0004
 -45886104.04748 -35712879.94547  20239446.8914                   20239443.8444
        49.2504         47.2504
 -33680227.67648 -28588956.11745  21238489.4774                   21238488.2074
        49.2504         35.5004
 -59356485.86346 -46201656.59845  24439411.3284                   24439411.5664
        39.7504         30.0004
 -29318992.01248 -22808366.50447  20595731.9454                   20595731.8444
        48.7504         47.7504
 -11006617.57047 -10497781.84846  22266340.9534                   22266342.3674
        42.7504         38.5004
 25  7  1  1 38  0.0000000  0  9G16G02G04G28G31G01G32G03G26
   8046828.07046   6978824.77343  24169152.8444                   24169152.2384
        40.0004         18.5004
 -42499659.46947 -35377333.87545  22729374.2974                   22729371.2344
        45.5004         30.7504
  -4152080.54746  -8993786.85944  22298865.1804                   22298865.0164
        41.5004         27.0004
 -46162132.03147 -35801142.51245  22254741.4844                   22254739.3484
        45.2504         32.0004
 -45941642.40248 -35756156.58647  20228878.3984                   20228875.4304
        48.2504         47.5004
 -33733486.51648 -28630456.55145  21228354.7194                   21228353.2274
        48.5004         35.2504
 -59379409.84846 -46219519.49245  24435048.4694                   24435050.1524
        40.0004         30.2504
 -29469866.69148 -22925931.16047  20567021.3834                   20567021.2114
        48.0004         47.7504
 -11167645.89847 -10623258.44946  22235698.1414                   22235699.3754
        42.5004         38.0004
 25  7  1  1 38 30.0000000  0  9G16G02G04G28G31G01G32G03G26
   7852396.45346   6827319.77042  24132153.3754                   24132153.9184
        39.2504         17.7504
 -42514449.00447 -35388858.27345  22726560.5784                   22726555.9774
        47.0004         31.5004
  -4302077.48046  -9110667.52744  22270321.4534                   22270321.0274
        41.7504         27.2504
 -46172076.85547 -35808891.76245  22252848.7814                   22252847.0394
        45.0004         31.5004
 -45996661.80148 -35799028.85247  20218408.5704                   20218405.5164
        49.7504         47.2504
 -33786239.14148 -28671562.53545  21218316.6094                   21218314.5594
        48.0004         35.0004
 -59402342.65246 -46237389.28145  24430684.5634                   24430686.7894
        38.7504         32.0004
 -29620429.05547 -23043252.46147  20538369.8364                   20538370.2974
        47.5004         47.5004
 -11328325.42247 -10748463.23846  22205121.8444                   22205123.1414
        42.7504         38.5004
 25  7  1  1 39  0.0000000  0  9G16G02G04G28G31G01G32G03G26
   9233326.56646   7903369.32042  24394935.2894                   24394936.4384
        39.0004         16.7504
 -40953613.66447 -34172623.02345  23023576.6804                   23023573.9104
        45.2504         30.7504
  -2876544.23047  -7999862.36344  22541592.0474                   22541591.1174
        42.0004         28.2504
 -44606352.04347 -34588846.48045  22550796.3754                   22550795.0434
        45.0004         32.5004
 -44475741.68048 -34613896.29747  20507830.3204                   20507826.9144
        48.7504         47.2504
 -32263064.98447 -27484673.60245  21508166.8594                   21508165.4454
        47.2504         34.7504
 -57849862.84046 -45027664.83244  24726111.7894                   24726113.4734
        38.7504         29.7504
 -28195251.24248 -21932724.28547  20809572.0164                   20809572.6334
        48.0004         47.7504
  -9913227.17647  -9645789.23046  22474406.1484                   22474407.4414
        44.5004         38.5004
 25  7  1  1 39 30.0000000  0  9G16G02G04G28G31G01G32G03G26
   9038765.05546   7751763.01642  24357911.0634                   24357912.8054
        36.5004         16.7504
 -40968000.17247 -34183833.35244  23020838.9534                   23020836.9344
        45.0004         29.7504
  -3026334.05947  -8116581.64844  22513087.8834                   22513087.6414
        42.5004         28.2504
 -44615803.81647 -34596211.53545  22548997.9064                   22548996.4384
        45.5004         32.2504
 -44529730.87947 -34655965.82047  20497556.3984                   20497553.2664
        47.0004         47.0004
 -32314812.44147 -27524996.32445  21498319.6804                   21498317.8094
        44.5004         35.2504
 -57872814.90246 -45045549.60244  24721743.9144                   24721744.9184
        37.5004         28.5004
 -28345184.06247 -22049555.04747  20781041.1414                   20781041.2704
        47.5004         47.5004
 -10073201.87947  -9770444.77346  22443964.3914                   22443964.9774
        45.0004         39.0004
 25  7  1  1 40  0.0000000  0  9G16G02G04G28G31G01G32G03G26
   8844148.16445   7600113.58642  24320877.4224                   24320878.7384
        34.2504         13.7504
 -40982184.30147 -34194885.95745  23018140.2114                   23018137.8914
        45.5004         30.0004
  -3176015.82447  -8233216.75845  22484604.2114                   22484603.8754
        43.5004         30.7504
 -44625008.07047 -34603383.73045  22547246.3204                   22547244.8794
        45.5004         31.5004
 -44583203.26248 -34697632.61747  20487380.8364                   20487377.5824
        49.0004         46.5004
 -32366055.31247 -27564925.84845  21488568.5554                   21488566.5434
        45.7504         33.5004
 -57895771.65646 -45063438.06645  24717376.1644                   24717378.1254
        40.0004         30.0004
 -28494793.96148 -22166134.17648  20752570.9224                   20752571.2854
        48.2504         48.2504
 -10232814.91447  -9894818.51246  22413590.8914                   22413592.0394
        44.5004         39.5004
 25  7  1  1 40 30.0000000  0  9G16G02G04G28G31G01G32G03G26
   8649476.69946   7448421.64842  24283832.2584                   24283834.5164
        37.0004         16.2504
 -40996170.82447 -34205784.61345  23015479.2274                   23015475.6684
        46.0004         30.5004
  -3325591.86347  -8349769.47345  22456140.1804                   22456139.8244
        44.2504         30.0004
 -44633969.55147 -34610366.73045  22545541.3134                   22545539.3364
        45.7504         31.5004
 -44636163.03548 -34738899.98847  20477302.8364                   20477299.7114
        48.5004         46.5004
 -32416797.57847 -27604465.27745  21478912.3054                   21478910.8324
        44.5004         33.7504
 -57918735.19946 -45081331.76245  24713006.1484                   24713007.5204
        41.2504         33.0004
 -28644080.84048 -22282461.59848  20724163.3284                   20724163.2074
        48.7504         48.5004
 -10392065.39547 -10018909.74646  22383286.1954                   22383287.3634
        45.2504         39.7504
 25  7  1  1 41  0.0000000  0  9G16G02G04G28G31G01G32G03G26
   8454749.371 6                  24246777.078
        37.500
 -41009966.85247 -34216534.85545  23012853.8444                   23012850.4774
        45.5004         30.7504
  -3475066.48047  -8466243.16844  22427696.7344                   22427695.9614
        42.7504         29.5004
 -44642694.89547 -34617165.74645  22543880.4534                   22543879.1684
        45.0004         31.0004
 -44688616.47748 -34779772.81247  20467321.1724                   20467318.3284
        49.2504         46.5004
 -32467045.25847 -27643619.32845  21469350.6334                   21469349.3954
        45.7504         33.2504
 -57941709.60246 -45099233.94145  24708634.7664                   24708636.1374
        40.0004         32.5004
 -28793046.56648 -22398538.76248  20695815.9224                   20695815.8524
        49.0004         48.5004
 -10550954.50447 -10142719.39546  22353051.0234                   22353052.0044
        45.0004         39.0004
 25  7  1  1 41 30.0000000  0  9G16G02G04G28G31G01G32G03G26
   8259973.445 5                  24209711.711
        34.750
 -41023571.08247 -34227135.65245  23010265.5944                   23010262.4654
        46.0004         30.0004
  -3624435.80147  -8582634.80545  22399272.6564                   22399272.2544
        45.5004         30.7504
 -44651182.53947 -34623779.52345  22542265.5474                   22542264.0704
        45.0004         31.2504
 -44740561.21148 -34820249.24647  20457436.7734                   20457433.5554
        48.5004         47.0004
 -32516796.23847 -27682386.34045  21459883.4694                   21459881.7704
        46.2504         34.2504
 -57964690.59446 -45117141.27345  24704261.0784                   24704263.3554
        40.2504         33.5004
 -28941684.80948 -22514360.75048  20667531.0474                   20667530.7664
        48.5004         48.5004
 -10709475.24647 -10266242.02046  22322885.7504                   22322885.8794
        44.0004         38.7504
 25  7  1  1 42  0.0000000  0  9G16G02G04G28G31G01G32G03G26
   8065151.38314                  24172635.680
        29.250
 -41036986.67647 -34237589.43444  23007712.4224                   23007709.1414
        44.0004         29.0004
  -3773700.62547  -8698945.01245  22370868.7034                   22370867.7934
        44.7504         30.7504
 -44659435.65647 -34630210.56245  22540695.4774                   22540693.5594
        44.5004         31.0004
 -44792000.44948 -34860331.77047  20447648.4694                   20447645.2664
        49.5004         47.0004
 -32566053.09447 -27720768.32445  21450510.3914                   21450508.8054
        47.2504         34.2504
 -57987678.79746 -45135054.27345  24699886.6484                   24699889.4024
        38.0004         31.7504
 -29089993.98048 -22629926.32448  20639308.5784                   20639308.7234
        49.0004         48.5004
 -10867625.28947 -10389475.77046  22292790.5394                   22292791.4734
        44.0004         38.5004
 25  7  1  1 42 30.0000000  0  9G16G02G04G28G31G01G32G03G26
   7870286.87915                  24135553.570
        32.000
 -41050215.68047 -34247897.82044  23005194.4304                   23005191.3364
        44.5004         28.7504
  -3922860.54347  -8815173.46945  22342484.0864                   22342483.6644
        44.2504         30.7504
 -44667456.17247 -34636460.35945  22539168.9384                   22539166.5634
        45.0004         30.2504
 -44842935.59447 -34900021.50447  20437955.4844                   20437952.3324
        47.7504         47.5004
 -32614817.09047 -27758766.27345  21441230.7584                   21441229.1454
        47.0004         34.2504
 -58010673.37946 -45152972.19945  24695510.8364                   24695512.6564
        38.2504         31.0004
 -29237971.17648 -22745233.20748  20611149.8444                   20611149.2664
        49.2504         48.5004
 -11025401.10247 -10512417.91046  22262766.0164                   22262767.7664
        43.7504         39.0004
 25  7  1  1 43  0.0000000  0  9G16G02G04G28G31G01G32G03G26
   7675379.06345   7312766.32453  24098466.7584                   24098467.4414
        35.7504         18.2504
 -41063265.27747 -34258066.39845  23002711.6564                   23002708.6524
        44.5004         30.2504
  -4071919.59847  -8931323.31645  22314119.2424                   22314118.9804
        44.0004         30.5004
 -44675250.50447 -34642533.90245  22537686.0474                   22537683.6564
        44.7504         30.7504
 -44893372.62947 -34939323.09847  20428357.3674                   20428354.5004
        47.0004         47.7504
 -32663094.12147 -27796384.78545  21432043.8054                   21432042.4574
        46.0004         33.7504
 -58033678.19146 -45170898.06644  24691133.3594                   24691134.3754
        38.0004         28.7504
 -29385618.07448 -22860282.72348  20583053.2424                   20583052.9264
        49.2504         48.5004
 -11182803.55147 -10635069.12146  22232813.8364                   22232815.0594
        43.7504         38.5004
 25  7  1  1 43 30.0000000  0  9G16G02G04G28G31G01G32G03G26
   7480434.37146   7160861.56343  24061370.1804                   24061371.1844
        38.2504         19.5004
 -41076134.50847 -34268094.43044  23000262.2034                   23000260.0634
        44.0004         29.5004
  -4220874.75847  -9047392.22744  22285773.7274                   22285773.2704
        42.0004         29.0004
 -44682817.97747 -34648430.66845  22536245.6334                   22536243.7504
        45.7504         31.0004
 -44943310.31248 -34978235.59047  20418854.7424                   20418851.8984
        50.0004         47.5004
 -32710883.03548 -27833622.96145  21422950.0944                   21422948.1054
        48.5004         33.0004
 -58056689.91446 -45188829.33245  24686755.1954                   24686756.0944
        39.0004         30.0004
 -29532929.24648 -22975070.62548  20555021.0944                   20555020.6724
        48.0004         48.5004
 -11339826.60247 -10757424.70346  22202933.0394                   22202934.5984
        43.2504         38.7504
 25  7  1  1 44  0.0000000  0  9G16G02G04G28G31G01G32G03G26
   7285457.64546   7008931.76243  24024266.4924                   24024267.9104
        36.0004         19.2504
 -41088824.34447 -34277982.67244  22997847.7974                   22997845.0594
        44.5004         29.5004
  -4369724.22347  -9163378.78144  22257448.9064                   22257447.8404
        43.7504         28.7504
 -44690159.07447 -34654151.03545  22534848.6564                   22534847.1884
        45.2504         31.7504
 -44992748.88748 -35016759.16447  20409447.1254                   20409444.0554
        50.0004         47.2504
 -32758183.81248 -27870480.77045  21413949.1884                   21413947.7074
        48.2504         32.2504
 -58079706.43046 -45206764.32844  24682375.0004                   24682376.3054
        37.7504         29.0004
 -29679900.43048 -23089593.61348  20527053.2274                   20527053.0904
        49.2504         48.7504
 -11496465.32047 -10879480.82046  22173126.0394                   22173126.8754
        44.0004         39.2504
 25  7  1  1 44 30.0000000  0  9G16G02G04G28G31G01G32G03G26
   7090448.00446   6856976.39143  23987157.4614                   23987157.9064
        36.7504         18.5004
 -41101341.22347 -34287736.16444  22995466.3834                   22995462.9734
        44.5004         29.2504
  -4518471.92247  -9279286.00444  22229142.3524                   22229142.4454
        43.5004         29.0004
 -44697280.10547 -34659699.91445  22533493.6254                   22533492.3674
        44.2504         31.0004
 -45041694.14847 -35054898.33647  20400132.9144                   20400129.8754
        46.7504         47.0004
 -32805002.26647 -27906962.72745  21405039.7974                   21405038.2424
        45.0004         32.0004
 -58102731.38746 -45224705.89845  24677993.5314                   24677994.7934
        39.5004         32.2504
 -29826533.18048 -23203852.88348  20499150.0004                   20499149.5474
        49.0004         48.5004
 -11652720.61347 -11001238.14546  22143391.2424                   22143392.7854
        43.2504         38.7504
 25  7  1  1 45  0.0000000  0  9G16G02G04G28G31G01G32G03G26
   6895410.29346   6704999.13743  23950043.0864                   23950042.6414
        38.7504         20.7504
 -41113686.83247 -34297356.22344  22993117.4224                   22993114.3794
        43.5004         28.7504
  -4667116.71547  -9395113.06244  22200856.2814                   22200856.1484
        43.0004         29.0004
 -44704182.29347 -34665078.28945  22532180.5634                   22532179.0394
        44.2504         32.2504
 -45090147.16848 -35092653.93447  20390912.7664                   20390909.6994
        48.7504         46.5004
 -32851339.14147 -27943069.43445  21396222.3054                   21396220.4454
        46.2504         32.7504
 -58125763.38346 -45242652.97345  24673610.0944                   24673612.8984
        39.7504         32.5004
 -29972823.98048 -23317845.71148  20471311.6954                   20471311.5594
        49.2504         48.5004
 -11808588.28947 -11122693.43046  22113730.5944                   22113732.0354
        43.0004         39.5004
 25  7  1  1 45 30.0000000  0  9G16G02G04G28G31G01G32G03G26
   6700344.74246   6553000.12143  23912923.5004                   23912922.7504
        38.7504         22.5004
 -41125866.94147 -34306847.29344  22990798.8364                   22990796.1724
        42.5004         29.0004
  -4815661.73047  -9510862.37144  22172589.8754                   22172589.2814
        44.0004         27.5004
 -44710871.09447 -34670290.38345  22530907.2034                   22530906.3714
        44.5004         31.0004
 -45138113.33647 -35130030.16847  20381784.8594                   20381781.8834
        47.5004         46.2504
 -32897199.57447 -27978804.84845  21387495.1334                   21387493.7074
        44.5004         33.5004
 -58148805.37146 -45260607.85545  24669225.9924                   24669228.0664
        39.2504         32.7504
 -30118773.56248 -23431572.65248  20443538.3054                   20443538.1644
        48.7504         48.7504
 -11964068.46147 -11243846.75846  22084143.5004                   22084144.7384
        43.0004         39.5004
 25  7  1  1 46  0.0000000  0  9G16G02G04G28G31G01G32G03G26
   6505256.49646   6400983.37943  23875800.1804                   23875799.6804
        40.0004         23.0004
 -41137881.82047 -34316209.60944  22988511.9844                   22988509.7304
        42.5004         27.5004
  -4964104.98447  -9626532.39844  22144341.9304                   22144340.8674
        45.0004         29.7504
 -44717346.89847 -34675336.49245  22529675.1954                   22529673.4064
        44.0004         31.5004
 -45185592.28147 -35167026.76647  20372749.7274                   20372746.8914
        47.5004         46.5004
 -32942583.39547 -28014168.88745  21378858.7974                   21378857.8014
        44.0004         34.7504
 -58171854.82046 -45278568.50045  24664839.7894                   24664841.7114
        38.5004         30.0004
 -30264377.53948 -23545030.28948  20415830.8364                   20415830.7034
        49.2504         49.0004
 -12119156.07047 -11364694.20346  22054631.2424                   22054632.4384
        42.5004         39.0004
 25  7  1  1 46 30.0000000  0  9G16G02G04G28G31G01G32G03G26
   6310150.67246   6248953.04343  23838671.8054                   23838670.8874
        39.0004         22.2504
 -41149732.25447 -34325443.78544  22986258.0004                   22986254.9884
        43.2504         28.2504
  -5112444.52747  -9742121.60544  22116113.9224                   22116112.6684
        43.7504         28.7504
 -44723610.09447 -34680216.94145  22528483.1564                   22528481.6484
        43.2504         30.7504
 -45232584.12948 -35203643.80147  20363807.8524                   20363804.7344
        48.2504         47.0004
 -32987490.66047 -28049161.57045  21370313.5234                   21370312.5594
        44.5004         35.5004
 -58194909.53146 -45296533.24644  24660451.6564                   24660454.2034
        36.0004         26.7504
 -30409631.55948 -23658215.23048  20388189.8444                   20388189.6804
        49.0004         49.0004
 -12273846.13747 -11485231.89146  22025194.6954                   22025195.6374
        44.0004         39.5004
 25  7  1  1 47  0.0000000  0  9G16G02G04G28G31G01G32G03G26
   6115028.74646   6096910.14843  23801540.9614                   23801540.9064
        39.5004         22.0004
 -41161422.74247 -34334553.30945  22984033.7584                   22984030.4574
        44.0004         30.5004
  -5260682.15247  -9857631.41844  22087904.6804                   22087903.9104
        45.0004         29.2504
 -44729664.82447 -34684934.94945  22527331.0944                   22527329.8714
        43.5004         31.5004
 -45279093.10248 -35239884.57447  20354957.4224                   20354954.2774
        50.0004         47.0004
 -33031925.07447 -28083785.81246  21361857.6884                   21361856.6954
        46.5004         36.2504
 -58217971.13346 -45314503.37544  24656064.0314                   24656065.0904
        37.5004         25.7504
 -30554535.08248 -23771127.07048  20360615.6254                   20360615.5824
        48.7504         48.5004
 -12428137.54347 -11605458.93046  21995833.9384                   21995835.3284
        43.7504         40.0004
 25  7  1  1 47 30.0000000  0  9G16G02G04G28G31G01G32G03G26
   7495315.89546   7172458.73043  24064201.2344                   24064200.3364
        39.7504         22.2504
 -39597540.52747 -33115943.89144  23281630.8914                   23281627.6604
        44.5004         29.5004
  -3833397.97747  -8745461.89544  22359508.0164                   22359507.5984
        44.5004         29.2504
 -43160098.20347 -33461896.07045  22826009.7114                   22826008.2814
        43.5004         30.2504
 -43749704.52347 -34048153.22347  20645990.6644                   20645987.5354
        47.0004         47.0004
 -31500472.21147 -26890445.93746  21653283.7734                   21653282.5124
        45.2504         36.5004
 -56665623.48846 -44104881.85944  24951465.0474                   24951468.1564
        37.5004         26.0004
 -29123665.87948 -22656164.05148  20632901.1024                   20632900.8914
        49.0004         48.0004
 -11006607.16447 -10497772.87546  22266342.1724                   22266343.5084
        45.0004         40.2504
 25  7  1  1 48  0.0000000  0  9G16G02G04G28G31G01G32G03G26
   7300165.08646   7020393.25843  24027064.6484                   24027065.2154
        40.7504         23.2504
 -39608926.03947 -33124815.80944  23279463.4304                   23279461.0084
        42.7504         29.0004
  -3981438.84847  -8860818.38744  22331336.7114                   22331336.3244
        44.0004         29.7504
 -43165750.00447 -33466300.11345  22824934.2194                   22824932.6644
        43.2504         30.5004
 -43795260.45748 -34083651.35547  20637321.2274                   20637318.7234
        49.0004         46.7504
 -31543974.01248 -26924343.47346  21645005.9064                   21645004.6374
        48.2504         36.7504
 -56688704.85546 -44122867.37944  24947073.6024                   24947075.6764
        38.5004         27.2504
 -29267868.26648 -22768529.53948  20605460.2114                   20605459.7624
        49.5004         48.0004
 -11160099.28547 -10617377.07446  22237133.3524                   22237135.0204
        45.0004         39.5004
 25  7  1  1 48 30.0000000  0  9G16G02G04G28G31G01G32G03G26
   7105005.87546   6868321.30543  23989927.1484                   23989927.5004
        38.5004         22.2504
 -39620161.69946 -33133570.91844  23277325.8594                   23277323.4224
        41.5004         28.7504
  -4129380.07047  -8976097.21944  22303184.3674                   22303183.9104
        44.0004         29.5004
 -43171202.51647 -33470548.85945  22823896.6724                   22823894.8594
        43.7504         30.7504
 -43840341.94548 -34118779.79747  20628742.7974                   20628739.6054
        49.0004         46.7504
 -31587011.32048 -26957879.07445  21636816.2974                   21636814.5394
        48.0004         35.5004
 -56711794.53946 -44140859.33644  24942679.7584                   24942682.3594
        38.5004         29.5004
 -29411715.28948 -22880618.09848  20578087.1884                   20578086.5514
        50.0004         48.7504
 -11313186.06247 -10736665.41846  22208002.0554                   22208003.5784
        44.5004         40.0004
 25  7  1  1 49  0.0000000  0  9G16G02G04G28G31G01G32G03G26
   6909843.07646   6716246.53343  23952788.3674                   23952788.8594
        38.0004         21.7504
 -39631248.87147 -33142210.32044  23275215.6094                   23275213.2274
        42.0004         28.0004
  -4277220.50847  -9091297.48844  22275051.4224                   22275050.8524
        43.5004         29.5004
 -43176457.00447 -33474643.28545  22822897.0314                   22822895.5354
        42.0004         30.7504
 -43884950.11347 -34153539.41447  20620254.2194                   20620251.0554
        47.0004         46.5004
 -31629585.02747 -26991053.43745  21628714.6174                   21628713.2114
        45.5004         34.0004
 -56734890.90246 -44158856.56644  24938284.6564                   24938287.2854
        37.5004         28.2504
 -29555203.40248 -22992427.00448  20550782.3984                   20550782.0204
        49.7504         49.0004
 -11465863.44947 -10855634.74646  22178948.8134                   22178950.2544
        44.0004         39.0004
 25  7  1  1 49 30.0000000  0  9G16G02G04G28G31G01G32G03G26
   6714677.07446   6564169.24243  23915649.5554                   23915649.5744
        38.5004         20.0004
 -39642192.75047 -33150738.10244  23273133.2814                   23273129.9024
        43.0004         28.5004
  -4424962.80547  -9206421.31645  22246936.6254                   22246935.9494
        44.5004         30.0004
 -43181518.48047 -33478587.34045  22821934.0864                   22821932.1454
        43.0004         30.5004
 -43929089.70348 -34187933.90647  20611854.3204                   20611851.3984
        49.0004         46.2504
 -31671699.93447 -27023870.30945  21620700.0864                   21620698.6564
        46.0004         32.5004
 -56757996.40646 -44176860.88744  24933887.5864                   24933890.2734
        37.7504         28.7504
 -29698333.06648 -23103956.59848  20523545.5944                   20523545.2034
        49.7504         49.5004
 -11618131.21547 -10974284.91846  22149972.8754                   22149974.1484
        43.5004         39.0004
 25  7  1  1 50  0.0000000  0  9G16G02G04G28G31G01G32G03G26
   6519512.99246   6412093.54743  23878510.4924                   23878510.1844
        37.2504         19.5004
 -39652994.79747 -33159155.37144  23271078.0004                   23271074.2624
        43.0004         27.5004
  -4572605.21147  -9321467.29744  22218841.3054                   22218840.8094
        44.2504         29.2504
 -43186387.46547 -33482381.38745  22821007.2664                   22821006.0394
        43.7504         30.7504
 -43972761.03948 -34221963.52047  20603543.8914                   20603541.4344
        48.2504         46.2504
 -31713356.27747 -27056329.85545  21612773.2734                   21612771.2344
        44.5004         31.2504
 -56781108.92646 -44194870.69144  24929489.7504                   24929491.8094
        37.0004         27.0004
 -29841100.01648 -23215203.56248  20496377.7114                   20496377.8404
        49.7504         49.5004
 -11769984.59047 -11092612.18446  22121075.9844                   22121077.7074
        43.5004         40.0004
 25  7  1  1 50 30.0000000  0  9G16G02G04G28G31G01G32G03G26
   6324350.64546   6260019.05543  23841372.1094                   23841372.8794
        36.5004         20.0004
 -39663660.87147 -33167466.71944  23269047.9844                   23269044.4534
        42.5004         25.5004
  -4720151.19947  -9436438.13345  22190764.5474                   22190763.5084
        45.2504         30.5004
 -43191069.74247 -33486029.94545  22820116.3524                   22820114.9064
        44.5004         30.5004
 -44015969.53947 -34255632.49647  20595322.2894                   20595319.0044
        47.0004         45.7504
 -31754559.68047 -27088436.44545  21604932.4454                   21604930.8674
        42.2504         30.0004
 -56804231.75446 -44212888.51644  24925089.8134                   24925092.7114
        37.7504         29.0004
 -29983505.44148 -23326168.81648  20469278.8284                   20469279.1414
        49.7504         49.7504
 -11921424.21547 -11210617.05146  22092258.4534                   22092259.7934
        44.5004         39.7504
 25  7  1  1 51  0.0000000  0  9G16G02G04G28G31G01G32G03G26
   6129192.60546   6107947.94943  23804235.5944                   23804234.8914
        38.0004         19.5004
 -39674194.36747 -33175674.69544  23267044.0164                   23267040.8054
        43.0004         27.7504
  -4867601.54747  -9551334.44945  22162705.3444                   22162704.2504
        45.5004         30.2504
 -43195568.46147 -33489535.49245  22819260.4924                   22819258.7814
        43.5004         30.0004
 -44058718.56248 -34288943.44147  20587187.1804                   20587184.1174
        48.5004         46.0004
 -31795313.10247 -27120192.39145  21597177.7584                   21597176.7624
        45.2504         31.7504
 -56827365.25046 -44230914.66844  24920688.2194                   24920689.8674
        38.7504         29.0004
 -30125547.82848 -23436851.19148  20442249.1024                   20442249.0784
        48.5004         49.5004
 -12072448.04747 -11328297.91846  22063519.4924                   22063520.0474
        43.7504         39.7504
 25  7  1  1 51 30.0000000  0  9G16G02G04G28G31G01G32G03G26
   5934044.25446   5955884.44943  23767098.7344                   23767098.7274
        37.2504         18.2504
 -39684596.02047 -33183779.96544  23265064.2194                   23265062.0514
        42.5004         27.2504
  -5014954.48047  -9666154.89145  22134665.5084                   22134664.2114
        44.5004         30.2504
 -43199884.19147 -33492898.42245  22818439.3524                   22818437.8634
        43.0004         30.0004
 -44101008.57448 -34321896.71547  20579139.5314                   20579136.5434
        49.2504         46.0004
 -31835616.89847 -27151597.98845  21589507.9304                   21589507.1134
        46.0004         33.0004
 -56850507.45746 -44248947.56644  24916284.9144                   24916285.7074
        39.7504         29.5004
 -30267223.09048 -23547247.49648  20415289.4384                   20415289.3674
        49.0004         49.5004
 -12223051.44547 -11445651.17646  22034860.3204                   22034861.7274
        44.5004         40.0004
 25  7  1  1 52  0.0000000  0  9G16G02G04G28G31G01G32G03G26
   5738906.13346   5803828.87942  23729965.7894                   23729964.9844
        36.0004         16.2504
 -39694871.41447 -33191786.83644  23263109.6724                   23263106.8554
        43.2504         27.5004
  -5162212.85947  -9780901.64145  22106642.8444                   22106641.4654
        44.2504         30.0004
 -43204022.06247 -33496122.78544  22817651.7274                   22817649.8954
        43.7504         29.7504
 -44142844.31248 -34354495.99647  20571178.7424                   20571175.9454
        48.7504         46.5004
 -31875476.01647 -27182657.08245  21581923.3524                   21581922.0434
        46.5004         34.5004
 -56873660.85546 -44266989.18744  24911878.0784                   24911879.5704
        39.5004         28.0004
 -30408531.69948 -23657358.09048  20388399.0164                   20388398.8324
        48.7504         49.5004
 -12373234.37547 -11562676.78546  22006281.4534                   22006282.6914
        43.7504         39.7504
 25  7  1  1 52 30.0000000  0  9G16G02G04G28G31G01G32G03G26
   5543782.83646   5651784.86343  23692835.6024                   23692834.5594
        38.5004         19.5004
 -39705021.73847 -33199696.23444  23261177.7814                   23261175.5634
        43.2504         28.5004
  -5309375.07047  -9895573.45744  22078638.5784                   22078637.1724
        44.0004         29.0004
 -43207982.81247 -33499209.12145  22816897.9454                   22816896.4384
        43.5004         30.0004
 -44184226.48448 -34386741.85947  20563303.8524                   20563300.8554
        48.2504         46.5004
 -31914891.16047 -27213370.22346  21574422.5944                   21574421.0984
        47.0004         36.0004
 -56896823.52746 -44285038.02044  24907470.2194                   24907472.0594
        39.2504         28.7504
 -30549469.82848 -23767180.00448  20361579.3754                   20361579.6254
        49.0004         49.7504
 -12522992.48047 -11679371.36746  21977783.4924                   21977784.7034
        44.0004         39.7504
 25  7  1  1 53  0.0000000  0  9G16G02G04G28G31G01G32G03G26
   5348675.53546   5499753.30143  23655707.7584                   23655706.9884
        40.0004         20.5004
 -39715051.97347 -33207512.08244  23259269.6414                   23259267.0124
        44.5004         29.2504
  -5456443.59847 -10010172.28144  22050652.1644                   22050651.3244
        45.2504         28.0004
 -43211771.17647 -33502161.14844  22816176.4694                   22816175.6414
        42.5004         29.2504
 -44225159.55148 -34418637.77047  20555514.5004                   20555511.4654
        48.2504         46.2504
 -31953866.94947 -27243741.00846  21567005.6484                   21567004.4614
        47.7504         36.5004
 -56919997.70346 -44303095.87944  24903060.4144                   24903062.4774
        39.0004         29.2504
 -30690037.67248 -23876713.36748  20334830.6484                   20334830.1334
        49.5004         49.5004
 -12672325.41447 -11795734.65646  21949366.5704                   21949367.6024
        44.5004         40.0004
 25  7  1  1 53 30.0000000  0  9G16G02G04G28G31G01G32G03G26
   5153589.23846   5347738.14543  23618583.9224                   23618583.4614
        38.5004         19.0004
 -39724963.15247 -33215235.15644  23257383.5004                   23257380.6214
        44.5004         28.0004
  -5603416.70347 -10124696.74644  22022683.9454                   22022683.4224
        42.5004         27.0004
 -43215387.82047 -33504979.35944  22815488.9614                   22815487.4694
        42.2504         27.7504
 -44265644.69947 -34450184.64547  20547810.2344                   20547807.2894
        47.5004         46.2504
 -31992403.93747 -27273769.86346  21559672.7814                   21559671.4804
        45.2504         36.2504
 -56943181.38746 -44321161.11744  24898648.3524                   24898650.5634
        40.0004         28.0004
 -30830231.14148 -23985955.01648  20308152.4844                   20308152.4494
        49.7504         49.5004
 -12821228.66047 -11911763.12946  21921031.0234                   21921032.0394
        43.2504         39.7504
 25  7  1  1 54  0.0000000  0  9G16G02G04G28G31G01G32G03G26
   4958526.92246   5195741.67643  23581464.4924                   23581465.0744
        39.2504         20.0004
 -39734758.15647 -33222867.75044  23255519.5314                   23255516.4734
        43.0004         25.5004
  -5750294.77347 -10239147.14544  21994734.5704                   21994733.2734
        44.5004         28.5004
 -43218835.34847 -33507665.77744  22814832.4224                   22814832.0664
        42.2504         28.5004
 -44305684.55948 -34481384.55147  20540190.9844                   20540188.2894
        49.0004         46.2504
 -32030504.73847 -27303458.83245  21552422.3364                   21552420.8284
        46.5004         34.5004
 -56966374.57046 -44339233.72344  24894234.8594                   24894236.8554
        40.0004         27.0004
 -30970048.33648 -24094903.45748  20281546.1334                   20281545.6254
        50.2504         49.5004
 -12969699.80147 -12027454.89846  21892777.8674                   21892779.3754
        45.0004         40.2504
 25  7  1  1 54 30.0000000  0 10G16G09G02G04G28G31G01G32G03G26
   4763487.46146   5043763.01643  23544350.4454                   23544349.8714
        40.0004         20.5004
  20239276.42655  15811592.80154  24893710.3834                   24893713.3674
        33.5004         26.0004
 -39744444.40646 -33230415.59443  23253675.4454                   23253673.5744
        41.2504         23.2504
  -5897082.36747 -10353527.04744  21966801.3914                   21966800.0394
        45.0004         28.5004
 -43222120.62547 -33510225.78145  22814207.5784                   22814206.0984
        43.0004         30.7504
 -44345285.53948 -34512242.47347  20532655.3594                   20532652.5904
        49.2504         46.2504
 -32068176.16047 -27332813.20345  21545253.7584                   21545252.0354
        46.0004         34.2504
 -56989581.49646 -44357317.05544  24889819.5394                   24889820.8954
        40.2504         26.2504
 -31109491.57448 -24203560.50448  20255010.6024                   20255010.4104
        49.7504         49.0004
 -13117740.62947 -12142811.35946  21864606.5554                   21864607.8594
        45.7504         40.2504
 25  7  1  1 55  0.0000000  0 10G16G09G02G04G28G31G01G32G03G26
   4568475.41846   4891805.69143  23507239.7034                   23507240.4734
        38.2504         19.5004
  20068814.48855  15678765.49254  24861271.3674                   24861275.8284
        32.7504         26.7504
 -39754023.22347 -33237879.70744  23251853.0474                   23251851.2544
        43.2504         27.5004
  -6043778.19147 -10467835.45344  21938886.1644                   21938885.4104
        45.0004         29.7504
 -43225244.77747 -33512660.22345  22813612.9304                   22813611.7074
        43.0004         30.0004
 -44384448.71948 -34542759.25447  20525203.0314                   20525199.6054
        48.0004         46.2504
 -32105419.31247 -27361833.86345  21538166.6174                   21538165.1094
        44.2504         32.7504
 -57012800.71546 -44375409.92244  24885401.1884                   24885402.7974
        39.7504         28.7504
 -31248557.35248 -24311923.41848  20228547.6174                   20228547.4804
        49.5004         49.2504
 -13265347.24647 -12257829.47346  21836517.8444                   21836519.6214
        45.0004         40.2504
 25  7  1  1 55 30.0000000  0 10G16G09G02G04G28G31G01G32G03G26
   4373484.61346   4739864.88743  23470134.7894                   23470133.5124
        38.0004         19.2504
  19898327.28955  15545918.53154  24828828.7734                   24828832.8014
        32.2504         28.5004
 -39763507.31647 -33245270.00044  23250049.0474                   23250046.8364
        42.7504         29.5004
  -6190392.09847 -10582080.01645  21910986.4224                   21910985.8984
        45.5004         30.2504
 -43228219.89147 -33514978.54745  22813047.1564                   22813045.4924
        43.5004         30.0004
 -44423186.46548 -34572944.52347  20517831.4144                   20517828.3244
        48.0004         46.0004
 -32142246.19547 -27390530.16445  21531158.3834                   21531157.4344
        44.5004         32.0004
 -57036041.76246 -44393519.84844  24880977.1564                   24880980.1334
        38.5004         27.7504
 -31387253.25448 -24419998.12148  20202154.5394                   20202154.3984
        50.2504         49.5004
 -13412526.70347 -12372514.71946  21808510.5394                   21808511.9264
        45.5004         40.5004
 25  7  1  1 56  0.0000000  0 10G16G09G02G04G28G31G01G32G03G26
   5753947.52346   5815550.40643  23732827.5634                   23732827.1804
        38.0004         19.7504
  21303243.24645  16640658.37944  25096176.1724                   25096178.7734
        34.5004         29.0004
 -38197476.11347 -32024986.02744  23548055.1024                   23548052.4414
        42.5004         28.5004
  -4761496.42647  -9468654.78145  22182896.3284                   22182895.6804
        45.2504         31.0004
 -41655625.37547 -32289580.26644  23112301.9144                   23112300.9184
        43.0004         29.7504
 -42886077.00448 -33375196.91047  20810333.3444                   20810330.1604
        49.2504         46.0004
 -30603235.25847 -26191300.90645  21824022.4304                   21824021.2544
        45.2504         31.5004
 -55483880.62146 -43184043.65644  25176344.5784                   25176346.6644
        38.5004         28.0004
 -29950149.60948 -23300177.08248  20475626.3054                   20475626.0234
        49.0004         50.0004
 -11983848.68447 -11259259.07846  22080379.1094                   22080380.0044
        46.2504         40.2504
 25  7  1  1 56 30.0000000  0 10G16G09G02G04G28G31G01G32G03G26
   5559020.37546   5663659.25443  23695734.0554                   23695734.1564
        37.7504         20.0004
  21132716.69145  16507780.73044  25063726.9534                   25063728.8324
        31.2504         27.5004
 -38206766.94146 -32032225.70344  23546287.1024                   23546284.9574
        41.2504         27.0004
  -4907935.14847  -9582762.82844  22155029.6884                   22155029.1764
        44.7504         29.7504
 -41658297.91847 -32291662.82045  23111793.5234                   23111792.1844
        42.2504         30.0004
 -42923959.55547 -33404715.80147  20803124.6414                   20803121.5004
        47.0004         45.7504
 -30639225.45747 -26219345.28145  21817173.9774                   21817172.7734
        45.0004         32.7504
 -55507152.89146 -43202177.98444  25171915.7274                   25171918.9264
        37.7504         29.5004
 -30088087.64848 -23407661.24248  20449377.4384                   20449377.0634
        49.5004         49.7504
 -12130154.48047 -11373263.55946  22052537.5474                   22052539.2774
        46.2504         40.5004
 25  7  1  1 57  0.0000000  0 10G16G09G02G04G28G31G01G32G03G26
   5364133.19546   5511799.23843  23658649.0164                   23658649.7464
        38.5004         21.5004
                                  25031271.3674                   25031275.5204
        29.5004         25.2504
 -38215962.04746 -32039390.85544  23544536.3984                   23544534.8404
        40.0004         25.7504
  -5054283.19147  -9696800.23445  22127180.3914                   22127179.6134
        45.2504         31.0004
 -41660819.58647 -32293627.80144  23111314.1174                   23111312.1094
        43.0004         28.5004
 -42961414.84448 -33433901.75047  20795997.2974                   20795994.1604
        48.2504         45.7504
 -30674797.78147 -26247064.02745  21810404.8674                   21810403.3054
        46.7504         34.5004
 -55530437.36746 -43220321.74644  25167485.4844                   25167487.8914
        38.5004         29.7504
 -30225640.37148 -23514845.15248  20423202.0634                   20423201.8594
        49.7504         49.7504
 -12276016.35947 -11486922.12946  22024780.9454                   22024782.5864
        46.0004         40.7504
 25  7  1  1 57 30.0000000  0 10G16G09G02G04G28G31G01G32G03G26
   5169292.73046   5359975.62143  23621571.4844                   23621571.6374
        38.5004         20.7504
  20791616.87955  16241989.05954  24998815.8134                   24998819.7894
        33.2504         27.7504
 -38225061.07846 -32046481.07844  23542804.6564                   23542804.0314
        39.2504         25.2504
  -5200537.18447  -9810764.35944  22099349.1174                   22099347.9494
        44.5004         29.7504
 -41663189.26247 -32295474.35944  23110862.9844                   23110861.0594
        42.7504         29.0004
 -42998441.71148 -33462753.86347  20788951.3754                   20788948.0554
        48.0004         45.5004
 -30709951.21147 -26274456.35245  21803715.3834                   21803713.9344
        47.0004         34.2504
 -55553730.23046 -43238472.04344  25163051.9844                   25163055.0434
        38.7504         27.0004
 -30362802.18748 -23621724.46948  20397101.1174                   20397100.7894
        49.2504         49.5004
 -12421428.37547 -11600230.15246  21997110.2814                   21997111.4494
        46.0004         41.0004
 25  7  1  1 58  0.0000000  0 10G16G09G02G04G28G31G01G32G03G26
   4974501.44946   5208190.27043  23584503.7194                   23584503.1684
        40.0004         22.2504
  20621046.02045  16109076.75844  24966356.5704                   24966360.9844
        34.5004         27.2504
 -38234067.71146 -32053499.30944  23541091.8524                   23541089.8054
        40.5004         27.2504
  -5346698.23847  -9924656.05945  22071536.0864                   22071535.0824
        45.0004         30.0004
 -41665410.37947 -32297205.16044  23110440.4844                   23110438.3714
        42.5004         29.5004
 -43035043.82848 -33491275.02047  20781986.0864                   20781983.1414
        48.0004         45.7504
 -30744689.24647 -26301524.98445  21797105.3594                   21797104.1254
        46.0004         34.7504
 -55577032.46146 -43256629.62544  25158618.0864                   25158620.5704
        38.5004         29.7504
 -30499571.99248 -23728298.32048  20371074.2974                   20371073.8404
        50.2504         49.5004
 -12566388.96147 -11713186.43046  21969525.0474                   21969526.3594
        46.5004         41.2504
 25  7  1  1 58 30.0000000  0 10G16G09G02G04G28G31G01G32G03G26
   4779765.82846   5056448.32043  23547447.0474                   23547446.2034
        40.2504         22.0004
  20450463.76245  15976155.65244  24933896.4454                   24933900.1994
        34.5004         29.0004
 -38242981.53547 -32060445.22344  23539396.4844                   23539393.4414
        42.5004         27.0004
  -5492763.22347 -10038472.89845  22043740.5474                   22043739.9104
        43.7504         30.7504
 -41667482.09447 -32298819.53944  23110046.4304                   23110044.4494
        43.2504         28.5004
 -43071220.50047 -33519464.65247  20775102.3134                   20775099.0314
        47.7504         46.0004
 -30779011.26247 -26328269.43445  21790573.8754                   21790572.6564
        46.2504         34.7504
 -55600340.55146 -43274791.80544  25154183.1414                   25154185.3164
        37.0004         28.2504
 -30635944.50048 -23834562.59848  20345123.8364                   20345123.2274
        49.5004         49.7504
 -12710892.44947 -11825786.53146  21942026.5944                   21942028.3754
        44.0004         41.5004
 25  7  1  1 59  0.0000000  0 10G16G09G02G04G28G31G01G32G03G26
   4585087.53546   4904751.07443  23510400.2814                   23510399.1024
        39.7504         21.7504
  20279868.66445  15843224.55944  24901433.0634                   24901436.3984
        33.2504         26.5004
 -38251806.66446 -32067322.09844  23537716.0784                   23537713.1334
        41.5004         26.5004
  -5638733.66447 -10152216.07045  22015963.3674                   22015961.9734
        45.7504         31.5004
 -41669408.15647 -32300320.42644  23109679.8524                   23109678.2704
        42.0004         29.7504
 -43106975.59847 -33547325.78147  20768298.0234                   20768294.7774
        47.5004         46.0004
 -30812921.14147 -26354692.71945  21784120.8754                   21784119.9574
        44.5004         33.5004
 -55623655.79746 -43292959.55544  25149746.4614                   25149748.0554
        37.7504         26.2504
 -30771919.02748 -23940516.76248  20319248.6724                   20319248.3954
        50.0004         50.0004
 -12854937.75447 -11938029.59446  21914615.9064                   21914617.9734
        45.7504         41.2504
 25  7  1  1 59 30.0000000  0 10G16G09G02G04G28G31G01G32G03G26
   4390468.45346   4753099.98843  23473366.0784                   23473364.2854
        41.2504         22.2504
  20109258.83245  15710281.96944  24868968.6094                   24868970.3094
        35.2504         28.5004
 -38260547.50846 -32074133.26644  23536053.0864                   23536050.5824
        41.2504         26.2504
  -5784611.34847 -10265886.96945  21988203.4454                   21988202.3244
        46.2504         31.2504
 -41671192.65647 -32301710.99644  23109340.1174                   23109338.6484
        42.5004         29.2504
 -43142313.14848 -33574861.54347  20761573.4064                   20761570.4694
        48.2504         45.7504
 -30846423.21947 -26380798.24245  21777746.0474                   21777744.6724
        44.5004         33.5004
 -55646979.71946 -43311134.03544  25145308.0234                   25145310.4064
        37.0004         28.0004
 -30907495.17648 -24046160.48848  20293449.6804                   20293449.3754
        50.0004         50.0004
 -12998524.12947 -12049915.04346  21887292.7734                   21887294.4344
        45.5004         41.0004
 25  7  1  2  0  0.0000000  0 10G16G09G02G04G28G31G01G32G03G26
   4195914.39946   4601499.56143  23436343.7894                   23436342.1724
        40.7504         22.2504
  19938636.85545  15577329.90644  24836498.3834                   24836501.8674
        33.5004         26.0004
 -38269204.66446 -32080879.20744  23534405.8674                   23534404.2194
        40.2504         26.0004
  -5930393.86747 -10379483.73445  21960461.9454                   21960461.0554
        45.2504         32.0004
 -41672835.54746 -32302991.24244  23109026.9924                   23109025.7664
        41.0004         28.0004
 -43177233.44147 -33602072.17647  20754928.4454                   20754925.4654
        47.2504         45.2504
 -30879517.48847 -26406586.00045  21771448.5164                   21771447.2384
        46.0004         34.2504
 -55670309.50445 -43329313.15244  25140868.7734                   25140871.4224
        34.5004         27.5004
 -31042668.46148 -24151490.30948  20267726.4844                   20267726.3714
        49.5004         50.2504
 -13141646.67647 -12161439.07446  21860056.9144                   21860058.6254
        44.7504         40.5004
 25  7  1  2  0 30.0000000  0 10G16G09G02G04G28G31G01G32G03G26
   4001425.24246   4449949.66443  23399332.4534                   23399332.2384
        40.0004         22.5004
  19767998.90644  15444365.51243  24804025.9534                   24804030.8594
        29.7504         22.7504
 -38277784.15646 -32087564.61744  23532773.3674                   23532771.6684
        41.7504         27.7504
  -6076084.74247 -10493009.05145  21932738.4224                   21932737.3954
        44.5004         31.7504
 -41674342.52746 -32304165.53144  23108740.0394                   23108739.4224
        41.0004         28.0004
 -43211742.40647 -33628962.28547  20748361.5314                   20748358.6844
        47.7504         45.0004
 -30912209.98447 -26432060.70745  21765227.2664                   21765225.7304
        46.7504         33.5004
 -55693648.53545 -43347499.44144  25136426.4924                   25136429.6524
        33.7504         28.0004
 -31177440.23048 -24256507.26248  20242079.9774                   20242080.1994
        49.7504         50.0004
 -13284306.35547 -12272602.43046  21832909.8134                   21832911.5434
        43.7504         40.0004
 25  7  1  2  1  0.0000000  0 10G16G09G02G04G28G31G01G32G03G26
   3807004.95346   4298453.41044  23362335.7894                   23362336.2774
        39.2504         24.5004
  19597345.88345  15311389.25044  24771553.3134                   24771557.0394
        35.5004         27.2504
 -38286288.25846 -32094191.27344  23531154.7034                   23531153.1914
        40.5004         26.0004
  -6221683.36347 -10606462.49245  21905031.5554                   21905030.6684
        44.2504         32.2504
 -41675715.32846 -32305235.31244  23108479.1484                   23108478.1844
        41.5004         28.5004
 -43245842.03947 -33655533.44147  20741872.6414                   20741869.5984
        46.2504         45.2504
 -30944502.63347 -26457223.84845  21759082.2194                   21759080.6414
        45.2504         34.5004
 -55716995.86345 -43365692.23444  25131984.6484                   25131987.2624
        34.5004         29.0004
 -31311807.78548 -24361209.24248  20216510.8444                   20216510.8954
        49.0004         49.7504
 -13426500.15247 -12383402.76646  21805851.0704                   21805852.6294
        45.0004         39.7504
 25  7  1  2  1 30.0000000  0 10G16G09G02G04G28G31G01G32G03G26
   3612658.84446   4147015.00044  23325353.3444                   23325353.2894
        40.7504         25.0004
  19426679.49245  15178402.50843  24739076.1094                   24739079.1094
        35.7504         22.5004
 -38294717.83247 -32100759.89844  23529551.3284                   23529548.6994
        42.2504         25.5004
  -6367187.81247 -10719842.53945  21877342.9924                   21877342.1334
        45.0004         32.0004
 -41676954.18746 -32306200.71944  23108243.7034                   23108243.3054
        40.7504         29.2504
 -43279532.57847 -33681785.82447  20735461.5944                   20735458.4574
        47.5004         45.5004
 -30976395.96547 -26482075.83645  21753013.0864                   21753011.6054
        46.0004         33.5004
 -55740349.23045 -43383889.73844  25127540.2114                   25127542.9884
        35.0004         28.7504
 -31445766.97348 -24465593.00848  20191019.1024                   20191019.3324
        49.7504         50.0004
 -13568223.58247 -12493836.56646  21778882.0704                   21778883.6414
        44.2504         39.5004
 25  7  1  2  2  0.0000000  0 10G16G09G02G04G28G31G01G32G03G26
   3418390.41446   3995637.14543  23288384.9614                   23288383.8954
        40.5004         22.7504
  19255999.46546  15045405.10944  24706596.3914                   24706601.0514
        37.0004         26.7504
 -38303075.64147 -32107272.61344  23527960.5314                   23527957.9264
        42.7504         24.0004
  -6512598.34047 -10833149.41845  21849672.2734                   21849671.6914
        45.5004         31.7504
 -41678061.75846 -32307063.81244  23108033.0164                   23108032.0634
        41.7504         28.7504
 -43312816.78547 -33707721.58247  20729127.9144                   20729124.7544
        46.7504         46.0004
 -31007892.88747 -26506618.93045  21747019.2194                   21747018.0084
        44.0004         33.0004
 -55763708.78145 -43402092.02344  25123094.8674                   25123097.6564
        34.7504         28.7504
 -31579316.02348 -24569657.19548  20165605.8134                   20165605.4774
        50.0004         50.2504
 -13709474.52747 -12603902.20746  21752003.1024                   21752004.2074
        45.0004         40.2504
 25  7  1  2  2 30.0000000  0 10G16G09G02G04G28G31G01G32G03G26
   3224202.18446   3844321.76643  23251431.8444                   23251430.5204
        39.7504         22.5004
  19085305.12146  14912396.60244  24674114.4384                   24674118.6844
        36.5004         26.5004
 -38311364.87947 -32113731.84044  23526383.1644                   23526380.9414
        42.0004         25.7504
  -6657915.59447 -10946383.59045  21822019.4774                   21822018.1524
        45.2504         31.5004
 -41679040.85247 -32307826.77744  23107846.4534                   23107845.5204
        42.5004         28.2504
 -43345697.84847 -33733343.20347  20722870.7734                   20722867.5944
        47.7504         46.0004
 -31038996.56247 -26530855.60545  21741100.2974                   21741099.4184
        44.5004         32.7504
 -55787074.75046 -43420299.32045  25118649.5554                   25118650.5394
        38.5004         31.2504
 -31712453.45348 -24673400.63748  20140270.8834                   20140270.4614
        49.7504         50.2504
 -13850251.17647 -12713598.26646  21725214.3524                   21725215.2814
        46.5004         41.0004
 25  7  1  2  3  0.0000000  0 10G16G09G02G04G28G31G01G32G03G26
   3030097.09946   3693071.13943  23214494.6954                   23214493.3484
        39.0004         21.7504
  18914596.07046  14779376.70744  24641629.9924                   24641633.2704
        39.7504         28.2504
 -38319588.86746 -32120140.26244  23524817.9614                   23524816.1214
        40.7504         25.0004
  -6803139.90647 -11059545.35945  21794383.8444                   21794383.1524
        45.0004         32.2504
 -41679894.18747 -32308491.76244  23107684.2344                   23107683.1724
        42.0004         28.0004
 -43378178.64148 -33758652.91847  20716689.7114                   20716686.8914
        48.0004         46.0004
 -31069709.96147 -26554788.14145  21735255.7974                   21735254.9184
        44.5004         32.5004
 -55810447.32446 -43438511.74645  25114201.8524                   25114203.7074
        38.5004         30.7504
 -31845177.60548 -24776822.04748  20115014.0944                   20115013.8014
        50.0004         50.0004
 -13990551.55147 -12822923.19546  21698515.7344                   21698517.2274
        46.0004         41.0004
 25  7  1  2  3 30.0000000  0 10G16G09G02G04G28G31G01G32G03G26
   2836075.71546   3541885.77343  23177572.9144                   23177573.3284
        37.7504         22.0004
  18743869.12946  14646342.77344  24609142.2194                   24609142.9414
        40.5004         26.5004
 -38327753.59847 -32126502.47744  23523265.3754                   23523262.8594
        42.5004         26.2504
  -6948274.53947 -11172637.22745  21766765.6414                   21766765.0594
        45.2504         32.5004
 -41680627.18747 -32309062.97744  23107544.6174                   23107543.8134
        42.2504         27.5004
 -43410264.68047 -33783655.03147  20710584.1024                   20710581.1564
        47.5004         45.7504
 -31100038.87947 -26578421.09445  21729484.5004                   21729483.3524
        44.5004         32.0004
 -55833829.28945 -43456731.48844  25109751.2814                   25109754.4104
        35.5004         27.7504
 -31977489.57048 -24879922.26648  20089835.8054                   20089835.8754
        50.2504         50.0004
 -14130376.44147 -12931877.62546  21671907.9064                   21671909.4024
        46.2504         41.2504
 25  7  1  2  4  0.0000000  0 10G16G09G02G04G28G31G01G32G03G26
   2642143.14546   3390769.57843  23140669.6334                   23140668.8524
        38.5004         23.2504
  18573126.14846  14513296.34844  24576650.2894                   24576651.9144
        38.7504         25.5004
 -38335859.70746 -32132819.03144  23521722.2894                   23521720.0434
        41.0004         25.5004
  -7093317.49647 -11285657.68045  21739164.6564                   21739163.8594
        45.0004         31.5004
 -41681240.18446 -32309540.68744  23107427.9064                   23107426.9694
        41.2504         28.5004
 -43441956.86747 -33808350.24247  20704553.1174                   20704550.2034
        47.0004         46.0004
 -31129983.95347 -26601754.94145  21723786.0474                   21723785.1414
        42.7504         32.5004
 -55857218.59846 -43474956.98044  25105300.0784                   25105302.8204
        37.0004         28.5004
 -32109385.33648 -24982698.16848  20064737.0474                   20064736.4774
        50.0004         50.0004
 -14269721.56647 -13040458.20746  21645391.4924                   21645392.9064
        46.2504         41.0004
 25  7  1  2  4 30.0000000  0 10G16G09G02G04G28G31G01G32G03G26
   4023730.84446   4467331.52743  23403577.1334                   23403575.9614
        41.2504         22.7504
  19977794.31346  15607843.07044  24843949.3834                   24843951.7814
        38.0004         26.0004
 -36768488.12546 -30911490.59044  23819982.7584                   23819980.8754
        40.0004         26.0004
  -5662842.35547 -10171001.70345  22011375.7504                   22011374.2274
        45.5004         31.5004
 -40106313.73446 -31082325.35244  23407127.2814                   23407126.1484
        41.5004         28.5004
 -41897835.05947 -32605138.46547  20998389.9454                   20998386.9414
        47.5004         46.0004
 -29584125.27347 -25397189.76245  22017953.2504                   22017952.1134
        45.0004         33.2504
 -54305192.59446 -42265586.10244  25400641.0784                   25400644.1524
        39.5004         28.7504
 -30665436.90648 -23857543.53948  20339511.4304                   20339511.0864
        49.5004         49.5004
 -12833158.35547 -11921058.26646  21918760.5164                   21918761.4964
        45.2504         40.7504
 25  7  1  2  5  0.0000000  0 10G16G09G02G04G28G31G01G32G03G26
   3829987.78146   4316363.02043  23366708.6334                   23366707.5514
        39.5004         22.0004
  19807020.70346  15474772.84044  24811452.4454                   24811454.5634
        37.5004         28.2504
 -36776483.91446 -30917721.19144  23818461.8134                   23818460.5474
        41.2504         27.2504
  -5807700.46147 -10283878.11345  21983809.3594                   21983808.6174
        46.0004         31.2504
 -40106691.80147 -31082620.00844  23407055.7274                   23407053.8404
        42.0004         27.7504
 -41928745.28948 -32629224.38347  20992507.9384                   20992505.0664
        48.2504         45.2504
 -29613309.09447 -25419930.43445  22012399.9614                   22012398.7034
        46.0004         33.0004
 -54328594.12146 -42283821.07445  25396188.7664                   25396191.0354
        41.2504         30.2504
 -30796492.70748 -23959664.93448  20314572.2194                   20314571.6454
        49.5004         49.7504
 -12971535.49247 -12028884.58646  21892427.8674                   21892429.2234
        45.5004         40.5004
 25  7  1  2  5 30.0000000  0 10G16G09G02G04G28G31G01G32G03G26
   3636343.57446   4165471.50843  23329859.6484                   23329858.4064
        38.2504         21.2504
  19636230.48446  15341689.71944  24778950.8524                   24778954.2114
        37.2504         28.0004
 -36784429.75846 -30923912.88344  23816951.0394                   23816949.0784
        41.5004         25.7504
  -5952467.26247 -10396683.40245  21956261.5164                   21956260.3404
        45.2504         31.7504
 -40106956.94147 -31082826.67244  23407005.3914                   23407003.5434
        43.0004         28.0004
 -41959269.59047 -32653009.57847  20986699.3984                   20986696.4964
        47.0004         44.7504
 -29642117.37947 -25442378.49645  22006917.7194                   22006916.1414
        44.7504         32.5004
 -54352002.55546 -42302061.41845  25391733.5634                   25391736.3204
        41.5004         31.2504
 -30927126.62148 -24061457.57448  20289713.4454                   20289712.9694
        49.5004         50.0004
 -13109426.25447 -12136331.90646  21866188.7664                   21866189.4224
        44.7504         40.5004
 25  7  1  2  6  0.0000000  0 10G16G09G02G04G28G31G01G32G03G26
   3442800.08646   4014658.47743  23293028.8594                   23293027.6214
        37.2504         20.2504
  19465422.12946  15208592.41044  24746447.6094                   24746450.7814
        38.2504         29.5004
 -36792329.85246 -30930068.85544  23815446.2194                   23815445.3634
        39.5004         25.2504
  -6097144.38347 -10509418.80145  21928730.3754                   21928729.2704
        46.0004         31.7504
 -40107113.04746 -31082948.35944  23406975.3444                   23406974.1564
        41.7504         26.7504
 -41989411.89547 -32676497.11747  20980963.5234                   20980960.1914
        47.0004         44.5004
 -29670554.42647 -25464537.30945  22001506.5234                   22001505.4494
        45.2504         31.7504
 -54375419.14846 -42320308.11745  25387278.2194                   25387280.5784
        39.7504         30.2504
 -31057338.23048 -24162921.14848  20264935.1024                   20264934.8484
        49.7504         50.2504
 -13246830.08647 -12243399.79746  21840040.7194                   21840042.4494
        45.0004         41.0004
 25  7  1  2  6 30.0000000  0 10G16G09G02G04G28G31G01G32G03G26
   3249359.99246   3863926.03943  23256218.2734                   23256217.5944
        40.2504         22.2504
  19294594.66046  15075480.23045  24713940.6174                   24713944.2934
        37.7504         31.0004
 -36800188.03546 -30936192.25043  23813950.5554                   23813949.6804
        38.5004         22.5004
  -6241732.68447 -10622084.97745  21901215.9224                   21901214.7234
        46.2504         31.2504
 -40107163.15647 -31082987.46944  23406965.6884                   23406964.4144
        42.2504         28.0004
 -42019175.73447 -32699689.74247  20975299.2894                   20975296.3444
        47.5004         44.2504
 -29698623.80947 -25486409.62145  21996165.0394                   21996164.1174
        43.7504         30.5004
 -54398844.57846 -42338561.73445  25382820.4454                   25382822.9264
        40.5004         31.7504
 -31187126.46148 -24264054.82048  20240237.1884                   20240236.9024
        50.0004         50.5004
 -13383745.62547 -12350087.20746  21813987.0634                   21813988.2034
        44.7504         41.0004
 25  7  1  2  7  0.0000000  0  9G16G09G02G04G28G31G01G03G26
   3056027.20346   3713277.27043  23219428.2504                   23219427.5234
        39.0004         22.0004
  19123748.74645  14942353.64144  24681429.5004                   24681432.8794
        35.5004         28.7504
 -36808006.14546 -30942284.43043  23812464.1564                   23812460.9614
        39.7504         22.2504
  -6386231.51647 -10734681.45345  21873718.9924                   21873717.8324
        45.2504         32.2504
 -40107108.92247 -31082945.21944  23406975.7114                   23406974.1764
        42.0004         26.5004
 -42048563.36347 -32722589.21547  20969707.3674                   20969704.0124
        47.5004         44.5004
 -29726327.58647 -25507997.02345  21990892.9384                   21990892.0984
        43.0004         31.5004
 -31316488.63748 -24364856.50848  20215620.0864                   20215619.6604
        50.0004         50.5004
 -13520169.95347 -12456391.85546  21788025.7974                   21788027.2894
        45.5004         41.0004
 25  7  1  2  7 30.0000000  0  9G16G09G02G04G28G31G01G03G26
   2862803.41846   3562713.41443  23182659.6564                   23182658.3204
        39.7504         23.5004
  18952882.55546  14809211.23444  24648915.4144                   24648916.6764
        38.0004         29.2504
 -36815788.70246 -30948348.92843  23810983.7114                   23810979.8444
        41.0004         22.0004
  -6530642.53947 -10847209.48845  21846238.3054                   21846237.3874
        45.0004         32.5004
 -40106954.16446 -31082824.64544  23407004.3364                   23407003.8404
        40.7504         25.5004
 -42077578.55947 -32745198.46547  20964185.7274                   20964183.1564
        47.7504         44.7504
 -29753670.16447 -25529302.94945  21985690.4384                   21985689.3794
        44.2504         33.0004
 -31445424.53548 -24465326.02748  20191084.6174                   20191084.4534
        50.7504         50.5004
 -13656102.57047 -12562313.34046  21762159.1174                   21762160.0004
        45.5004         41.5004
 25  7  1  2  8  0.0000000  0  9G16G09G02G04G28G31G01G03G26
   2669698.33246   3412241.99643  23145912.7504                   23145911.7154
        41.0004         22.5004
  18782002.11346  14676057.72745  24616397.4694                   24616400.8134
        38.0004         31.0004
 -36823532.82446 -30954383.38344  23809509.3204                   23809507.7154
        39.7504         25.5004
  -6674959.76647 -10959664.42245  21818775.5084                   21818774.7584
        45.2504         32.0004
 -40106695.17246 -31082622.86344  23407054.0864                   23407053.5234
        40.2504         25.5004
 -42106218.09047 -32767514.98847  20958735.8444                   20958732.5514
        47.7504         45.5004
 -29780648.29347 -25550324.89145  21980556.9144                   21980555.6294
        45.5004         33.7504
 -31573926.21548 -24565457.19948  20166631.5394                   20166631.0044
        49.2504         50.5004
 -13791535.39147 -12667845.37546  21736386.6724                   21736388.0824
        45.0004         41.0004
 25  7  1  2  8 30.0000000  0  9G16G09G02G04G28G31G01G03G26
   2476718.61346   3261868.31343  23109190.2664                   23109188.5744
        40.0004         23.0004
  18611110.89145  14542895.81644  24583878.6024                   24583880.0634
        34.7504         27.7504
 -36831237.22346 -30960386.84044  23808043.2734                   23808042.6844
        39.7504         25.2504
  -6819179.55547 -11072043.45345  21791331.2974                   21791330.5784
        44.5004         32.5004
 -40106330.53546 -31082338.82044  23407124.4924                   23407123.3954
        40.5004         27.2504
 -42134481.00047 -32789538.04347  20953357.6804                   20953354.8914
        46.2504         45.5004
 -29807261.08247 -25571062.15645  21975492.3284                   21975491.2704
        44.0004         33.5004
 -31701988.14848 -24665245.70348  20142262.2734                   20142261.9694
        49.5004         50.2504
 -13926462.64847 -12772983.47346  21710710.7194                   21710711.7624
        45.0004         41.0004
 25  7  1  2  9  0.0000000  0  9G16G09G02G04G28G31G01G03G26
   2283865.72746   3111593.43043  23072489.8594                   23072489.3794
        38.7504         22.7504
                                  24551352.6484                   24551358.5474
        28.7504         24.0004
 -36838907.09846 -30966363.45744  23806583.5084                   23806583.8324
        39.0004         25.0004
  -6963304.30147 -11184348.41045  21763905.3674                   21763904.6054
        44.0004         32.2504
 -40105864.89546 -31081976.03944  23407212.7504                   23407211.5824
        40.7504         26.0004
 -42162371.98447 -32811271.28947  20948050.1564                   20948047.7584
        46.7504         45.2504
 -29833513.72747 -25591518.82045  21970496.8754                   21970495.7974
        45.0004         32.7504
 -31829610.76648 -24764691.88348  20117976.0704                   20117975.9064
        49.2504         50.0004
 -14060884.56247 -12877727.80546  21685132.0704                   21685132.5634
        45.7504         41.2504
