     2.11           OBSERVATION DATA    G (GPS)             RINEX VERSION / TYPE
teqc  2019Feb25                         20250821 08:53:02UTCPGM / RUN BY / DATE
Linux 2.6.32-573.12.1.x86_64|x86_64|gcc -static|Linux 64|=+ COMMENT
BIT 2 OF LLI FLAGS DATA COLLECTED UNDER A/S CONDITION       COMMENT
04223580                                                    MARKER NAME
0422                                                        MARKER NUMBER
-Unknown-           -Unknown-                               OBSERVER / AGENCY
0220340422          TRIMBLE 5700        2.32                REC # / TYPE / VERS
-Unknown-           TRM41249.00     NONE                    ANT # / TYPE
 -2409679.2761 -4612260.8603  3677303.7664                  APPROX POSITION XYZ
        0.0000        0.0000        0.0000                  ANTENNA: DELTA H/E/N
     1     1                                                WAVELENGTH FACT L1/2
     7    L1    L2    C1    P1    P2    S1    S2            # / TYPES OF OBSERV
    18                                                      LEAP SECONDS
 SNR is mapped to RINEX snr flag value [0-9]                COMMENT
  L1 & L2: min(max(int(snr_dBHz/6), 0), 9)                  COMMENT
  2025     8     9     0     0   30.0000000     GPS         TIME OF FIRST OBS
                                                            END OF HEADER
 25  8  9  0  0 30.0000000  0 10G09G16G02G28G03G06G04G26G31G01
  -7052062.48456  -6548755.64855  23558275.5704                   23558278.7074
        40.0004         34.0004
 -18124103.34457 -13053475.51254  22053373.4454                   22053372.8054
        44.5004         28.0004
  -9175305.07056  -6744458.69953  24860055.7344                   24860061.7934
        38.5004         22.5004
 -10699846.39856  -7048231.34853  24498659.7344                   24498660.4494
        39.7504         18.2504
 -30891544.76658 -24051797.14558  19859108.2114                   19859108.6174
        50.0004         50.7504
  -3231114.63755  -2498312.83253  24876301.3754                   24876306.1294
        32.7504         22.7504
 -25196146.53557 -18461719.41455  21057259.2274                   21057258.7894
        47.0004         34.5004
 -22907500.57457 -17827733.47757  21403881.0234                   21403882.7504
        45.7504         43.0004
 -24226620.91857 -18435408.36757  21719634.2974                   21719632.2664
        44.7504         42.0004
 -17171950.94957 -12867662.47354  22877040.4844                   22877041.6884
        42.0004         25.5004
 25  8  9  0  1  0.0000000  0 10G09G16G02G28G03G06G04G26G31G01
  -7143949.66846  -6620355.89545  23540791.3054                   23540792.6724
        40.2504         33.7504
 -18224913.05147 -13132028.39544  22034189.7974                   22034190.0634
        45.5004         28.0004
  -9104602.53546  -6689366.03143  24873510.7814                   24873515.9344
        39.0004         22.0004
 -10615529.95746  -6982530.31243  24514705.1954                   24514705.3754
        39.5004         19.0004
 -30908006.82848 -24064624.71948  19855975.4224                   19855976.4104
        48.7504         50.7504
  -3294646.41846  -2547818.16444  24864214.2734                   24864215.4804
        36.7504         26.0004
 -25251841.27047 -18505117.87545  21046660.7664                   21046660.7664
        47.5004         35.0004
 -22924675.19147 -17841116.24647  21400612.5784                   21400614.5864
        46.5004         43.0004
 -24156446.66047 -18380727.14846  21732987.4924                   21732986.2664
        46.0004         41.5004
 -17099646.46146 -12811321.37544  22890799.2344                   22890800.9344
        41.2504         25.2504
 25  8  9  0  1 30.0000000  0 10G09G16G02G28G03G06G04G26G31G01
  -7235809.57446  -6691934.88745  23523309.5704                   23523312.7624
        40.2504         33.5004
 -18325368.21147 -13210305.00444  22015073.4844                   22015073.5554
        44.7504         27.7504
  -9034006.91046  -6634356.66443  24886945.0864                   24886950.1524
        39.7504         22.2504
 -10531199.83246  -6916818.55943  24530752.5164                   24530752.6024
        40.0004         19.0004
 -30923904.25048 -24077012.30948  19852950.4064                   19852951.2234
        48.7504         50.7504
  -3357690.97345  -2596943.78944  24852215.6024                   24852220.6564
        35.7504         28.0004
 -25307384.23047 -18548398.06245  21036091.5474                   21036091.0904
        47.0004         35.2504
 -22941226.20347 -17854013.08647  21397462.7584                   21397464.9844
        45.5004         43.0004
 -24086021.59847 -18325850.49246  21746389.0084                   21746387.1604
        46.0004         41.2504
 -17027143.04346 -12754825.27044  22904595.9534                   22904597.8874
        41.0004         25.5004
 25  8  9  0  2  0.0000000  0 10G09G16G02G28G03G06G04G26G31G01
  -7327640.71146  -6763491.43445  23505834.6024                   23505836.9734
        40.2504         33.0004
 -18425464.29747 -13288301.80544  21996025.6644                   21996025.8364
        44.5004         28.2504
  -8963519.60546  -6579431.69543  24900357.8594                   24900363.6334
        38.2504         21.7504
 -10446856.58646  -6851096.63743  24546802.1254                   24546803.1334
        38.5004         19.5004
 -30939235.09048 -24088958.39848  19850033.1564                   19850033.6644
        48.2504         50.5004
  -3420245.87946  -2645687.75844  24840312.0004                   24840316.1764
        36.2504         27.2504
 -25362773.94147 -18591558.83645  21025551.3834                   21025550.7194
        47.2504         34.5004
 -22957152.06247 -17866422.80547  21394432.5314                   21394434.6844
        44.5004         43.2504
 -24015347.26247 -18270779.57846  21759838.1094                   21759836.4414
        45.5004         41.0004
 -16954442.68446 -12698175.69144  22918430.6174                   22918432.3524
        41.2504         25.0004
 25  8  9  0  2 30.0000000  0 10G09G16G02G28G03G06G04G26G31G01
  -7419443.25046  -6835025.73045  23488365.2814                   23488368.3014
        40.5004         34.0004
 -18525198.28547 -13366016.45744  21977047.0784                   21977047.0164
        45.0004         29.5004
  -8893143.34846  -6524593.27743  24913750.7194                   24913756.0984
        40.0004         22.0004
 -10362502.30546  -6785366.06242  24562854.1334                   24562855.4924
        37.7504         16.7504
 -30953998.89148 -24100462.64848  19847223.3204                   19847224.1684
        49.5004         50.5004
  -3482309.94146  -2694049.30544  24828501.1414                   24828505.7544
        37.2504         28.0004
 -25418010.32447 -18634600.14845  21015040.2194                   21015039.8954
        47.5004         34.2504
 -22972452.78147 -17878345.39547  21391520.5554                   21391522.6844
        44.5004         42.7504
 -23944426.46147 -18215516.62946  21773333.7504                   21773332.2814
        46.0004         41.2504
 -16881548.90647 -12641375.41444  22932301.8984                   22932303.9964
        42.0004         25.7504
 25  8  9  0  3  0.0000000  0 10G09G16G02G28G03G06G04G26G31G01
  -7511217.51646  -6906538.00445  23470900.6884                   23470903.2584
        40.7504         34.0004
 -18624567.47347 -13443446.86344  21958137.6024                   21958137.3134
        44.5004         28.2504
  -8822881.26646  -6469843.82843  24927121.2424                   24927126.2934
        39.5004         22.0004
 -10278139.11746  -6719628.59042  24578908.1884                   24578909.6024
        38.5004         17.7504
 -30968195.49648 -24111524.94548  19844522.0164                   19844522.6954
        49.7504         50.5004
  -3543882.56646  -2742027.98844  24816786.6334                   24816787.4964
        39.0004         27.2504
 -25473093.57047 -18677522.12945  21004558.2274                   21004557.3524
        47.7504         34.5004
 -22987128.61347 -17889781.05947  21388727.8834                   21388729.7544
        46.0004         43.2504
 -23873262.14547 -18160063.92246  21786876.0164                   21786874.3674
        45.0004         41.2504
 -16808465.45346 -12584427.33244  22946209.0394                   22946211.0234
        41.2504         26.5004
 25  8  9  0  3 30.0000000  0 10G09G16G02G28G03G06G04G26G31G01
  -7602964.76246  -6978029.23045  23453441.4614                   23453444.6214
        40.2504         33.5004
 -18723569.80547 -13520591.40644  21939297.6414                   21939297.8364
        45.0004         28.7504
  -8752737.24246  -6415186.32443  24940469.0084                   24940475.0004
        39.0004         21.2504
 -10193770.23046  -6653886.62942  24594962.6724                   24594964.1524
        37.2504         17.7504
 -30981825.57448 -24122145.77348  19841928.4144                   19841929.2114
        49.2504         50.5004
  -3604963.93046  -2789623.85544  24805163.2894                   24805164.8834
        37.5004         27.2504
 -25528024.82447 -18720325.67645  20994104.9224                   20994104.4384
        47.5004         34.7504
 -23001180.79347 -17900730.76247  21386053.5234                   21386055.6174
        44.7504         43.2504
 -23801858.57447 -18104424.78946  21800463.2274                   21800461.7664
        46.2504         41.0004
 -16735196.87946 -12527335.00444  22960151.7344                   22960153.5354
        41.7504         28.0004
 25  8  9  0  4  0.0000000  0 10G09G16G02G28G03G06G04G26G31G01
  -7694681.62946  -7049496.77345  23435988.6724                   23435990.9574
        40.7504         34.5004
 -18822198.99247 -13597445.18444  21920529.6884                   21920529.1524
        44.5004         29.2504
  -8682710.55146  -6360620.28943  24953794.9694                   24953800.3834
        39.5004         21.5004
 -10109394.06646  -6588139.04743  24611019.8594                   24611020.2074
        38.5004         18.2504
 -30994885.35548 -24132322.21148  19839443.0554                   19839444.1334
        48.2504         50.5004
  -3665549.70745  -2836833.46544  24793631.4774                   24793635.7384
        35.5004         26.7504
 -25582800.55947 -18763008.05145  20983681.7344                   20983681.1604
        47.2504         34.7504
 -23014605.94147 -17911191.87147  21383499.1334                   21383500.7424
        45.0004         43.2504
 -23730215.15647 -18048598.76246  21814096.6024                   21814095.0124
        47.0004         41.0004
 -16661743.30147 -12470098.51644  22974130.0234                   22974131.4104
        42.5004         26.5004
 25  8  9  0  4 30.0000000  0 10G09G16G02G28G03G06G04G26G31G01
  -7786368.07446  -7120940.62945  23418540.9384                   23418543.7974
        41.0004         35.0004
 -18920451.87547 -13674005.73445  21901832.7274                   21901832.2424
        44.0004         30.0004
  -8612803.58646  -6306147.54343  24967098.5704                   24967103.2584
        38.0004         22.0004
 -10025012.61346  -6522387.32042  24627077.5394                   24627078.1414
        38.2504         17.2504
 -31007374.35248 -24142053.88748  19837066.5314                   19837067.2974
        48.5004         50.5004
  -3725638.71546  -2883656.01244  24782198.1564                   24782201.5664
        37.0004         29.7504
 -25637420.57047 -18805569.07045  20973287.8204                   20973287.0704
        47.5004         35.0004
 -23027404.06247 -17921164.38347  21381063.8914                   21381065.5394
        44.7504         43.2504
 -23658334.45347 -17992587.82846  21827775.1804                   21827773.4494
        45.2504         41.0004
 -16588108.03547 -12412720.44944  22988141.9534                   22988143.7424
        42.2504         26.7504
 25  8  9  0  5  0.0000000  0 10G09G16G02G28G03G06G04G26G31G01
  -7878026.73846  -7192362.83845  23401099.1954                   23401101.5824
        41.0004         34.5004
 -19018327.91847 -13750272.64545  21883207.2034                   21883206.9384
        45.2504         30.0004
  -8543021.75846  -6251772.30143  24980376.5314                   24980383.0594
        36.7504         22.0004
  -9940630.34446  -6456634.98442  24643134.5164                   24643135.7544
        36.7504         17.7504
 -31019294.78948 -24151342.52748  19834798.0164                   19834799.0394
        48.5004         50.5004
  -3785232.70346  -2930092.86344  24770858.2814                   24770860.7384
        38.5004         29.0004
 -25691887.40647 -18848010.74245  20962923.1884                   20962922.9414
        47.5004         34.5004
 -23039577.91447 -17930650.46147  21378746.8834                   21378748.6024
        44.7504         43.0004
 -23586222.30547 -17936396.55946  21841497.6484                   21841496.0204
        46.0004         41.0004
 -16514297.19547 -12355205.57444  23002187.8444                   23002189.5944
        42.7504         27.2504
 25  8  9  0  5 30.0000000  0 11G09G16G02G28G03G06G04G26G31G01G07
  -7969657.83646  -7263763.57845  23383661.8204                   23383664.2584
        41.0004         34.2504
 -19115824.10547 -13826243.57045  21864654.2664                   21864653.7384
        44.0004         30.2504
  -8473368.13746  -6197496.94543  24993632.1334                   24993637.5594
        39.0004         21.2504
  -9856249.21546  -6390883.50842  24659191.9384                   24659193.0124
        37.0004         16.7504
 -31030646.39148 -24160187.92248  19832638.0704                   19832638.8284
        48.5004         50.2504
  -3844330.83245  -2976143.32044  24759611.0864                   24759613.4494
        34.5004         24.2504
 -25746200.99647 -18890332.99245  20952587.3524                   20952587.2304
        47.0004         35.0004
 -23051127.67247 -17939650.23447  21376548.8054                   21376551.0204
        44.7504         42.7504
 -23513881.25047 -17880026.91846  21855263.5944                   21855262.0514
        46.5004         41.0004
 -16440314.27747 -12297556.60544  23016266.5164                   23016268.0434
        44.0004         26.5004
   -137925.58655    -81759.48854  25140413.0394                   25140421.6054
        35.2504         26.0004
 25  8  9  0  6  0.0000000  0 11G09G16G02G28G03G06G04G26G31G01G07
  -8061278.55146  -7335156.22745  23366227.5634                   23366230.0824
        41.5004         34.5004
 -19212955.03547 -13901929.87144  21846170.6254                   21846170.4414
        44.5004         29.2504
  -8403862.26246  -6143336.75043  25006859.0164                   25006864.4964
        39.0004         22.0004
  -9771888.36746  -6325147.86742  24675245.6884                   24675246.1454
        36.2504         17.2504
 -31041446.09047 -24168603.26648  19830582.8524                   19830583.8554
        47.7504         50.2504
  -3902949.48445  -3021820.16844  24748456.4064                   24748460.3364
        35.7504         26.7504
 -25800378.50447 -18932549.21545  20942277.6564                   20942277.3714
        47.2504         35.2504
 -23062070.75847 -17948177.27347  21374466.4064                   21374468.5664
        44.5004         43.0004
 -23441331.18447 -17823494.40646  21869069.8834                   21869068.1884
        46.0004         41.0004
 -16366179.93047 -12239789.64544  23030373.6644                   23030375.7034
        43.2504         25.5004
   -238407.81655   -160056.56253  25121292.4064                   25121300.1804
        33.5004         22.7504
 25  8  9  0  6 30.0000000  0 11G09G16G02G28G03G06G04G26G31G01G07
  -8152894.07846  -7406544.83245  23348793.5944                   23348795.0314
        40.7504         34.7504
 -19309722.60547 -13977333.05145  21827756.0004                   21827756.2974
        44.5004         30.0004
  -8334512.21546  -6089297.96943  25020056.6174                   25020061.6764
        38.2504         20.0004
  -9687554.89145  -6259433.55543  24691293.5394                   24691294.4694
        35.5004         18.2504
 -31051698.65648 -24176592.26648  19828632.2274                   19828632.9694
        48.2504         50.2504
  -3961092.84046  -3067126.62945  24737392.9144                   24737396.3914
        38.5004         30.5004
 -25854424.92247 -18974663.27345  20931993.2344                   20931992.8634
        47.5004         35.0004
 -23072412.50447 -17956235.72347  21372498.6724                   21372500.6684
        44.5004         43.5004
 -23368580.54347 -17766805.60546  21882913.6414                   21882912.2194
        45.5004         41.0004
 -16291902.84047 -12181911.44144  23044508.2194                   23044510.0704
        43.2504         26.2504
   -338768.80955   -238259.30953  25102191.9144                   25102200.7624
        32.2504         21.0004
 25  8  9  0  7  0.0000000  0 11G09G16G02G28G03G06G04G26G31G01G07
  -8244507.04346  -7477931.43045  23331359.6334                   23331362.2584
        41.2504         35.0004
 -19406126.50447 -14052452.85244  21809411.4304                   21809410.6844
        44.0004         29.5004
  -8265323.10246  -6035384.57043  25033222.6564                   25033228.1294
        38.0004         21.0004
  -9603253.27345  -6193744.07042  24707334.5004                   24707336.9654
        35.0004         17.7504
 -31061406.52348 -24184156.82848  19826784.7424                   19826785.0944
        48.0004         50.5004
  -4018762.69946  -3112064.14544  24726418.6644                   24726422.0084
        38.2504         29.5004
 -25908342.73047 -19016677.11745  20921732.7664                   20921732.0124
        47.5004         35.2504
 -23082155.75847 -17963827.82447  21370644.4694                   21370646.4414
        45.0004         43.7504
 -23295634.71547 -17709964.71146  21896794.7194                   21896792.9534
        45.7504         41.5004
 -16217489.00447 -12123926.68444  23058669.0474                   23058670.4734
        43.2504         24.7504
   -439010.59855   -316369.10554  25083118.9224                   25083124.9304
        32.5004         25.2504
 25  8  9  0  7 30.0000000  0 11G09G16G02G28G03G06G04G26G31G01G07
  -8336110.38746  -7549310.55945  23313928.1414                   23313930.3094
        41.0004         34.5004
 -19502156.64547 -14127281.41844  21791137.2504                   21791136.4804
        44.5004         29.7504
  -8196290.66446  -5981593.24643  25046359.2034                   25046364.6414
        39.2504         20.2504
  -9518978.21145  -6128075.23842  24723372.2194                   24723374.3014
        35.2504         16.7504
 -31070562.19547 -24191291.11748  19825042.2814                   19825042.7194
        47.7504         50.2504
  -4075951.16045  -3156626.52344  24715534.5474                   24715538.0864
        34.5004         26.0004
 -25962124.70747 -19058585.12946  20911498.2734                   20911497.8014
        47.2504         36.0004
 -23091293.65247 -17970948.21147  21368905.5634                   21368907.3834
        44.5004         43.0004
 -23222489.04747 -17652968.10546  21910713.9844                   21910712.6414
        46.0004         41.0004
 -16142934.75847 -12065832.53544  23072855.9534                   23072857.2934
        42.2504         25.0004
   -539125.88756   -394380.16053  25064067.3364                   25064073.3204
        36.5004         22.5004
 25  8  9  0  8  0.0000000  0 11G09G16G02G28G03G06G04G26G31G01G07
  -8427693.27746  -7620673.73845  23296500.6174                   23296502.9534
        40.5004         35.5004
 -19597798.85547 -14201807.69145  21772937.0234                   21772936.7074
        43.7504         30.0004
  -8127406.47746  -5927917.44543  25059468.0864                   25059473.1294
        39.0004         19.2504
  -9434720.85945  -6062420.26642  24739405.1484                   24739408.2854
        33.2504         16.7504
 -31079154.71948 -24197986.58248  19823407.1804                   19823408.1914
        48.2504         50.2504
  -4132646.57046  -3200804.72744  24704746.6644                   24704748.3634
        38.0004         26.5004
 -26015759.91447 -19100378.77745  20901292.1094                   20901290.8794
        47.2504         35.5004
 -23099815.71947 -17977588.74247  21367283.8134                   21367285.8094
        44.5004         43.2504
 -23149135.69947 -17595809.66446  21924672.9844                   21924671.1604
        46.5004         41.0004
 -16068232.82047 -12007623.28144  23087071.2894                   23087072.9494
        43.7504         25.0004
   -639103.12545   -472283.88743  25045039.7344                   25045046.9884
        34.5004         20.5004
 25  8  9  0  8 30.0000000  0 10G09G16G28G03G06G04G26G31G01G07
  -8519252.55947  -7692018.53145  23279077.4384                   23279079.3714
        42.0004         35.5004
 -19693047.28147 -14276027.13345  21754811.3524                   21754811.1954
        44.5004         30.7504
  -9350479.80945  -5996777.99642  24755436.0234                   24755438.0274
        31.0004         15.5004
 -31087180.64148 -24204240.53548  19821879.6954                   19821880.4534
        48.2504         50.5004
  -4188844.92246  -3244595.65644  24694053.7504                   24694055.7194
        39.5004         29.5004
 -26069245.00047 -19142055.44145  20891113.8914                   20891113.6844
        47.5004         35.2504
 -23107719.04747 -17983747.13747  21365779.4384                   21365781.6804
        44.5004         43.0004
 -23075574.38347 -17538489.18446  21938670.5474                   21938669.2704
        46.0004         41.5004
 -15993383.37547 -11949299.10544  23101315.0084                   23101316.7774
        42.7504         24.5004
   -738938.43445   -550076.82843  25026041.6884                   25026048.8834
        34.5004         23.2504
 25  8  9  0  9  0.0000000  0 10G09G16G28G03G06G04G26G31G01G07
  -8610784.59846  -7763342.07845  23261659.3984                   23261661.1334
        41.5004         35.5004
 -19787895.19147 -14349934.46545  21736762.5474                   21736761.9024
        44.2504         31.0004
  -9266253.24645  -5931146.96543  24771464.1954                   24771466.2854
        35.0004         18.2504
 -31094636.13748 -24210050.00848  19820461.0084                   19820461.6134
        48.5004         50.2504
  -4244541.74246  -3287995.76244  24683454.8914                   24683457.6484
        36.5004         29.0004
 -26122576.15647 -19183612.16045  20880965.4844                   20880964.8054
        46.7504         35.7504
 -23115000.27347 -17989420.77747  21364394.0864                   21364396.3404
        44.2504         43.0004
 -23001804.01647 -17481005.80146  21952709.0634                   21952707.2934
        46.2504         41.2504
 -15918386.23846 -11890859.84044  23115586.3674                   23115588.1054
        41.7504         26.7504
   -838627.24645   -627755.85543  25007069.7664                   25007078.2114
        34.2504         21.5004
 25  8  9  0  9 30.0000000  0 10G09G16G28G03G06G04G26G31G01G07
  -8702273.97746  -7834632.38746  23244249.9384                   23244251.6214
        41.5004         36.0004
 -19882324.54747 -14423515.66045  21718793.2734                   21718792.8324
        43.5004         30.0004
  -9182027.71945  -5865516.71942  24787492.0944                   24787493.5434
        35.5004         16.7504
 -31101505.68748 -24215402.89848  19819153.9694                   19819154.3094
        48.0004         50.5004
  -4299721.06645  -3330992.57444  24672952.3134                   24672957.5704
        33.0004         25.7504
 -26175737.90247 -19225036.85545  20870849.0004                   20870848.5004
        47.0004         35.2504
 -23121644.49647 -17994598.05147  21363129.7974                   21363131.7974
        44.7504         43.2504
 -22927812.15647 -17423349.82046  21966789.5164                   21966787.5944
        45.7504         41.2504
 -15843229.54346 -11832296.25044  23129887.9614                   23129890.3444
        40.7504         25.0004
   -938154.12145   -705308.47343  24988130.4694                   24988137.4734
        34.5004         21.5004
 25  8  9  0 10  0.0000000  0 10G09G16G28G03G06G04G26G31G01G07
  -8793703.84046  -7905876.31646  23226850.6024                   23226852.8914
        41.0004         36.2504
 -19976315.24247 -14496755.03945  21700907.2114                   21700906.8714
        43.7504         31.0004
  -9097788.05145  -5799875.50842  24803522.5784                   24803523.8594
        35.0004         16.2504
 -31107772.14548 -24220285.84048  19817961.3674                   19817962.2464
        49.0004         50.2504
  -4354365.19945  -3373572.37144  24662554.4304                   24662557.7464
        35.2504         27.7504
 -26228713.08647 -19266316.18745  20860768.0864                   20860767.8284
        47.0004         35.5004
 -23127635.13347 -17999266.04347  21361989.9694                   21361991.8484
        44.5004         43.5004
 -22853584.66847 -17365510.23846  21980914.0704                   21980912.5944
        46.5004         41.0004
 -15767899.70747 -11773597.73044  23144222.5084                   23144224.7274
        42.0004         25.5004
  -1037501.65645   -782721.53943  24969225.2664                   24969231.3954
        35.5004         22.0004
 25  8  9  0 10 30.0000000  0 10G09G16G28G03G06G04G26G31G01G07
  -8885080.91446  -7977079.13745  23209461.8674                   23209464.1024
        39.7504         35.7504
 -20069871.07847 -14569655.56645  21683104.2584                   21683103.8444
        44.0004         31.0004
  -9013542.95745  -5734230.10243  24819552.9694                   24819556.0394
        32.7504         18.2504
 -31113442.27748 -24224704.11348  19816882.6094                   19816883.1094
        48.5004         50.2504
  -4408480.10946  -3415739.85544  24652257.1804                   24652259.8794
        38.5004         29.0004
 -26281508.45747 -19307455.40645  20850721.6484                   20850720.9924
        47.2504         35.5004
 -23132979.44547 -18003430.40247  21360972.7894                   21360974.9064
        44.5004         43.2504
 -22779131.24647 -17307494.60946  21995082.1954                   21995080.7034
        46.2504         41.5004
 -15692407.11746 -11714772.40244  23158588.9844                   23158590.6844
        41.7504         26.0004
  -1136675.97346   -859999.50043  24950353.4224                   24950358.9804
        36.5004         20.0004
 25  8  9  0 11  0.0000000  0 10G09G16G28G03G06G04G26G31G01G07
  -8976411.19946  -8048245.48046  23192082.3134                   23192084.4844
        40.0004         36.0004
 -20162994.90247 -14642219.46945  21665383.0704                   21665382.5394
        44.5004         31.5004
  -8929300.08245  -5668586.34043  24835585.3054                   24835587.3484
        34.0004         18.2504
 -31118521.90248 -24228662.25848  19815916.1094                   19815916.7544
        49.5004         50.5004
  -4462071.21946  -3457499.15244  24642059.4534                   24642062.2664
        38.2504         28.5004
 -26334129.67647 -19348458.92245  20840707.7274                   20840707.5904
        47.2504         35.5004
 -23137683.78547 -18007096.09047  21360077.6334                   21360079.6374
        45.7504         43.5004
 -22704460.14547 -17249309.35546  22009291.6414                   22009289.8364
        46.7504         40.7504
 -15616761.03946 -11655827.46944  23172983.6414                   23172985.6604
        41.5004         26.0004
  -1235682.21546   -937146.68044  24931512.3364                   24931517.0274
        37.2504         25.0004
 25  8  9  0 11 30.0000000  0 10G09G16G28G03G06G04G26G31G01G07
  -9067695.68446  -8119376.12946  23174711.6094                   23174713.3954
        40.2504         36.5004
 -20255685.25847 -14714445.61345  21647744.6804                   21647744.0124
        45.0004         31.0004
  -8845062.47345  -5602946.69543  24851614.4924                   24851616.3204
        33.0004         18.5004
 -31123012.05548 -24232161.07448  19815061.4694                   19815062.1334
        50.0004         50.5004
  -4515138.81646  -3498850.51245  24631960.7584                   24631964.6524
        37.7504         30.2504
 -26386577.72347 -19389327.49645  20830727.6414                   20830726.8674
        47.2504         35.2504
 -23141749.83247 -18010264.40247  21359303.8674                   21359305.8834
        46.5004         43.2504
 -22629575.41447 -17190957.64146  22023541.9774                   22023540.0124
        46.2504         40.5004
 -15540966.10546 -11596766.55544  23187407.0234                   23187409.1994
        41.5004         24.5004
  -1334521.32446  -1014163.53143  24912703.4614                   24912708.4964
        39.0004         22.5004
 25  8  9  0 12  0.0000000  0 10G09G16G28G03G06G04G26G31G01G07
  -9158934.42646  -8190471.15246  23157349.0084                   23157351.1644
        40.2504         36.0004
 -20347939.41047 -14786331.85245  21630189.1644                   21630188.7034
        44.5004         31.0004
  -8760831.77745  -5537312.49642  24867643.8054                   24867645.8754
        33.7504         16.7504
 -31126912.72348 -24235200.54748  19814319.1644                   19814319.8054
        49.7504         50.5004
  -4567682.43046  -3539793.50044  24621961.9924                   24621965.1254
        39.0004         28.5004
 -26438852.48847 -19430061.05145  20820779.5314                   20820779.1844
        47.2504         35.7504
 -23145178.04347 -18012935.69547  21358651.4774                   21358653.4844
        45.5004         43.5004
 -22554480.04747 -17132441.79346  22037832.0944                   22037830.5744
        46.2504         40.5004
 -15465025.71946 -11537592.29344  23201858.1884                   23201860.2464
        41.5004         26.0004
  -1433192.56646  -1091049.66843  24893926.5234                   24893930.9734
        39.0004         22.5004
 25  8  9  0 12 30.0000000  0 10G09G16G28G03G06G04G26G31G01G07
  -9250131.68746  -8261533.83246  23139995.0864                   23139997.1884
        40.7504         36.0004
 -20439758.46947 -14857879.05545  21612716.5394                   21612715.6414
        44.5004         31.5004
  -8676614.16045  -5471688.46542  24883670.3674                   24883671.4064
        34.0004         16.7504
 -31130228.15248 -24237783.99648  19813688.3834                   19813689.1564
        49.0004         50.5004
  -4619705.57846  -3580331.05144  24612063.0634                   24612065.1564
        38.5004         29.0004
 -26490958.01647 -19470662.73045  20810864.4534                   20810863.7034
        47.0004         35.5004
 -23147973.28947 -18015113.77747  21358119.4694                   21358121.6294
        44.5004         43.2504
 -22479180.88347 -17073767.14846  22052160.8914                   22052159.2114
        45.5004         40.2504
 -15388947.65646 -11478310.75444  23216335.1024                   23216337.3404
        40.7504         25.2504
  -1531699.68446  -1167807.80543  24875179.6174                   24875186.0204
        37.0004         22.7504
 25  8  9  0 13  0.0000000  0 10G09G16G28G03G06G04G26G31G01G07
  -9341287.92646  -8332564.55545  23122648.3674                   23122649.8914
        40.7504         35.7504
 -20531139.90647 -14929085.25445  21595327.3594                   21595326.8244
        45.7504         31.7504
  -8592411.91045  -5406076.36742  24899691.7424                   24899694.8674
        32.5004         16.7504
 -31132958.87548 -24239911.82848  19813168.4224                   19813169.3444
        49.5004         50.5004
  -4671208.31646  -3620463.02344  24602261.1644                   24602263.6294
        39.0004         27.7504
 -26542894.67647 -19511132.82845  20800981.2114                   20800980.6214
        47.0004         35.5004
 -23150136.72747 -18016799.53147  21357707.7734                   21357709.8874
        45.7504         43.2504
 -22403681.06247 -17014936.13746  22066528.3204                   22066526.3634
        46.2504         40.2504
 -15312735.87546 -11418925.02044  23230838.2974                   23230839.7424
        41.0004         24.7504
  -1630042.82446  -1244438.27343  24856466.7504                   24856470.7074
        39.0004         22.5004
 25  8  9  0 13 30.0000000  0 10G09G16G28G03G06G04G26G31G01G07
  -7856975.24646  -7175957.16046  23405103.6954                   23405105.7154
        41.0004         36.0004
 -19046653.18747 -13772342.25445  21877815.7504                   21877815.0204
        44.5004         32.0004
  -6932804.90645  -4112876.21543  25215505.5704                   25215507.1804
        35.2504         18.5004
 -29559679.97348 -23013980.22348  20112553.6174                   20112554.3754
        49.5004         50.2504
  -3146763.49246  -2432583.94945  24892353.6174                   24892357.3914
        37.5004         30.0004
 -25019235.71947 -18323866.07445  21090923.7584                   21090923.3634
        47.5004         35.5004
 -21576244.00047 -16790389.57847  21657209.4304                   21657211.4384
        47.0004         43.2504
 -20752561.11347 -15728349.18446  22380725.7814                   22380724.4734
        46.5004         40.5004
 -13660971.50846 -10131835.98444  23545158.2344                   23545160.3134
        40.5004         25.5004
   -152793.59846    -93334.44143  25137577.0634                   25137581.5514
        39.2504         21.7504
 25  8  9  0 14  0.0000000  0 10G09G16G28G03G06G04G26G31G01G07
  -7948044.92246  -7246920.43445  23387773.5634                   23387775.6254
        41.0004         35.5004
 -19137146.84047 -13842856.66845  21860594.8134                   21860594.4384
        45.2504         31.5004
  -6848634.22745  -4047288.71942  25231522.0004                   25231524.2424
        33.7504         16.7504
 -29561236.94548 -23015193.44548  20112257.6254                   20112258.0394
        50.0004         50.5004
  -3197219.18046  -2471900.02744  24882752.2194                   24882755.4734
        37.0004         29.2504
 -25070829.61347 -18364069.08645  21081105.9694                   21081104.9064
        46.7504         35.7504
 -21577141.10547 -16791088.59447  21657038.6564                   21657040.6804
        47.0004         43.2504
 -20676664.18447 -15669208.73446  22395168.8594                   22395167.1644
        46.0004         40.7504
 -13584498.18746 -10072246.46543  23559710.9224                   23559713.0704
        40.0004         22.5004
   -250803.30546   -169705.16043  25118925.5864                   25118930.2304
        39.0004         23.5004
 25  8  9  0 14 30.0000000  0 10G09G16G28G03G06G04G26G31G01G07
  -8039070.23446  -7317849.13745  23370451.0554                   23370453.4064
        40.5004         35.2504
 -19227191.11347 -13913020.89845  21843459.8754                   21843459.5434
        45.5004         32.2504
  -6764481.12546  -3981714.93743  25247536.8674                   25247538.1564
        36.0004         19.5004
 -29562206.08248 -23015948.61348  20112072.7894                   20112073.8554
        50.0004         50.5004
  -3247149.52346  -2510806.77745  24873251.8594                   24873254.0004
        37.2504         30.0004
 -25122250.77747 -18404137.50445  21071320.6564                   21071320.0554
        46.5004         35.5004
 -21577405.06647 -16791294.24647  21656988.1954                   21656990.0434
        47.5004         43.2504
 -20600571.69947 -15609915.90646  22409648.5314                   22409647.1414
        45.7504         40.0004
 -13507898.19146 -10012558.24244  23574287.5704                   23574289.6564
        40.0004         24.0004
   -348644.28546   -245944.27043  25100305.6724                   25100311.2274
        39.0004         22.0004
 25  8  9  0 15  0.0000000  0 10G09G16G28G03G06G04G26G31G01G07
  -8130053.98846  -7388745.46946  23353138.2034                   23353139.7234
        40.7504         36.0004
 -19316786.30547 -13982835.21945  21826410.7344                   21826410.2774
        46.5004         32.0004
  -6680350.10945  -3916158.41442  25263545.1954                   25263547.8524
        33.5004         16.7504
 -29562590.50448 -23016248.16448  20111999.6884                   20112000.5274
        50.0004         50.5004
  -3296556.98846  -2549306.06644  24863849.6644                   24863852.1024
        37.5004         28.0004
 -25173501.97747 -18444073.46945  21061567.7584                   21061567.2974
        46.7504         35.2504
 -21577039.50047 -16791009.35947  21657058.4534                   21657059.9304
        47.0004         43.0004
 -20524289.13747 -15550474.96946  22424164.3914                   22424163.1254
        45.0004         40.0004
 -13431177.96546  -9952776.33244  23588886.9064                   23588888.9224
        39.5004         25.2504
   -446319.09446   -322054.03544  25081718.5004                   25081724.6844
        39.2504         25.5004
 25  8  9  0 15 30.0000000  0 10G09G16G28G03G06G04G26G31G01G07
  -8220994.30546  -7459607.94545  23335832.7664                   23335834.4574
        40.5004         35.7504
 -19405927.68447 -14052295.91845  21809447.3284                   21809446.5164
        46.0004         32.0004
  -6596240.82446  -3850618.72343  25279551.5314                   25279552.9184
        36.5004         20.5004
 -29562388.28148 -23016090.59448  20112037.8914                   20112039.2114
        49.7504         50.5004
  -3345439.06246  -2587395.99244  24854546.6484                   24854549.8014
        36.7504         29.2504
 -25224581.01248 -18483875.28945  21051847.4614                   21051847.1644
        48.0004         35.5004
 -21576043.07847 -16790232.89847  21657247.6024                   21657249.5474
        46.2504         43.2504
 -20447817.53547 -15490886.73446  22438716.5474                   22438715.2194
        45.0004         40.0004
 -13354338.93046  -9892901.85243  23603509.0784                   23603511.2464
        39.2504         22.2504
   -543825.43746   -398032.50443  25063163.2034                   25063168.7074
        40.0004         23.0004
 25  8  9  0 16  0.0000000  0 10G09G16G28G03G06G04G26G31G01G07
  -8311889.43046  -7530435.21945  23318535.6024                   23318537.5434
        40.5004         35.7504
 -19494610.70347 -14121399.46945  21792571.6174                   21792570.3444
        46.0004         32.5004
  -6512153.60245  -3785096.35242  25295553.1024                   25295554.5124
        35.7504         17.7504
 -29561598.05948 -23015474.83248  20112188.7734                   20112189.1804
        49.2504         50.5004
  -3393793.84046  -2625075.02744  24845345.4144                   24845347.9654
        37.2504         28.0004
 -25275486.12947 -18523541.58246  21042160.5704                   21042160.3834
        46.7504         36.2504
 -21574415.12547 -16788964.33247  21657557.4774                   21657559.2734
        47.0004         43.2504
 -20371157.85947 -15431151.94146  22453304.1804                   22453302.8714
        45.0004         40.0004
 -13277383.01246  -9832936.29343  23618153.4774                   23618155.1214
        38.5004         23.0004
   -641161.16846   -473878.03944  25044641.0554                   25044646.5664
        41.0004         26.7504
 25  8  9  0 16 30.0000000  0 10G09G16G28G03G06G04G26G31G01G07
  -8402740.80146  -7601228.39145  23301247.3364                   23301248.7464
        40.7504         35.5004
 -19582833.94947 -14190144.73845  21775783.1644                   21775782.3324
        46.0004         32.2504
  -6428091.62946  -3719593.55143  25311550.1884                   25311550.8714
        38.7504         19.5004
 -29560221.40248 -23014402.10548  20112450.4064                   20112451.5864
        48.0004         50.2504
  -3441622.19546  -2662343.85244  24836244.0084                   24836246.6294
        37.5004         29.2504
 -25326218.49647 -18563073.26645  21032506.8914                   21032506.1764
        47.7504         35.0004
 -21572157.78547 -16787205.34047  21657987.1724                   21657988.7734
        44.7504         43.2504
 -20294314.25047 -15371273.83246  22467926.9924                   22467926.0554
        44.7504         39.5004
 -13200314.99246  -9772883.37943  23632818.3364                   23632821.0784
        38.5004         23.0004
   -738327.41446   -549591.57844  25026149.8364                   25026155.1764
        39.5004         25.2504
 25  8  9  0 17  0.0000000  0 10G09G16G28G03G06G04G26G31G01G07
  -8493547.75846  -7671986.96545  23283967.2194                   23283969.4694
        40.7504         35.5004
 -19670594.49247 -14258529.48045  21759082.7664                   21759082.2544
        45.7504         32.5004
  -6344055.92646  -3654111.25843  25327541.4144                   25327542.1564
        36.7504         19.5004
 -29558257.98048 -23012872.16048  20112824.2274                   20112824.8874
        49.5004         50.5004
  -3488923.18046  -2699201.75445  24827243.5164                   24827246.3404
        37.7504         30.0004
 -25376777.39847 -18602469.78946  21022886.0944                   21022885.0904
        47.0004         36.0004
 -21569271.28947 -16784956.09447  21658536.1564                   21658538.0434
        45.7504         43.5004
 -20217288.90247 -15311254.10546  22482585.3284                   22482583.3134
        45.0004         39.7504
 -13123137.83646  -9712745.41844  23647505.0004                   23647507.5084
        38.7504         24.0004
   -835323.07446   -625172.14544  25007693.4384                   25007697.4804
        41.5004         28.0004
 25  8  9  0 17 30.0000000  0 10G09G16G28G03G06G04G26G31G01G07
  -8584309.48847  -7742710.28946  23266695.9224                   23266697.4344
        42.2504         36.0004
 -19757888.41847 -14326550.62145  21742470.9384                   21742470.2504
        45.0004         32.5004
  -6260047.49646  -3588650.21543  25343528.3134                   25343529.2894
        38.7504         19.7504
 -29555707.25448 -23010884.57048  20113309.5004                   20113310.6294
        49.7504         50.5004
  -3535695.68446  -2735647.87944  24818341.4384                   24818345.8794
        36.2504         28.5004
 -25427161.79747 -18641730.32846  21013298.0314                   21013297.5904
        47.5004         36.2504
 -21565755.80147 -16782216.73047  21659205.6094                   21659206.9414
        47.2504         43.2504
 -20140083.76647 -15251094.28546  22497276.9694                   22497275.1334
        45.2504         39.5004
 -13045854.16046  -9652524.46943  23662212.0164                   23662214.4654
        38.2504         22.0004
   -932147.15646   -700619.06644  24989267.5474                   24989271.4304
        40.7504         26.5004
 25  8  9  0 18  0.0000000  0 10G09G16G28G03G06G04G26G31G01G07
  -8675027.75847  -7813399.75046  23249432.1954                   23249434.1724
        42.0004         36.0004
 -19844715.11347 -14394207.68045  21725948.9304                   21725947.8094
        45.0004         31.7504
  -6176069.89545  -3523213.16442  25359508.0234                   25359509.5004
        34.7504         17.2504
 -29552571.41848 -23008441.05548  20113906.1564                   20113906.7304
        49.2504         50.5004
  -3581941.29345  -2771683.38344  24809541.3054                   24809544.9774
        35.7504         27.7504
 -25477373.42647 -18680856.24645  21003742.8524                   21003742.2814
        47.0004         35.5004
 -21561614.03147 -16778989.35947  21659993.5784                   21659995.1914
        47.2504         43.2504
 -20062703.34047 -15190797.87146  22512001.7664                   22512000.2114
        45.0004         39.7504
 -12968469.35546  -9592224.69943  23676937.8364                   23676940.4654
        38.5004         22.5004
  -1028801.07046   -775933.38744  24970873.2734                   24970878.8554
        39.5004         26.0004
 25  8  9  0 18 30.0000000  0 10G09G16G28G03G06G04G26G31G01G07
  -8765698.02047  -7884051.81646  23232178.3524                   23232180.3554
        43.5004         36.2504
 -19931067.20347 -14461494.92245  21709516.5084                   21709515.7894
        45.2504         32.0004
  -6092120.43046  -3457798.01243  25375482.4844                   25375484.4924
        37.0004         22.0004
 -29548846.14848 -23005538.24248  20114615.3054                   20114616.0004
        49.5004         50.5004
  -3627655.11746  -2807304.48844  24800843.5864                   24800845.5744
        37.5004         28.5004
 -25527407.42647 -18719843.75445  20994221.6884                   20994221.1844
        47.0004         35.7504
 -21556842.35547 -16775271.14547  21660901.4224                   21660903.0864
        47.2504         43.2504
 -19985145.62147 -15130363.31646  22526760.4694                   22526758.5704
        44.5004         39.5004
 -12890982.21146  -9531845.23843  23691682.8914                   23691685.2464
        38.2504         22.0004
  -1125279.64846   -851111.10544  24952514.7734                   24952518.6374
        41.2504         27.0004
 25  8  9  0 19  0.0000000  0 10G09G16G28G03G06G04G26G31G01G07
  -8856315.50447  -7954662.75046  23214935.0164                   23214936.2774
        43.5004         36.5004
 -20016937.37947 -14528406.65645  21693175.6414                   21693174.9224
        45.2504         32.5004
  -6008195.96545  -3392402.46142  25391452.3444                   25391455.3284
        35.5004         16.7504
 -29544527.14848 -23002172.77748  20115437.3284                   20115438.0704
        50.0004         50.5004
  -3672832.05546  -2842507.33644  24792246.8204                   24792248.6334
        38.0004         29.2504
 -25577258.98047 -18758689.10245  20984735.1174                   20984734.7814
        47.0004         35.2504
 -21551437.10547 -16771059.23847  21661929.9064                   21661931.6764
        46.5004         43.2504
 -19907408.87947 -15069789.25446  22541552.7194                   22541551.4064
        44.0004         39.0004
 -12813391.65646  -9471385.15243  23706448.2274                   23706450.1294
        38.7504         22.7504
  -1221578.18746   -926148.50844  24934188.5474                   24934192.9104
        39.7504         26.7504
 25  8  9  0 19 30.0000000  0 10G09G16G28G03G06G04G26G31G01G07
  -8946882.72747  -8025234.53146  23197700.3834                   23197701.7734
        42.7504         36.2504
 -20102325.55147 -14594942.80945  21676926.6334                   21676925.5744
        44.7504         32.7504
  -5924300.86746  -3327029.64143  25407418.2344                   25407419.6134
        39.7504         21.5004
 -29539617.40248 -22998346.99648  20116371.4064                   20116372.2544
        49.2504         50.5004
  -3717474.64846  -2877293.78545  24783751.2664                   24783754.3164
        37.5004         30.7504
 -25626930.45747 -18797394.12146  20975283.2894                   20975282.6174
        46.5004         36.5004
 -21545401.85247 -16766356.42647  21663078.7114                   21663080.0634
        46.5004         43.0004
 -19829498.45347 -15009079.85946  22556378.8284                   22556377.5234
        44.2504         39.5004
 -12735703.64846  -9410849.12943  23721231.8444                   23721234.3874
        39.0004         22.7504
  -1317698.97746  -1001047.47744  24915897.3834                   24915901.1294
        39.7504         25.5004
 25  8  9  0 20  0.0000000  0 10G09G16G28G03G06G04G26G31G01G07
  -9037402.59847  -8095769.40646  23180474.9064                   23180476.5784
        42.0004         37.2504
 -20187231.87947 -14661103.50045  21660769.5634                   21660768.6294
        45.0004         32.7504
  -5840439.78945  -3261683.41042  25423375.0634                   25423377.6564
        35.0004         16.7504
 -29534120.18748 -22994063.44948  20117417.2034                   20117417.5514
        49.5004         50.5004
  -3761585.52046  -2911665.86744  24775357.1174                   24775360.1454
        37.7504         29.7504
 -25676424.59847 -18835960.97746  20965864.7344                   20965864.0864
        47.0004         36.0004
 -21538740.52347 -16761165.76247  21664346.2034                   21664347.8674
        46.2504         43.2504
 -19751419.86347 -14948239.43746  22571236.4224                   22571235.6414
        44.5004         39.2504
 -12657924.60246  -9350242.18743  23736033.0164                   23736035.0904
        39.0004         22.2504
  -1413644.31246  -1075809.69544  24897639.5474                   24897643.6054
        40.2504         28.2504
 25  8  9  0 20 30.0000000  0 10G09G16G28G03G06G04G26G31G01G07
  -9127863.25047  -8166258.14146  23163260.4924                   23163262.2974
        42.7504         36.5004
 -20271642.03147 -14726877.55145  21644706.9304                   21644706.0984
        45.0004         33.0004
  -5756602.74646  -3196355.85543  25439329.5394                   25439331.2274
        39.5004         19.7504
 -29528024.20348 -22989313.32448  20118577.3284                   20118578.2584
        49.0004         50.2504
  -3805152.73446  -2945614.28144  24767066.1484                   24767069.8134
        37.5004         29.2504
 -25725729.39547 -18874380.27746  20956482.5944                   20956481.8134
        46.7504         36.2504
 -21531442.48047 -16755478.95347  21665735.0164                   21665736.5234
        45.7504         43.2504
 -19673164.04747 -14887260.91046  22586129.1884                   22586127.2234
        44.5004         39.2504
 -12580046.22746  -9289557.82443  23750852.8674                   23750855.4024
        39.5004         22.2504
  -1509402.46946  -1150426.04344  24879417.9224                   24879421.5164
        41.0004         28.5004
 25  8  9  0 21  0.0000000  0 10G09G16G28G03G06G04G26G31G01G07
  -9218272.39147  -8236706.73046  23146056.8134                   23146057.7854
        43.0004         37.0004
 -20355561.29347 -14792269.08645  21628737.6094                   21628736.6174
        45.5004         33.5004
  -5672798.99245  -3131054.34042  25455275.6254                   25455278.4344
        33.0004         17.2504
 -29521337.60948 -22984102.99248  20119849.5234                   20119850.9344
        49.2504         50.2504
  -3848183.79346  -2979144.97744  24758877.6254                   24758881.5314
        38.2504         29.5004
 -25774852.40647 -18912657.93746  20947134.5634                   20947133.6994
        47.0004         36.2504
 -21523516.49247 -16749302.84047  21667243.2664                   21667245.0594
        45.0004         43.0004
 -19594741.17247 -14826152.20346  22601052.5004                   22601050.5044
        44.5004         39.2504
 -12502079.77346  -9228804.84843  23765689.5784                   23765691.4924
        38.7504         23.7504
  -1604980.61746  -1224902.12944  24861228.5784                   24861233.1484
        40.2504         26.0004
 25  8  9  0 21 30.0000000  0 10G09G16G28G03G06G04G26G31G01G07
  -9308626.42247  -8307112.37946  23128862.0944                   23128863.8364
        42.7504         36.0004
 -20438983.38347 -14857273.22345  21612862.8914                   21612861.8164
        44.7504         33.0004
  -5589026.75846  -3065777.37144  25471219.5634                   25471220.1884
        41.0004         24.5004
 -29514057.37147 -22978430.08648  20121235.1024                   20121235.7304
        47.7504         50.2504
  -3890675.12946  -3012255.09844  24750792.6644                   24750793.6214
        39.2504         29.2504
 -25823789.85947 -18950790.99246  20937822.0474                   20937821.2934
        46.0004         36.0004
 -21514960.18747 -16742635.57047  21668871.3284                   21668873.1294
        44.5004         43.5004
 -19516150.24247 -14764912.54746  22616006.7974                   22616005.5354
        45.0004         39.0004
 -12424025.05946  -9167983.10243  23780542.2974                   23780545.1884
        39.7504         22.0004
  -1700374.99246  -1299235.08644  24843075.3444                   24843079.4924
        39.7504         27.0004
 25  8  9  0 22  0.0000000  0 10G09G16G28G03G06G04G26G31G01G07
  -9398929.32847  -8377478.19146  23111678.7034                   23111679.6764
        42.0004         36.5004
 -20521909.98847 -14921891.27045  21597082.2504                   21597081.0944
        45.2504         33.0004
  -5505291.91045  -3000529.41042  25487151.4384                   25487154.0984
        34.0004         16.7504
 -29506188.04748 -22972298.13348  20122732.6024                   20122733.1174
        49.0004         50.2504
  -3932630.63346  -3044947.71944  24742808.0314                   24742809.7074
        38.0004         28.0004
 -25872545.60247 -18988782.44546  20928544.4384                   20928543.5514
        46.2504         36.2504
 -21505778.81647 -16735481.23847  21670618.0634                   21670619.8204
        45.7504         42.7504
 -19437398.71547 -14703547.74646  22630992.5314                   22630991.6724
        45.5004         38.7504
 -12345889.74246  -9107098.53543  23795411.6094                   23795413.8164
        39.0004         22.5004
  -1795589.54346  -1373427.89544  24824957.7344                   24824959.9884
        40.7504         28.0004
 25  8  9  0 22 30.0000000  0 10G09G16G28G03G06G04G26G31G01G07
  -9489178.57847  -8447802.19546  23094504.1724                   23094505.9144
        42.0004         37.0004
 -20604335.93447 -14986119.18745  21581396.7974                   21581395.6254
        44.5004         32.0004
  -5421593.53147  -2935310.03944  25503080.7894                   25503082.0944
        42.0004         24.0004
 -29497727.75848 -22965705.69548  20124342.5164                   20124343.3284
        49.5004         50.5004
  -3974047.74246  -3077220.77345  24734926.7974                   24734930.8324
        38.7504         30.5004
 -25921117.00847 -19026630.27346  20919301.2584                   20919300.4264
        45.5004         36.0004
 -21495971.06247 -16727838.82447  21672484.7734                   21672486.6724
        45.0004         43.0004
 -19358486.43447 -14642057.68446  22646010.0314                   22646008.1414
        44.5004         39.0004
 -12267674.77346  -9046151.90643  23810295.1174                   23810297.3874
        39.2504         22.5004
  -1890621.49246  -1447478.37144  24806872.0634                   24806875.8914
        40.0004         27.7504
 25  8  9  0 23  0.0000000  0 10G09G16G28G03G06G04G26G31G01G07
  -9579371.95747  -8518082.67646  23077340.7814                   23077342.1724
        42.2504         37.5004
 -20686256.07847 -15049952.98445  21565808.1094                   21565806.8484
        44.0004         31.7504
  -5337931.08645  -2870118.63342  25518999.3364                   25519002.8524
        33.0004         16.7504
 -29488674.87548 -22958651.50048  20126065.4384                   20126066.0084
        48.7504         50.2504
  -4014924.25046  -3109072.53945  24727147.9844                   24727152.3874
        39.2504         31.2504
 -25969501.64547 -19064332.56245  20910094.0314                   20910093.2464
        46.2504         35.5004
 -21485536.00447 -16719707.59047  21674470.4144                   21674472.3484
        46.2504         43.0004
 -19279413.75447 -14580442.64146  22661057.1954                   22661055.3634
        45.0004         38.2504
 -12189381.51246  -8985144.27743  23825193.8444                   23825196.3094
        40.0004         22.5004
  -1985468.20746  -1521384.57044  24788823.4144                   24788827.1214
        39.5004         28.0004
 25  8  9  0 23 30.0000000  0 10G09G16G28G03G06G04G26G31G01G07
  -9669508.89847  -8588319.16846  23060188.3914                   23060189.8324
        42.5004         37.2504
 -20767668.29747 -15113390.99245  21550315.6564                   21550314.6024
        44.5004         33.0004
  -5254305.92646  -2804956.11343  25534914.1644                   25534915.2194
        40.2504         22.5004
 -29479029.58248 -22951135.69948  20127900.8134                   20127901.4884
        48.7504         50.2504
  -4055259.69146  -3140502.75445  24719472.6024                   24719475.6454
        37.7504         30.0004
 -26017698.94147 -19101888.87946  20900922.6254                   20900921.7074
        46.0004         36.0004
 -21474474.43747 -16711088.17247  21676575.3054                   21676577.1484
        46.0004         42.5004
 -19200183.22747 -14518704.58646  22676134.3364                   22676132.4804
        44.5004         39.0004
 -12111012.95346  -8924077.98443  23840107.3914                   23840109.7934
        40.5004         22.5004
  -2080129.25446  -1595146.09444  24770809.8134                   24770813.1294
        40.0004         28.5004
 25  8  9  0 24  0.0000000  0  9G09G16G03G06G04G26G31G01G07
  -9759592.33247  -8658513.97346  23043046.0084                   23043047.3204
        43.2504         37.5004
 -20848572.84447 -15176433.41845  21534920.0164                   21534918.5634
        45.0004         32.5004
 -29468795.44548 -22943161.05548  20129848.4534                   20129849.0354
        48.0004         50.2504
  -4095057.07846  -3171513.68044  24711899.8364                   24711901.7734
        38.2504         28.7504
 -26065711.53947 -19139301.27045  20891785.6414                   20891785.0984
        46.0004         35.7504
 -21462790.63747 -16701983.89847  21678798.8364                   21678800.2814
        44.5004         42.5004
 -19120800.52747 -14456847.96146  22691239.5314                   22691238.9884
        43.7504         38.5004
 -12032575.46546  -8862957.96543  23855033.6644                   23855036.2234
        41.0004         22.0004
  -2174607.33646  -1668765.05544  24752831.4844                   24752834.4694
        40.5004         29.2504
 25  8  9  0 24 30.0000000  0  9G09G16G03G06G04G26G31G01G07
  -9849617.94547  -8728663.71946  23025914.5394                   23025916.1804
        42.7504         36.7504
 -20928963.05147 -15239075.04345  21519622.4774                   21519621.1684
        44.5004         31.7504
 -29457968.95748 -22934724.83648  20131908.4224                   20131909.5204
        48.5004         50.5004
  -4134312.11746  -3202102.02745  24704429.5474                   24704432.6174
        38.7504         30.5004
 -26113535.09447 -19176566.37546  20882685.0474                   20882684.1484
        45.5004         36.0004
 -21450481.68447 -16692392.49247  21681141.4694                   21681142.2894
        44.5004         42.7504
 -19041263.57847 -14394871.14146  22706375.4844                   22706373.8164
        43.7504         38.2504
 -11954068.43446  -8801783.75443  23869972.8674                   23869975.9494
        40.2504         22.7504
  -2268898.25046  -1742238.17244  24734888.0634                   24734890.8484
        39.7504         29.2504
 25  8  9  0 25  0.0000000  0  9G09G16G03G06G04G26G31G01G07
  -9939570.18447  -8798756.28546  23008797.5864                   23008799.0514
        43.0004         37.5004
 -21008820.77047 -15301301.76645  21504425.7194                   21504424.6764
        44.5004         33.5004
 -29446535.18748 -22925815.40248  20134084.2894                   20134085.1374
        49.2504         50.5004
  -4173009.36346  -3232255.74245  24697065.4144                   24697068.2424
        38.7504         30.2504
 -26161153.82447 -19213671.86346  20873623.3984                   20873623.0084
        46.2504         36.0004
 -21437533.41447 -16682302.91847  21683605.1254                   21683606.6094
        44.5004         43.0004
 -18961559.78947 -14332764.32446  22721542.3674                   22721540.5554
        44.0004         38.5004
 -11875479.67646  -8740545.84443  23884927.9064                   23884930.5474
        41.0004         22.5004
  -2362985.85246  -1815552.88744  24716982.4614                   24716986.5664
        39.5004         29.5004
 25  8  9  0 25 30.0000000  0  9G09G16G03G06G04G26G31G01G07
 -10029434.95347  -8868780.69946  22991696.7344                   22991698.0664
        42.7504         38.0004
 -21088129.64547 -15363100.80945  21489333.6954                   21489332.5164
        44.5004         32.5004
 -29434480.96948 -22916422.50848  20136378.0234                   20136378.8284
        48.7504         50.5004
  -4211135.08646  -3261964.05945  24689811.4774                   24689813.7544
        38.0004         30.2504
 -26208553.54747 -19250606.68745  20864603.6024                   20864603.5784
        46.2504         35.7504
 -21423933.31247 -16671705.41847  21686193.1484                   21686194.6524
        45.0004         42.5004
 -18881677.86347 -14270518.69546  22736742.9924                   22736741.9454
        43.5004         37.5004
 -11796798.79346  -8679236.16044  23899899.9774                   23899903.2274
        41.0004         24.0004
  -2456856.06646  -1888698.20344  24699119.6564                   24699123.0044
        39.7504         28.7504
 25  8  9  0 26  0.0000000  0  9G09G16G03G06G04G26G31G01G07
 -10119215.57847  -8938739.54746  22974611.8444                   22974613.0124
        42.7504         37.5004
 -21166890.78147 -15424473.03945  21474345.8834                   21474344.2664
        44.0004         33.0004
 -29421810.43048 -22906549.36348  20138789.3364                   20138790.0434
        49.2504         50.2504
  -4248692.62546  -3291229.68045  24682663.0164                   24682665.7854
        38.7504         30.5004
 -26255737.45347 -19287373.34046  20855624.6414                   20855623.8834
        46.5004         37.0004
 -21409686.12147 -16660603.69947  21688904.1644                   21688905.4884
        44.5004         42.7504
 -18801623.85247 -14208138.97346  22751976.8754                   22751975.8594
        43.7504         38.7504
 -11718032.67646  -8617860.06644  23914888.5554                   23914891.8444
        40.2504         24.2504
  -2550512.52346  -1961676.92244  24681297.5474                   24681301.2384
        39.2504         29.2504
 25  8  9  0 26 30.0000000  0  9G09G16G03G06G04G26G31G01G07
 -10208915.08247  -9008635.17646  22957542.8134                   22957543.4024
        44.0004         37.0004
 -21245104.73847 -15485418.89845  21459462.4224                   21459460.7814
        44.2504         32.7504
 -29408527.39548 -22896198.94548  20141316.9064                   20141317.6914
        48.7504         50.5004
  -4285685.30546  -3320055.11745  24675623.5314                   24675627.3094
        38.7504         30.7504
 -26302708.41447 -19323974.05946  20846686.8134                   20846685.6764
        46.2504         36.7504
 -21394796.32847 -16649001.25047  21691737.5474                   21691739.0124
        45.2504         42.5004
 -18721403.60547 -14145629.73846  22767242.8444                   22767241.3204
        45.2504         38.0004
 -11639187.80946  -8556422.60244  23929892.2274                   23929895.7274
        40.7504         24.5004
  -2643957.68746  -2034491.03944  24663515.6024                   24663517.9144
        40.5004         28.5004
 25  8  9  0 27  0.0000000  0  9G09G16G03G06G04G26G31G01G07
 -10298534.81647  -9078468.64846  22940488.1724                   22940489.5124
        42.5004         37.0004
 -21322770.69547 -15545937.74245  21444683.0864                   21444681.4534
        44.2504         33.5004
 -29394634.14148 -22885373.03548  20143960.7034                   20143961.3914
        48.7504         50.2504
  -4322114.70346  -3348441.63745  24668691.7504                   24668695.1724
        38.7504         30.7504
 -26349467.65247 -19360409.80946  20837788.6644                   20837787.6684
        45.7504         36.2504
 -21379266.91847 -16636900.39147  21694692.9844                   21694694.5124
        44.5004         42.5004
 -18641021.13747 -14082994.06646  22782538.6174                   22782537.8484
        43.5004         38.2504
 -11560269.18746  -8494927.66043  23944910.2274                   23944912.7734
        41.5004         22.5004
  -2737193.05946  -2107141.67244  24645773.2504                   24645776.3134
        40.2504         29.7504
 25  8  9  0 27 30.0000000  0  9G09G16G03G06G04G26G31G01G07
 -10388084.61747  -9148247.63346  22923447.6414                   22923448.7814
        42.5004         37.2504
 -21399896.42647 -15606035.62545  21430006.1414                   21430004.8244
        45.0004         33.2504
 -29380141.40248 -22874080.00048  20146718.5004                   20146719.3014
        48.5004         50.2504
  -4357990.88346  -3376397.13744  24661864.5704                   24661867.8484
        39.0004         29.7504
 -26396024.85947 -19396688.11745  20828929.1724                   20828928.6524
        45.7504         35.7504
 -21363109.31647 -16624310.03947  21697767.4844                   21697768.9344
        44.5004         42.2504
 -18560488.91047 -14020241.71946  22797863.2274                   22797862.4454
        43.7504         38.0004
 -11481290.14546  -8433385.64843  23959939.8284                   23959943.0434
        40.5004         23.7504
  -2830228.39846  -2179636.46944  24628068.9304                   24628071.5554
        39.0004         28.5004
 25  8  9  0 28  0.0000000  0  9G09G16G03G06G04G26G31G01G07
 -10477561.64547  -9217969.91846  22906421.0004                   22906421.7544
        42.7504         37.2504
 -21476476.59447 -15665708.39845  21415433.3054                   21415431.9654
        44.5004         33.5004
 -29365047.34847 -22862318.40248  20149590.9924                   20149591.6414
        47.5004         50.2504
  -4393311.45346  -3403919.62144  24655143.1174                   24655145.6954
        39.0004         29.0004
 -26442377.10947 -19432806.74246  20820108.5004                   20820107.9844
        46.0004         36.5004
 -21346322.26247 -16611229.20747  21700961.9454                   21700963.9104
        43.7504         42.2504
 -18479806.84047 -13957372.60546  22813216.8054                   22813216.0204
        43.7504         37.5004
 -11402251.45746  -8371797.16043  23974980.9534                   23974983.3554
        41.0004         22.5004
  -2923061.25846  -2251973.45344  24610403.6094                   24610405.6604
        40.5004         28.2504
 25  8  9  0 28 30.0000000  0  9G09G16G03G06G04G26G31G01G07
 -10566966.98847  -9287636.34046  22889406.9534                   22889408.5204
        42.7504         37.2504
 -21552510.18447 -15724955.26645  21400964.6024                   21400963.0394
        45.0004         32.0004
 -29349353.96148 -22850089.79748  20152577.3134                   20152577.8324
        48.2504         50.2504
  -4428077.72746  -3431010.22345  24648527.7894                   24648530.6254
        39.0004         30.7504
 -26488525.28547 -19468766.33646  20811326.3674                   20811325.6484
        45.0004         36.2504
 -21328908.53147 -16597660.05547  21704275.5944                   21704277.3754
        45.0004         42.2504
 -18398978.82447 -13894389.77346  22828598.5394                   22828596.8874
        44.0004         37.5004
 -11323157.68446  -8310165.75443  23990031.6094                   23990034.3364
        41.2504         22.7504
  -3015692.39546  -2324153.30944  24592775.3674                   24592777.9884
        39.5004         29.2504
 25  8  9  0 29  0.0000000  0  9G09G16G03G06G04G26G31G01G07
 -10656306.53147  -9357251.50046  22872406.4304                   22872407.5164
        42.5004         37.2504
 -21628001.05147 -15783779.23445  21386599.1804                   21386597.8524
        44.5004         33.5004
 -29333068.26648 -22837399.65648  20155676.3914                   20155676.7584
        48.2504         50.0004
  -4462296.06246  -3457673.86345  24642015.7274                   24642018.6914
        38.7504         30.2504
 -26534475.26647 -19504571.49646  20802583.0164                   20802581.9384
        45.7504         36.7504
 -21310875.74247 -16583608.51647  21707706.7194                   21707708.6994
        44.5004         42.2504
 -18318013.40647 -13831299.87146  22844005.1954                   22844004.3754
        44.0004         37.5004
 -11244018.39146  -8248498.84843  24005091.3754                   24005094.0164
        41.2504         23.7504
  -3108127.61746  -2396180.48844  24575184.9924                   24575188.1054
        38.2504         28.5004
 25  8  9  0 29 30.0000000  0  9G09G16G03G06G04G26G31G01G07
 -10745572.91447  -9426809.64146  22855419.2584                   22855420.7384
        42.2504         37.7504
 -21702939.53147 -15842172.77745  21372338.6954                   21372337.6214
        45.0004         32.7504
 -29316183.79347 -22824242.93448  20158889.5164                   20158889.9734
        47.7504         50.0004
  -4495959.44946  -3483905.06645  24635610.2814                   24635612.8164
        38.5004         30.0004
 -26580219.40247 -19540216.26246  20793877.7504                   20793877.3834
        45.2504         36.2504
 -21292218.18447 -16569070.14847  21711257.2114                   21711259.1644
        44.0004         42.2504
 -18236905.82447 -13768099.19546  22859439.1644                   22859438.1994
        43.7504         37.5004
 -11164829.76246  -8186793.51643  24020160.6484                   24020163.6484
        40.2504         22.5004
  -3200359.62946  -2468049.29745  24557635.8754                   24557636.8484
        41.7504         30.0004
 25  8  9  0 30  0.0000000  0  9G09G16G03G06G04G26G31G01G07
 -10834768.57447  -9496312.67646  22838446.1564                   22838447.0164
        42.5004         37.0004
 -21777325.93447 -15900136.12945  21358183.1564                   21358181.9144
        45.0004         33.0004
 -29298704.18048 -22810622.46148  20162215.5634                   20162216.5124
        48.0004         50.0004
  -4529070.80546  -3509706.10545  24629308.4384                   24629312.9844
        38.0004         30.0004
 -26625760.12147 -19575702.50846  20785211.6254                   20785211.2974
        45.2504         36.2504
 -21272940.08647 -16554048.23847  21714925.8444                   21714927.5634
        44.0004         42.2504
 -18155661.40647 -13704791.88346  22874899.7194                   22874898.7194
        43.0004         37.2504
 -11085597.83646  -8125054.45343  24035238.2274                   24035241.0664
        40.7504         22.7504
  -3292391.01246  -2539761.83644  24540121.9844                   24540123.8954
        41.0004         29.7504
 25  8  9  0 30 30.0000000  0  9G09G16G03G06G04G26G31G01G07
 -10923897.27347  -9565763.52746  22821485.1884                   22821486.4774
        42.0004         37.2504
 -21851162.06647 -15957670.70745  21344132.9064                   21344131.4224
        44.5004         32.7504
 -29280634.24648 -22796542.00848  20165654.1174                   20165654.7074
        48.7504         50.0004
  -4561634.22946  -3535080.17444  24623112.3054                   24623115.6524
        38.7504         28.7504
 -26671101.05947 -19611033.08646  20776583.8284                   20776583.3404
        45.7504         36.7504
 -21253047.00447 -16538547.12947  21718712.0394                   21718713.0594
        45.5004         42.2504
 -18074286.61747 -13641382.99246  22890385.3204                   22890383.9614
        42.5004         37.7504
 -11006329.89146  -8063287.32843  24050321.9064                   24050325.0434
        40.0004         22.5004
  -3384225.50846  -2611320.92244  24522646.3984                   24522647.5514
        39.2504         29.0004
 25  8  9  0 31  0.0000000  0  9G09G16G03G06G04G26G31G01G07
 -11012954.53947  -9635158.72346  22804537.8524                   22804539.8134
        42.5004         37.5004
 -21924441.34847 -16014771.37545  21330188.0864                   21330186.8874
        44.5004         33.7504
 -29261970.66848 -22781998.96948  20169205.8364                   20169206.2114
        48.2504         50.0004
  -4593646.00446  -3560024.40645  24617020.3594                   24617024.1094
        38.2504         30.0004
 -26716237.60947 -19646204.41845  20767994.2504                   20767993.7424
        45.7504         35.7504
 -21232536.28147 -16522564.73447  21722614.3594                   21722616.3594
        44.0004         42.2504
 -17992779.56247 -13577871.03946  22905896.5784                   22905894.1214
        42.5004         38.0004
 -10927025.08646  -8001491.49643  24065413.5864                   24065416.0474
        41.0004         22.5004
  -3475858.94146  -2682723.37144  24505207.5784                   24505210.5084
        39.0004         29.7504
 25  8  9  0 31 30.0000000  0  9G09G16G03G06G04G26G31G01G07
 -11101944.58647  -9704501.55146  22787603.8984                   22787604.9654
        43.2504         37.7504
 -21997165.87947 -16071439.77045  21316349.2504                   21316347.3404
        44.2504         33.0004
 -29242718.77048 -22766997.49648  20172869.3204                   20172870.3634
        48.2504         49.7504
  -4625110.64146  -3584542.29744  24611033.2194                   24611036.0164
        39.2504         29.7504
 -26761173.79347 -19681219.60946  20759443.7974                   20759442.9064
        45.5004         36.0004
 -21211413.93047 -16506105.74247  21726634.0944                   21726635.6684
        45.7504         42.2504
 -17911147.32847 -13514261.53546  22921429.2504                   22921428.3324
        43.0004         37.7504
 -10847691.12946  -7939672.93743  24080510.3134                   24080513.4924
        40.0004         21.7504
  -3567295.22346  -2753972.18444  24487808.1564                   24487810.1254
        40.5004         29.5004
 25  8  9  0 32  0.0000000  0  9G09G16G03G06G04G26G31G01G07
 -11190863.84447  -9773789.21946  22770683.3834                   22770684.3984
        42.5004         38.0004
 -22069330.04347 -16127671.52345  21302616.3204                   21302615.0984
        44.2504         33.5004
 -29222876.27048 -22751535.81648  20176644.9774                   20176645.7814
        48.2504         49.7504
  -4656025.20746  -3608631.58244  24605150.2274                   24605153.5314
        40.5004         29.7504
 -26805905.98447 -19716075.84046  20750931.5004                   20750930.3444
        46.7504         36.7504
 -21189678.33247 -16489168.91047  21730770.0164                   21730771.4574
        46.2504         42.2504
 -17829389.09847 -13450553.85946  22936988.8834                   22936986.5124
        43.0004         37.5004
 -10768328.10946  -7877831.75843  24095612.9304                   24095616.1334
        39.7504         22.0004
  -3658531.12546  -2825064.84044  24470446.5704                   24470448.7344
        40.2504         29.7504
 25  8  9  0 32 30.0000000  0  9G09G16G03G06G04G26G31G01G07
 -11279712.90247  -9843022.18746  22753775.6644                   22753776.9414
        43.5004         38.0004
 -22140932.57847 -16183465.62945  21288991.1174                   21288989.2384
        45.0004         34.0004
 -29202444.96548 -22735615.34048  20180533.2734                   20180534.2114
        48.0004         49.7504
  -4686390.91446  -3632293.18444  24599372.4064                   24599374.5434
        40.0004         28.5004
 -26850434.70347 -19750773.52346  20742457.3754                   20742456.7384
        46.7504         37.0004
 -21167331.96147 -16471756.13747  21735022.8524                   21735024.5234
        44.0004         42.2504
 -17747507.67247 -13386750.19546  22952569.8834                   22952568.0984
        42.7504         37.2504
 -10688940.10746  -7815971.03543  24110719.2894                   24110723.3284
        39.0004         20.7504
  -3749567.35246  -2896001.96145  24453122.6094                   24453125.3244
        38.7504         30.0004
 25  8  9  0 33  0.0000000  0  9G09G16G03G06G04G26G31G01G07
 -11368496.00847  -9912203.77046  22736880.8524                   22736881.9844
        42.7504         38.5004
 -22211975.86347 -16238823.95345  21275472.0394                   21275470.3554
        44.5004         33.0004
 -29181430.35548 -22719240.33248  20184532.1884                   20184532.8244
        48.2504         50.0004
  -4716212.62546  -3655530.88344  24593696.9064                   24593700.3324
        38.5004         29.7504
 -26894764.03947 -19785315.84446  20734022.2974                   20734021.2234
        46.7504         36.2504
 -21144381.03547 -16453872.28947  21739389.8444                   21739391.3484
        44.0004         42.2504
 -17665510.46547 -13322856.29746  22968172.2814                   22968171.7894
        42.5004         37.0004
 -10609534.97746  -7754097.03143  24125830.1804                   24125834.0354
        39.0004         21.5004
  -3840408.11746  -2966786.74644  24435836.1884                   24435838.0864
        40.2504         29.7504
 25  8  9  0 33 30.0000000  0  9G09G16G03G06G04G26G31G01G07
 -11457204.94947  -9981327.55546  22719999.9844                   22720000.9064
        43.0004         38.5004
 -22282449.58647 -16293738.48045  21262061.2504                   21262059.5204
        45.2504         33.2504
 -29159825.55148 -22702405.44148  20188643.3444                   20188643.9774
        49.0004         49.7504
  -4745482.78146  -3678338.77344  24588125.8134                   24588129.8594
        38.0004         29.0004
 -26938885.63347 -19819696.29745  20725625.8444                   20725624.8094
        46.0004         35.5004
 -21120819.31647 -16435512.49647  21743873.6094                   21743874.9924
        45.5004         42.2504
 -17583392.10247 -13258867.99246  22983798.8284                   22983797.6844
        42.5004         36.5004
 -10530108.19546  -7692206.14843  24140944.5554                   24140947.7464
        38.5004         21.0004
  -3931045.61346  -3037413.12944  24418587.8674                   24418590.0904
        40.0004         29.0004
 25  8  9  0 34  0.0000000  0  9G09G16G03G06G04G26G31G01G07
 -11545840.85247 -10050394.41846  22703132.8524                   22703134.5354
        43.0004         38.0004
 -22352352.93047 -16348208.55145  21248759.0944                   21248757.4064
        44.7504         33.2504
 -29137632.95348 -22685112.51648  20192866.8754                   20192867.5204
        49.0004         50.0004
  -4774203.21146  -3700718.31244  24582660.9924                   24582664.8204
        38.2504         28.5004
 -26982800.57047 -19853915.71146  20717269.3054                   20717268.3244
        47.2504         36.0004
 -21096649.93747 -16416679.19947  21748472.6094                   21748474.0784
        46.2504         42.0004
 -17501156.16847 -13194788.09446  22999448.1954                   22999447.4574
        42.5004         37.0004
 -10450664.43446  -7630302.04743  24156062.4534                   24156065.9024
        38.7504         21.0004
  -4021481.10946  -3107882.15644  24401377.5084                   24401380.8874
        39.0004         29.0004
 25  8  9  0 34 30.0000000  0  9G09G16G03G06G04G26G31G01G07
 -11634404.35947 -10119404.88346  22686279.8204                   22686281.0784
        43.0004         38.5004
 -22421684.70347 -16402233.24245  21235565.6254                   21235564.1024
        45.5004         32.7504
 -29114854.54748 -22667363.12148  20197201.2814                   20197201.8244
        49.0004         49.7504
  -4802375.27746  -3722670.53945  24577300.6254                   24577303.7974
        38.0004         30.0004
 -27026509.31647 -19887974.45346  20708951.4454                   20708950.7584
        47.0004         36.2504
 -21071875.53147 -16397374.46547  21753187.1334                   21753188.7734
        45.5004         42.0004
 -17418805.80147 -13130619.02046  23015118.8984                   23015118.1564
        42.2504         37.0004
 -10371207.84846  -7568387.93043  24171182.8054                   24171185.8914
        38.2504         20.7504
  -4111715.22746  -3178194.25444  24384206.7274                   24384209.5864
        37.7504         29.0004
 25  8  9  0 35  0.0000000  0  9G09G16G03G06G04G26G31G01G07
 -11722892.50847 -10188356.62946  22669440.8284                   22669442.2304
        43.7504         38.0004
 -22490440.25447 -16455808.92645  21222482.0474                   21222479.8634
        45.7504         34.5004
 -29091488.81648 -22649156.07448  20201647.5004                   20201648.1764
        48.7504         49.5004
  -4829996.71946  -3744193.73844  24572045.1564                   24572048.4694
        38.7504         28.5004
 -27070008.80947 -19921870.14146  20700673.9614                   20700673.3484
        47.7504         36.5004
 -21046495.27047 -16377597.62547  21758016.8594                   21758018.4924
        46.0004         42.0004
 -17336341.12547 -13066360.87946  23030811.9304                   23030810.5554
        42.5004         36.5004
 -10291739.07446  -7506464.30143  24186304.9454                   24186308.5784
        37.2504         19.5004
  -4201745.28946  -3248347.34444  24367075.6644                   24367077.0664
        40.0004         29.5004
 25  8  9  0 35 30.0000000  0  9G09G16G03G06G04G26G31G01G07
 -11811301.88347 -10257246.99246  22652617.2664                   22652618.4024
        43.2504         38.0004
 -22558614.20747 -16508931.42245  21209508.4924                   21209507.4024
        45.7504         34.7504
 -29067533.74248 -22630489.80148  20206205.8284                   20206206.7854
        48.0004         49.5004
  -4857064.96146  -3765285.88744  24566894.8204                   24566897.1334
        38.7504         29.2504
 -27113295.61347 -19955600.09846  20692436.6644                   20692435.8164
        47.0004         36.7504
 -21020507.80147 -16357347.63746  21762962.1644                   21762963.4734
        44.2504         41.7504
 -17253761.24247 -13002012.95746  23046525.3134                   23046525.3014
        42.5004         36.7504
 -10212258.29746  -7444531.35243  24201430.0394                   24201433.1724
        38.2504         19.7504
  -4291568.12946  -3318338.96945  24349982.9454                   24349984.4144
        39.5004         30.0004
 25  8  9  0 36  0.0000000  0  9G09G16G03G06G04G26G31G01G07
 -11899632.59847 -10326076.05946  22635808.3754                   22635809.7274
        42.7504         38.0004
 -22626205.04347 -16561599.54345  21196646.3594                   21196644.8634
        46.0004         34.0004
 -29042990.95348 -22611365.58648  20210876.4454                   20210877.2234
        48.0004         49.5004
  -4883580.87946  -3785947.64144  24561848.8364                   24561850.8794
        39.5004         28.5004
 -27156369.67647 -19989164.29346  20684240.2194                   20684239.2584
        47.0004         36.5004
 -20993915.40647 -16336626.28146  21768022.1804                   21768023.6764
        44.5004         41.7504
 -17171068.92647 -12937577.43046  23062262.2114                   23062260.8914
        43.0004         36.5004
 -10132769.27046  -7382591.93743  24216556.0784                   24216559.6374
        38.7504         20.2504
  -4381184.34846  -3388169.60544  24332928.1954                   24332930.8914
        38.7504         29.0004
 25  8  9  0 36 30.0000000  0  9G09G16G03G06G04G26G31G01G07
 -11987888.27047 -10394846.65246  22619014.6254                   22619014.9694
        43.5004         39.0004
 -22693214.53547 -16613814.66045  21183895.1094                   21183893.3714
        45.7504         34.2504
 -29017865.41447 -22591787.27748  20215657.6334                   20215658.3874
        47.7504         49.5004
  -4909548.98446  -3806182.53544  24556906.6094                   24556909.1054
        37.0004         27.5004
 -27199234.47747 -20022565.42246  20676083.1954                   20676082.5004
        47.5004         37.0004
 -20966723.85247 -16315438.05546  21773196.5634                   21773198.4494
        43.7504         41.5004
 -17088270.20346 -12873058.98045  23078017.6884                   23078016.9534
        41.5004         35.7504
 -10053279.15646  -7320651.70743  24231683.2584                   24231685.8834
        38.5004         19.2504
  -4470597.37546  -3457841.91844  24315914.0554                   24315915.2114
        38.5004         29.7504
 25  8  9  0 37  0.0000000  0  9G09G16G03G06G04G26G31G01G07
 -12076068.54347 -10463558.49646  22602234.0164                   22602234.3714
        43.2504         38.7504
 -22759640.17247 -16665574.82845  21171254.3984                   21171252.9654
        45.5004         34.7504
 -28992158.41048 -22571755.85948  20220549.5554                   20220550.3524
        49.7504         49.5004
  -4934969.79746  -3825990.96144  24552069.5554                   24552072.5204
        38.2504         28.7504
 -27241889.63347 -20055803.19146  20667966.4774                   20667965.3874
        47.0004         36.7504
 -20938934.96947 -16293784.36746  21778484.6724                   21778486.3834
        45.5004         41.5004
 -17005368.03147 -12808459.93045  23093793.4304                   23093792.4064
        42.2504         35.2504
  -9973791.26246  -7258713.22743  24246809.6884                   24246811.7344
        39.7504         19.0004
  -4559807.44546  -3527356.09844  24298937.0944                   24298939.5044
        36.5004         28.5004
 25  8  9  0 37 30.0000000  0  9G09G16G03G06G04G26G31G01G07
 -12164166.99247 -10532206.58246  22585469.7664                   22585470.2074
        43.2504         39.0004
 -22825474.60947 -16716874.30945  21158726.6414                   21158724.6294
        46.0004         34.2504
 -28965864.96148 -22551267.47348  20225553.1094                   20225553.7774
        49.0004         49.5004
  -4959837.78946  -3845368.59444  24547336.4844                   24547339.8914
        39.0004         29.0004
 -27284328.61347 -20088872.51246  20659890.3444                   20659889.4884
        46.7504         36.5004
 -20910544.59447 -16271661.99246  21783887.7584                   21783889.1414
        45.0004         41.7504
 -16922358.22347 -12743777.01245  23109590.3674                   23109589.4064
        43.2504         35.2504
  -9894302.64546  -7196774.10243  24261935.4064                   24261938.6684
        38.7504         20.0004
  -4648808.44546  -3596707.34844  24282001.2974                   24282002.6054
        37.5004         28.0004
 25  8  9  0 38  0.0000000  0  9G09G16G03G06G04G26G31G01G07
 -12252182.77047 -10600790.23846  22568720.1884                   22568721.2034
        43.7504         39.7504
 -22890715.02047 -16767710.91845  21146311.6954                   21146310.4534
        46.0004         33.7504
 -28938985.85948 -22530322.73448  20230668.0864                   20230668.5594
        49.5004         49.5004
  -4984153.02746  -3864315.55944  24542710.4304                   24542712.3714
        38.7504         29.2504
 -27326550.47347 -20121772.65246  20651855.7114                   20651855.2034
        47.5004         37.2504
 -20881554.07847 -16249071.97746  21789404.3054                   21789405.7424
        46.0004         41.7504
 -16839242.55947 -12679011.60246  23125407.0704                   23125405.5984
        43.0004         36.0004
  -9814816.12146  -7134836.64143  24277062.2114                   24277064.4924
        39.5004         18.2504
  -4737599.24246  -3665894.82044  24265104.4224                   24265106.5084
        37.0004         27.7504
 25  8  9  0 38 30.0000000  0  9G09G16G03G06G04G26G31G01G07
 -12340121.28547 -10669313.69546  22551985.8754                   22551987.1454
        43.0004         39.5004
 -22955365.37547 -16818087.75045  21134009.2344                   21134007.2424
        46.0004         34.2504
 -28911528.03948 -22508927.04348  20235892.7344                   20235893.7464
        49.0004         49.2504
  -5007921.86346  -3882836.70744  24538186.2814                   24538189.9924
        38.5004         28.2504
 -27368560.48847 -20154507.73046  20643861.5164                   20643860.7854
        47.0004         37.2504
 -20851971.14547 -16226020.33246  21795033.1484                   21795035.4844
        46.0004         41.7504
 -16756029.40247 -12614170.21945  23141242.0474                   23141239.9384
        43.2504         35.5004
  -9735340.69146  -7072907.82843  24292185.0164                   24292188.1134
        38.5004         18.5004
  -4826186.09446  -3734923.37144  24248246.7114                   24248248.7664
        36.7504         28.5004
 25  8  9  0 39  0.0000000  0  9G09G16G03G06G04G26G31G01G07
 -12427977.26647 -10737772.84446  22535267.1884                   22535268.7934
        42.7504         40.0004
 -23019418.38347 -16867999.10945  21121820.0864                   21121818.5274
        46.2504         34.7504
 -28883487.96548 -22487077.65648  20241228.8444                   20241229.5864
        49.2504         49.5004
  -5031140.11746  -3900928.87944  24533768.2584                   24533771.0514
        39.0004         28.0004
 -27410353.41047 -20187073.63746  20635908.3594                   20635907.3874
        46.5004         36.7504
 -20821792.86347 -16202504.78546  21800776.2974                   21800778.4104
        45.5004         41.7504
 -16672716.15647 -12549250.87145  23157094.6414                   23157094.6804
        43.0004         35.0004
  -9655874.72346  -7010986.42243  24307308.1644                   24307310.6334
        40.0004         18.2504
  -4914563.91046  -3803789.04344  24231428.8834                   24231430.1684
        37.2504         28.5004
 25  8  9  0 39 30.0000000  0  9G09G16G03G06G04G26G31G01G07
 -12515747.69547 -10806165.33246  22518565.2734                   22518566.1054
        43.0004         39.2504
 -23082869.51247 -16917441.47345  21109745.8754                   21109743.9384
        45.2504         34.5004
 -28854864.25447 -22464773.48448  20246675.4614                   20246676.6564
        47.5004         49.2504
  -5053805.74246  -3918590.43044  24529453.9064                   24529457.9304
        38.5004         27.2504
 -27451926.04347 -20219467.88746  20627997.6414                   20627997.0664
        47.0004         37.2504
 -20791018.54347 -16178524.79346  21806632.4534                   21806634.2274
        43.7504         41.7504
 -16589302.22747 -12484253.01645  23172968.3444                   23172967.5514
        42.2504         35.0004
  -9576418.74246  -6949072.78942  24322426.8054                   24322430.2194
        39.2504         17.2504
  -5002729.99646  -3872489.72344  24214650.7274                   24214653.6914
        36.2504         28.5004
 25  8  9  0 40  0.0000000  0  9G09G16G03G06G04G26G31G01G07
 -12603434.19547 -10874492.42646  22501879.1254                   22501880.2154
        43.0004         40.0004
 -23145719.06247 -16966415.08645  21097785.8524                   21097783.8554
        46.5004         34.0004
 -28825660.18047 -22442017.09048  20252233.4144                   20252233.9104
        47.5004         49.5004
  -5075921.41046  -3935823.40644  24525245.8364                   24525249.0314
        37.2504         27.5004
 -27493279.89547 -20251691.66446  20620128.1954                   20620127.1764
        47.0004         37.0004
 -20759652.15647 -16154083.46146  21812601.3054                   21812602.8834
        43.5004         41.5004
 -16505792.14847 -12419180.28945  23188861.8204                   23188859.4224
        44.2504         35.0004
  -9496977.97746  -6887170.95342  24337543.9774                   24337547.1564
        39.7504         17.7504
  -5090686.54746  -3941027.13744  24197913.3284                   24197915.8954
        36.2504         28.7504
 25  8  9  0 40 30.0000000  0  9G09G16G03G06G04G26G31G01G07
 -12691037.23447 -10942754.47746  22485208.8134                   22485209.5204
        42.5004         39.5004
 -23207965.48047 -17014918.73045  21085940.7894                   21085939.0434
        46.7504         34.2504
 -28795877.96948 -22418810.18448  20257900.3984                   20257901.3954
        49.5004         49.2504
  -5097488.71546  -3952629.11744  24521142.6564                   24521145.7854
        37.5004         28.0004
 -27534415.39847 -20283745.28946  20612300.2034                   20612299.3484
        46.5004         37.5004
 -20727696.57447 -16129183.00446  21818682.2114                   21818684.1844
        46.0004         41.7504
 -16422188.90247 -12354034.93045  23204769.5634                   23204767.9384
        42.7504         35.2504
  -9417556.41846  -6825284.12543  24352657.7034                   24352661.3094
        37.7504         18.2504
  -5178434.23846  -4009401.77044  24181216.5234                   24181217.5554
        38.5004         29.2504
 25  8  9  0 41  0.0000000  0  9G09G16G03G06G04G26G31G01G07
 -12778556.02347 -11010950.89146  22468554.9304                   22468555.4694
        42.5004         39.7504
 -23269607.30547 -17062951.24245  21074210.3054                   21074208.5744
        46.5004         33.7504
 -28765518.59448 -22395153.54348  20263678.0164                   20263678.9104
        49.0004         49.2504
  -5118507.96146  -3969007.76644  24517141.3284                   24517146.2814
        37.2504         28.5004
 -27575331.68447 -20315628.09446  20604514.1564                   20604513.2114
        47.0004         37.2504
 -20695153.51247 -16103824.78146  21824875.1724                   21824876.2704
        45.7504         41.5004
 -16338494.35247 -12288818.45345  23220696.8914                   23220694.7704
        44.2504         35.2504
  -9338156.97346  -6763414.52743  24367767.0004                   24367770.0744
        38.0004         18.2504
  -5265972.68046  -4077613.37544  24164558.3134                   24164559.3594
        38.0004         29.5004
 25  8  9  0 41 30.0000000  0  9G09G16G03G06G04G26G31G01G07
 -12865990.30547 -11079081.44946  22451916.1884                   22451917.3404
        42.7504         39.7504
 -23330642.28947 -17110510.91445  21062595.9224                   21062594.2194
        46.0004         34.5004
 -28734583.56247 -22371048.33648  20269564.4844                   20269565.3984
        47.7504         49.0004
  -5138980.07846  -3984960.07444  24513247.0314                   24513250.4964
        38.2504         28.5004
 -27616028.37147 -20347339.77746  20596769.4384                   20596768.8284
        46.5004         37.0004
 -20662025.05147 -16078010.39546  21831179.2734                   21831180.9614
        43.7504         41.5004
 -16254710.80147 -12223532.59045  23236638.7584                   23236638.6054
        42.5004         35.5004
  -9258782.96546  -6701564.77743  24382871.0864                   24382874.6174
        37.0004         18.2504
  -5353301.96946  -4145661.99944  24147939.9384                   24147941.2114
        38.5004         29.7504
 25  8  9  0 42  0.0000000  0  9G09G16G03G06G04G26G31G01G07
 -12953341.94147 -11147147.61746  22435293.7034                   22435294.7854
        43.0004         40.0004
 -23391071.14547 -17157598.27345  21051096.5084                   21051094.9184
        46.5004         34.2504
 -28703076.59848 -22346497.46948  20275560.1094                   20275560.7934
        49.2504         49.0004
  -5158908.10546  -4000488.44944  24509454.7974                   24509457.8594
        37.0004         28.5004
 -27656507.37547 -20378881.82846  20589067.1414                   20589066.2384
        46.2504         37.0004
 -20628315.67247 -16051743.34846  21837594.0784                   21837595.4804
        45.5004         41.5004
 -16170843.10947 -12158181.21145  23252599.7734                   23252597.4964
        43.2504         35.0004
  -9179439.93446  -6639739.14142  24397970.4924                   24397973.8134
        37.5004         16.7504
  -5440424.29746  -4213549.36744  24131359.7584                   24131361.6644
        36.2504         29.7504
 25  8  9  0 42 30.0000000  0  9G09G16G03G06G04G26G31G01G07
 -13040610.78147 -11215149.25846  22418686.7734                   22418688.1174
        42.5004         40.0004
 -23450892.19947 -17204212.02345  21039713.2424                   21039711.2504
        47.0004         35.2504
 -28670999.39548 -22321502.25848  20281664.3444                   20281665.1764
        49.0004         49.0004
  -5178293.23446  -4015593.71944  24505765.9924                   24505769.5704
        37.7504         28.7504
 -27696768.42647 -20410254.06246  20581405.0234                   20581404.3954
        47.0004         37.0004
 -20594027.69147 -16025025.43746  21844118.4844                   21844120.2034
        44.7504         41.5004
 -16086893.51247 -12092765.95745  23268574.8364                   23268573.1914
        44.0004         35.0004
  -9100131.16846  -6577940.17642  24413061.9304                   24413066.0274
        37.7504         17.2504
  -5527340.09846  -4281275.77745  24114820.8134                   24114821.5664
        39.2504         30.2504
 25  8  9  0 43  0.0000000  0  9G09G16G03G06G04G26G31G01G07
 -13127794.51647 -11283084.58246  22402096.0944                   22402097.5274
        42.5004         39.7504
 -23510101.72347 -17250349.26245  21028445.9384                   21028443.9224
        46.5004         34.7504
 -28638351.50848 -22296062.36348  20287876.7814                   20287877.3984
        49.2504         49.0004
  -5197134.25046  -4030275.05144  24502181.5634                   24502183.2344
        37.2504         29.2504
 -27736809.09047 -20441454.56646  20573786.0704                   20573785.0784
        47.0004         36.7504
 -20559161.33247 -15997856.85246  21850753.7114                   21850755.0594
        46.0004         41.5004
 -16002862.57047 -12027287.32445  23284563.6024                   23284563.4414
        42.7504         35.0004
  -9020858.07846  -6516169.06242  24428146.9144                   24428151.2814
        36.2504         17.7504
  -5614047.55546  -4348839.87145  24098320.1804                   24098322.3914
        38.7504         30.5004
 25  8  9  0 43 30.0000000  0  9G09G16G03G06G04G26G31G01G07
 -13214890.13747 -11350951.26246  22385522.7114                   22385523.4414
        42.2504         40.0004
 -23568695.52047 -17296006.69945  21017295.6334                   21017293.8984
        46.5004         34.7504
 -28605131.81248 -22270176.90248  20294198.4534                   20294199.2384
        49.5004         49.0004
  -5215429.45846  -4044531.07744  24498699.8444                   24498703.0634
        38.7504         29.5004
 -27776626.32447 -20472480.95746  20566208.9384                   20566208.3404
        47.2504         37.5004
 -20523716.16047 -15970237.23446  21857498.5554                   21857500.0004
        45.7504         41.5004
 -15918749.70747 -11961744.90245  23300571.1414                   23300570.1294
        42.2504         35.5004
  -8941621.25445  -6454426.21142  24443225.2034                   24443229.6174
        35.2504         16.2504
  -5700544.07046  -4416239.57445  24081861.1024                   24081861.8594
        39.7504         30.0004
 25  8  9  0 44  0.0000000  0  9G09G16G03G06G04G26G31G01G07
 -13301893.43047 -11418745.98446  22368966.4144                   22368967.4344
        42.2504         40.5004
 -23626667.88347 -17341179.92245  21006264.0004                   21006262.4104
        46.5004         35.5004
 -28571338.07047 -22243844.13348  20300629.0704                   20300629.7464
        47.7504         49.0004
  -5233176.01246  -4058359.60544  24495322.3984                   24495325.0664
        37.5004         27.7504
 -27816215.89847 -20503329.96546  20558675.8054                   20558674.4224
        46.7504         37.0004
 -20487690.59447 -15942165.37546  21864354.0784                   21864355.7384
        43.5004         41.5004
 -15834553.60547 -11896137.59845  23316593.7974                   23316591.9024
        43.0004         34.7504
  -8862419.98045  -6392711.03542  24458297.3134                   24458301.1054
        35.0004         16.7504
  -5786825.94146  -4483472.03945  24065441.4844                   24065443.3634
        38.5004         30.2504
 25  8  9  0 44 30.0000000  0  9G09G16G03G06G04G26G31G01G07
 -13388805.90647 -11486469.95746  22352427.7504                   22352428.6484
        42.7504         40.2504
 -23684019.28147 -17385869.28145  20995350.3674                   20995348.5274
        46.5004         35.2504
 -28536973.80148 -22217066.80148  20307168.5394                   20307169.1724
        49.0004         49.0004
  -5250376.76646  -4071762.78944  24492049.4224                   24492051.0394
        38.7504         28.7504
 -27855579.26247 -20534002.69146  20551184.3284                   20551183.8714
        47.5004         37.0004
 -20451088.78147 -15913644.48446  21871318.6804                   21871320.4144
        45.5004         41.5004
 -15750278.43747 -11830468.68045  23332630.9694                   23332628.7704
        43.5004         34.5004
  -8783259.44945  -6331027.63742  24473361.2344                   24473364.8364
        35.7504         17.2504
  -5872895.34046  -4550538.94945  24049063.4454                   24049064.4304
        40.0004         31.0004
 25  8  9  0 45  0.0000000  0  9G09G16G03G06G04G26G31G01G07
 -13475630.55547 -11554125.47746  22335905.4694                   22335906.5234
        42.0004         40.2504
 -23740751.45747 -17430076.12545  20984554.5234                   20984552.5904
        46.5004         34.5004
 -28502044.00848 -22189848.80148  20313814.8754                   20313816.0594
        48.5004         49.0004
  -5267036.04746  -4084744.07844  24488878.6484                   24488881.3554
        37.2504         28.0004
 -27894719.31647 -20564501.42246  20543736.7664                   20543735.7814
        47.2504         37.2504
 -20413916.37147 -15884678.97746  21878392.7274                   21878394.4304
        43.7504         41.0004
 -15665929.69547 -11764742.39845  23348682.2894                   23348679.8134
        43.5004         34.5004
  -8704146.31645  -6269381.14542  24488414.7974                   24488419.5314
        33.7504         17.2504
  -5958755.61346  -4617442.89845  24032724.7734                   24032725.6134
        40.5004         31.2504
 25  8  9  0 45 30.0000000  0  9G09G16G03G06G04G26G31G01G07
 -13562362.66847 -11621708.91046  22319401.0784                   22319402.1604
        43.0004         40.7504
 -23796858.50447 -17473795.84445  20973877.4774                   20973876.1294
        46.7504         35.0004
 -28466545.91048 -22162187.97348  20320570.6094                   20320571.2894
        49.0004         49.0004
  -5283150.63346  -4097300.93044  24485813.9694                   24485814.2234
        38.5004         27.0004
 -27933631.29347 -20594822.43046  20536332.1094                   20536330.9184
        47.5004         37.0004
 -20376171.33247 -15855267.26246  21885575.3754                   21885577.2154
        45.0004         40.7504
 -15581505.09847 -11698957.03545  23364746.0004                   23364745.8444
        42.2504         34.5004
  -8625079.39545  -6207770.70342  24503462.2504                   24503465.8594
        34.7504         16.7504
  -6044402.56246  -4684180.64145  24016426.7344                   24016427.3444
        40.5004         31.5004
 25  8  9  0 46  0.0000000  0  9G09G16G03G06G04G26G31G01G07
 -13649003.81247 -11689221.44146  22302913.3054                   22302914.3714
        42.7504         40.2504
 -23852340.71947 -17517028.68045  20963319.9694                   20963317.8404
        47.2504         35.5004
 -28430483.21548 -22134087.19548  20327433.0864                   20327433.4844
        49.0004         49.0004
  -5298723.46946  -4109435.65644  24482849.2664                   24482851.0004
        36.5004         27.7504
 -27972316.76247 -20624966.94146  20528970.4384                   20528969.6134
        47.0004         37.2504
 -20337857.98047 -15825412.71146  21892866.1644                   21892867.9774
        44.7504         40.7504
 -15497008.93746 -11633115.91845  23380825.4454                   23380824.7274
        41.5004         34.5004
  -8546063.84045  -6146200.19542  24518497.1334                   24518502.3794
        32.5004         16.7504
  -6129838.37946  -4750753.86745  24000168.3754                   24000169.9414
        40.2504         32.2504
 25  8  9  0 46 30.0000000  0  9G09G16G03G06G04G26G31G01G07
 -13735546.78947 -11756657.49646  22286444.7274                   22286446.1374
        42.2504         40.2504
 -23907189.61747 -17559768.03145  20952882.2664                   20952880.4184
        47.0004         35.5004
 -28393850.78148 -22105542.46948  20334403.8914                   20334404.2974
        49.2504         49.0004
  -5313748.84846  -4121143.76244  24479990.4304                   24479991.5354
        37.0004         27.0004
 -28010768.47347 -20654929.30546  20521652.8834                   20521652.2544
        46.7504         37.2504
 -20298971.82447 -15795111.81246  21900265.7664                   21900267.2074
        45.5004         40.5004
 -15412436.88746 -11567215.67245  23396918.4614                   23396918.5984
        40.7504         35.0004
  -8467096.12545  -6084667.03542  24533526.5474                   24533529.3444
        35.5004         17.7504
  -6215056.42646  -4817157.39845  23983952.7194                   23983952.6054
        41.5004         31.7504
 25  8  9  0 47  0.0000000  0  9G09G16G03G06G04G26G31G01G07
 -13821995.93747 -11824020.42246  22269994.0234                   22269994.9614
        44.2504         41.0004
 -23961409.01247 -17602016.85545  20942564.6024                   20942562.7544
        46.7504         35.5004
 -28356655.10948 -22076558.84448  20341482.1804                   20341483.2114
        49.0004         49.0004
  -5328232.68046  -4132429.88744  24477233.5474                   24477235.8364
        38.5004         29.2504
 -28048990.71947 -20684712.85546  20514379.8984                   20514379.0664
        47.2504         37.0004
 -20259520.03947 -15764370.16846  21907773.1334                   21907774.7664
        45.2504         40.7504
 -15327796.05546 -11501261.83245  23413025.0234                   23413025.2664
        41.2504         34.7504
  -8388184.28145  -6023177.41442  24548541.2114                   24548545.9574
        35.0004         16.2504
  -6300061.52346  -4883395.01245  23967775.6174                   23967776.8404
        39.7504         31.0004
 25  8  9  0 47 30.0000000  0  9G09G16G03G06G04G26G31G01G07
 -13908347.38747 -11891307.22346  22253561.9384                   22253563.0784
        43.5004         40.2504
 -24014993.61347 -17643771.03145  20932367.9844                   20932365.9844
        46.5004         35.0004
 -28318894.41448 -22047134.94948  20348667.6884                   20348668.4534
        49.0004         49.0004
  -5342172.54346  -4143292.14544  24474580.8054                   24474583.4224
        39.0004         28.5004
 -28086979.55547 -20714314.53946  20507150.6724                   20507149.8554
        47.2504         37.2504
 -20219501.46147 -15733186.86346  21915388.4384                   21915389.9614
        45.0004         40.0004
 -15243084.70346 -11435253.03945  23429145.3284                   23429145.1254
        41.2504         34.0004
  -8309327.84445  -5961730.95742  24563547.4224                   24563552.2234
        34.2504         16.2504
  -6384850.59046  -4949464.28945  23951641.5164                   23951641.8794
        40.7504         32.7504
 25  8  9  0 48  0.0000000  0  9G09G16G03G06G04G26G31G01G07
 -13994602.59847 -11958519.04746  22237148.2114                   22237148.9184
        44.7504         40.5004
 -24067943.79747 -17685030.86345  20922291.6954                   20922289.5664
        46.0004         35.5004
 -28280572.37148 -22017273.63348  20355960.0784                   20355961.0124
        49.0004         48.7504
  -5355571.44946  -4153732.89544  24472032.9534                   24472034.3204
        39.0004         29.5004
 -28124736.44947 -20743735.48446  20499965.3674                   20499964.6564
        47.0004         37.2504
 -20178920.43747 -15701565.29346  21923111.1954                   21923112.7664
        44.5004         40.0004
 -15158307.40646 -11369192.87945  23445278.0314                   23445277.6684
        41.2504         34.0004
  -8230532.04745  -5900331.77043  24578542.8134                   24578546.4614
        35.7504         18.5004
  -6469425.48046  -5015366.68445  23935547.2344                   23935547.4384
        41.2504         31.7504
 25  8  9  0 48 30.0000000  0  9G09G16G03G06G04G26G31G01G07
 -14080759.73847 -12025654.44146  22220753.3134                   22220753.5704
        45.0004         40.7504
 -24120257.06247 -17725794.40246  20912336.5784                   20912334.7154
        46.5004         36.0004
 -28241689.44947 -21986975.28148  20363359.2814                   20363360.1294
        47.5004         48.7504
  -5368429.28946  -4163752.01244  24469584.4534                   24469587.1524
        39.2504         28.5004
 -28162259.62547 -20772974.31646  20492825.0474                   20492824.5084
        47.2504         37.0004
 -20137778.00047 -15669506.25846  21930939.8444                   21930941.6334
        43.0004         40.2504
 -15073465.02046 -11303081.99245  23461423.4534                   23461422.9304
        41.5004         35.0004
  -8151798.54345  -5838981.09042  24593524.5784                   24593528.6094
        35.7504         17.7504
  -6553785.43746  -5081101.60245  23919493.7034                   23919494.1454
        41.0004         31.7504
 25  8  9  0 49  0.0000000  0  9G09G16G03G06G04G26G31G01G07
 -14166812.60947 -12092708.59446  22204377.4924                   22204378.7854
        44.5004         41.0004
 -24171925.98447 -17766055.86345  20902504.4534                   20902502.5124
        46.7504         34.7504
 -28202241.59448 -21956236.72348  20370865.9224                   20370866.6484
        49.2504         48.5004
  -5380741.36746  -4173345.84844  24467242.3674                   24467244.2774
        39.7504         29.5004
 -28199542.70747 -20802026.06246  20485730.4224                   20485729.5984
        47.7504         37.2504
 -20096070.82047 -15637007.16446  21938876.9924                   21938878.1054
        44.5004         40.0004
 -14988553.51246 -11236917.25445  23477581.9144                   23477581.2934
        41.0004         33.5004
  -8073124.81645  -5777677.02343  24608495.4774                   24608499.9064
        35.5004         19.2504
  -6637924.55946  -5146664.46145  23903482.1024                   23903482.9844
        40.5004         31.5004
 25  8  9  0 49 30.0000000  0  9G09G16G03G06G04G26G31G01G07
 -14252763.38747 -12159683.19546  22188021.8204                   22188022.3444
        44.5004         40.5004
 -24222951.74247 -17805816.14545  20892794.3204                   20892792.5314
        47.0004         35.2504
 -28162233.24648 -21925061.41848  20378479.5944                   20378480.3284
        49.2504         48.5004
  -5392511.57446  -4182517.45744  24465002.2584                   24465004.3284
        39.0004         29.2504
 -28236587.89147 -20830892.43746  20478680.8284                   20478680.4414
        47.7504         37.2504
 -20053803.94947 -15604071.94946  21946919.7584                   21946920.8404
        44.2504         39.7504
 -14903577.75046 -11170702.45345  23493752.5314                   23493751.6094
        41.2504         33.7504
  -7994516.53946  -5716423.94543  24623454.0234                   24623458.6994
        36.0004         19.2504
  -6721845.13746  -5212057.00845  23887512.3054                   23887513.7894
        41.0004         31.7504
 25  8  9  0 50  0.0000000  0  9G09G16G03G06G04G26G31G01G07
 -14338611.65647 -12226577.91046  22171685.1954                   22171685.9654
        45.2504         40.2504
 -24273333.34447 -17845074.48845  20883206.9614                   20883204.8554
        47.0004         34.7504
 -28121666.34448 -21893450.87548  20386199.0084                   20386199.9384
        49.0004         48.5004
  -5403741.21146  -4191267.84045  24462865.3134                   24462868.4104
        36.5004         30.5004
 -28273394.82847 -20859573.15246  20471676.8674                   20471675.9304
        47.7504         37.2504
 -20010979.96147 -15570702.61746  21955068.8594                   21955070.5354
        45.0004         40.0004
 -14818540.21146 -11104439.48845  23509934.0164                   23509933.5124
        39.5004         33.5004
  -7915977.04746  -5655224.43043  24638400.9064                   24638404.0274
        38.2504         20.0004
  -6805548.41847  -5277280.22745  23871584.5164                   23871585.5044
        42.5004         32.0004
 25  8  9  0 50 30.0000000  0  9G09G16G03G06G04G26G31G01G07
 -14424358.19147 -12293393.36746  22155368.4224                   22155369.2384
        45.0004         40.7504
 -24323070.60947 -17883830.75845  20873742.7274                   20873740.6764
        47.2504         34.7504
 -28080543.93047 -21861407.46548  20394024.5394                   20394025.3134
        47.7504         48.5004
  -5414432.75846  -4199598.94144  24460829.9694                   24460833.8874
        38.2504         29.7504
 -28309964.15247 -20888068.73446  20464718.0004                   20464716.4964
        47.5004         37.7504
 -19967602.51247 -15536902.01646  21963323.3444                   21963324.8094
        42.7504         40.0004
 -14733443.96546 -11038130.80545  23526127.9384                   23526127.1214
        40.5004         34.5004
  -7837510.64145  -5594081.87543  24653330.9534                   24653336.4734
        35.0004         19.7504
  -6889035.58647  -5342335.07845  23855696.8054                   23855698.3094
        42.2504         32.5004
 25  8  9  0 51  0.0000000  0  9G09G16G03G06G04G26G31G01G07
 -14510005.83247 -12360131.75446  22139070.1804                   22139070.7194
        43.7504         40.5004
 -24372165.50447 -17922086.47345  20864400.0314                   20864398.5234
        46.5004         35.2504
 -28038871.19948 -21828935.24248  20401954.6334                   20401955.4144
        49.5004         48.7504
  -5424590.74646  -4207514.27745  24458898.1254                   24458900.3554
        39.7504         30.2504
 -28346298.73047 -20916381.38346  20457804.3914                   20457802.7074
        47.5004         38.0004
 -19923677.45347 -15502674.71546  21971682.0864                   21971683.7504
        43.7504         40.0004
 -14648294.85946 -10971780.91845  23542331.6724                   23542330.7894
        40.0004         33.5004
  -7759123.68046  -5533001.21943  24668248.6884                   24668252.6604
        37.2504         20.7504
  -6972310.03947  -5407224.15245  23839850.0634                   23839851.2774
        42.2504         32.2504
 25  8  9  0 51 30.0000000  0  9G09G16G03G06G04G26G31G01G07
 -14595549.25847 -12426788.93046  22122791.9454                   22122792.8914
        44.7504         40.7504
 -24420611.93447 -17959836.89845  20855181.1644                   20855178.8014
        47.0004         35.0004
 -27996645.29348 -21796031.96548  20409989.7424                   20409991.0944
        48.7504         48.5004
  -5434211.77046  -4215011.19944  24457067.8834                   24457069.6644
        38.2504         29.5004
 -28382393.30947 -20944507.01646  20450935.2114                   20450934.3054
        47.7504         37.2504
 -19879202.53147 -15468018.94146  21980145.5634                   21980146.9184
        44.2504         40.0004
 -14563090.09046 -10905387.66845  23558545.3134                   23558544.9694
        39.5004         33.2504
  -7680814.60546  -5471981.25043  24683150.3284                   24683154.5514
        37.7504         19.5004
  -7055367.23446  -5471943.94145  23824045.7274                   23824046.1054
        41.5004         33.2504
 25  8  9  0 52  0.0000000  0  9G09G16G03G06G04G26G31G01G07
 -14680987.92247 -12493364.47746  22106533.4384                   22106533.6174
        44.5004         41.0004
 -24468408.66848 -17997081.07045  20846085.1724                   20846083.1954
        48.0004         35.7504
 -27953868.01648 -21762699.05548  20418129.9614                   20418130.9694
        48.5004         48.5004
  -5443297.05146  -4222090.65645  24455337.6644                   24455340.4494
        39.5004         31.0004
 -28418247.27048 -20972445.16846  20444112.3984                   20444111.3634
        48.0004         37.7504
 -19834180.19547 -15432936.61746  21988713.0004                   21988714.6644
        43.0004         39.7504
 -14477831.53546 -10838952.48445  23574769.0474                   23574769.0984
        39.0004         32.0004
  -7602586.50046  -5411024.40643  24698037.1804                   24698040.0864
        37.7504         20.5004
  -7138207.35947  -5536494.60945  23808280.6174                   23808281.9264
        43.0004         33.0004
 25  8  9  0 52 30.0000000  0  9G09G16G03G06G04G26G31G01G07
 -14766320.43447 -12559857.30146  22090295.3134                   22090295.5044
        44.5004         41.0004
 -24515553.47347 -18033817.25046  20837114.1024                   20837111.8094
        46.7504         36.5004
 -27910540.42648 -21728937.32448  20426375.5234                   20426376.1334
        48.0004         48.5004
  -5451847.00046  -4228752.97745  24453711.0634                   24453714.4844
        38.2504         31.2504
 -28453859.24647 -21000194.75446  20437335.5394                   20437334.6954
        47.0004         37.2504
 -19788612.12547 -15397429.04746  21997384.3364                   21997386.2894
        42.7504         39.5004
 -14392520.55946 -10772476.45745  23591003.3364                   23591002.9384
        40.0004         33.0004
  -7524441.48846  -5350132.28143  24712907.3984                   24712911.6374
        37.5004         20.7504
  -7220829.84047  -5600875.64845  23792558.6644                   23792559.1724
        43.2504         34.0004
 25  8  9  0 53  0.0000000  0  9G09G16G03G06G04G26G31G01G07
 -14851544.91447 -12626265.95746  22074077.1564                   22074078.2154
        44.5004         40.7504
 -24562044.17647 -18070043.73845  20828267.0314                   20828265.1094
        47.2504         35.0004
 -27866663.12948 -21694747.26248  20434724.6954                   20434725.5204
        49.2504         48.5004
  -5459861.66846  -4234998.19945  24452185.7974                   24452189.6884
        38.5004         31.0004
 -28489227.34847 -21027754.31246  20430605.0704                   20430604.3914
        47.7504         37.2504
 -19742499.46547 -15361497.12546  22006159.2894                   22006160.6524
        43.7504         39.5004
 -14307157.80147 -10705960.12145  23607249.0784                   23607246.6054
        42.0004         32.7504
  -7446381.20346  -5289306.20343  24727761.1484                   24727765.8404
        37.0004         20.7504
  -7303233.44547  -5665086.16445  23776877.8134                   23776878.4064
        43.0004         33.5004
 25  8  9  0 53 30.0000000  0  9G09G16G03G06G04G26G31G01G07
 -14936658.71147 -12692588.36346  22057880.4694                   22057881.2854
        45.0004         41.0004
 -24607877.14847 -18105757.70745  20819545.2114                   20819543.5274
        47.2504         35.5004
 -27822235.98848 -21660128.74648  20443179.0704                   20443179.5474
        48.5004         48.5004
  -5467340.28946  -4240825.72345  24450763.3444                   24450766.2974
        38.5004         30.7504
 -28524348.98447 -21055121.81646  20423921.8444                   20423921.0434
        47.7504         37.5004
 -19695842.76647 -15325141.27346  22015036.8674                   22015038.8014
        43.7504         39.7504
 -14221742.95346 -10639403.14545  23623501.6564                   23623500.4844
        39.5004         32.2504
  -7368406.76646  -5228546.97743  24742599.5314                   24742604.4184
        37.2504         21.2504
  -7385416.56647  -5729124.86745  23761238.2424                   23761239.5124
        43.2504         34.0004
 25  8  9  0 54  0.0000000  0  9G09G16G03G06G04G26G31G01G07
 -15021665.37947 -12758827.27746  22041704.4924                   22041705.3404
        45.5004         41.5004
 -24653055.49247 -18140961.57445  20810948.3204                   20810946.1764
        46.7504         35.2504
 -27777265.10547 -21625086.53148  20451736.7814                   20451737.6054
        47.2504         48.2504
  -5474288.42246  -4246239.85945  24449441.1724                   24449443.7934
        40.0004         30.0004
 -28559227.68747 -21082300.01646  20417284.7664                   20417284.0314
        47.0004         37.5004
 -19648648.65647 -15288366.66046  22024018.2344                   22024020.1334
        42.5004         39.2504
 -14136282.82847 -10572810.93045  23639765.4224                   23639763.1724
        42.0004         33.0004
  -7290525.28946  -5167860.23843  24757420.3834                   24757424.8714
        37.7504         21.0004
  -7467383.46546  -5792995.10245  23745640.6954                   23745641.3754
        41.5004         33.5004
 25  8  9  0 54 30.0000000  0  9G09G16G03G06G04G26G31G01G07
 -15106558.59447 -12824977.80546  22025549.8984                   22025550.3794
        45.7504         41.2504
 -24697572.07447 -18175649.78146  20802476.7424                   20802474.9414
        46.2504         36.0004
 -27731746.67248 -21589617.64848  20460398.6094                   20460399.9844
        48.7504         48.5004
  -5480701.66846  -4251237.20745  24448221.1334                   24448223.7114
        38.2504         30.7504
 -28593857.14548 -21109283.99646  20410694.9454                   20410694.4184
        48.0004         37.2504
 -19600914.03547 -15251170.87146  22033102.1954                   22033103.5124
        43.7504         39.2504
 -14050773.45746 -10506180.33245  23656036.5944                   23656035.5984
        41.0004         32.2504
  -7212734.14146  -5107243.86743  24772223.1954                   24772227.8484
        36.7504         21.0004
  -7549128.63747  -5856692.54345  23730085.2584                   23730085.8714
        43.5004         34.0004
 25  8  9  0 55  0.0000000  0  9G09G16G03G06G04G26G31G01G07
 -15191336.18447 -12891038.22747  22009416.7734                   22009417.7154
        45.0004         42.0004
 -24741424.44947 -18209820.43045  20794131.9614                   20794130.0124
        46.5004         35.5004
 -27685681.12147 -21553722.44948  20469164.5704                   20469165.7504
        47.2504         48.2504
  -5486579.80146  -4255817.59045  24447102.0554                   24447105.4384
        39.5004         31.0004
 -28628235.21148 -21136072.10246  20404153.3054                   20404152.1414
        48.0004         37.5004
 -19552639.82847 -15213554.63346  22042288.0784                   22042289.5434
        42.5004         39.5004
 -13965215.17646 -10439511.58245  23672317.3674                   23672316.3984
        41.5004         32.7504
  -7135034.50446  -5046698.80143  24787008.8834                   24787013.6214
        37.0004         21.7504
  -7630650.71547  -5920216.16845  23714571.7734                   23714572.5234
        42.5004         33.5004
 25  8  9  0 55 30.0000000  0  9G09G16G03G06G04G26G31G01G07
 -15275999.94147 -12957009.94546  21993305.8284                   21993306.3954
        45.2504         41.5004
 -24784613.98447 -18243474.57445  20785913.7274                   20785911.4144
        47.0004         35.5004
 -27639072.83248 -21517404.33648  20478034.0004                   20478034.9414
        48.7504         48.5004
  -5491926.74646  -4259984.06644  24446083.8134                   24446087.4384
        38.2504         29.7504
 -28662363.72348 -21162665.74646  20397658.4694                   20397657.6214
        48.0004         37.2504
 -19503831.11347 -15175521.88746  22051576.3284                   22051577.9494
        43.5004         39.5004
 -13879612.35546 -10372808.19945  23688608.1024                   23688605.7424
        39.7504         31.7504
  -7057431.98846  -4986229.39843  24801777.2034                   24801781.4774
        38.0004         21.7504
  -7711952.06647  -5983567.78945  23699100.6804                   23699101.5314
        42.0004         33.5004
 25  8  9  0 56  0.0000000  0  9G09G16G03G06G04G26G31G01G07
 -15360547.84447 -13022891.38346  21977216.7274                   21977217.6884
        45.0004         41.5004
 -24827138.00447 -18276610.14145  20777820.8204                   20777819.0904
        47.0004         35.5004
 -27591922.47348 -21480663.83248  20487006.2664                   20487007.5984
        48.5004         48.2504
  -5496742.52046  -4263736.65245  24445167.7344                   24445171.3984
        38.7504         31.0004
 -28696240.70747 -21189063.39146  20391212.1024                   20391211.0204
        47.5004         37.5004
 -19454489.06647 -15137073.56646  22060965.7114                   22060967.7664
        42.5004         39.7504
 -13793965.76246 -10306070.64145  23704905.8834                   23704904.5124
        41.2504         33.0004
  -6979928.06246  -4925836.81643  24816524.7034                   24816529.5744
        37.5004         22.2504
  -7793031.91847  -6046746.80145  23683672.3834                   23683672.2734
        43.5004         34.0004
 25  8  9  0 56 30.0000000  0  9G09G16G03G06G04G26G31G01G07
 -15444978.78147 -13088681.68447  21961150.4224                   21961150.6684
        45.2504         42.0004
 -24868994.79347 -18309225.79345  20769856.1564                   20769853.8524
        47.0004         35.5004
 -27544231.59447 -21443502.14548  20496081.3674                   20496082.6724
        47.5004         48.2504
  -5501028.13346  -4267076.12145  24444353.0084                   24444355.8244
        38.5004         30.5004
 -28729865.01647 -21215264.14146  20384813.2894                   20384812.4224
        47.2504         38.0004
 -19404615.83647 -15098211.32446  22070456.3204                   22070458.2424
        42.7504         39.5004
 -13708276.56246 -10239299.90645  23721209.3204                   23721211.2194
        38.5004         32.2504
  -6902525.31646  -4865523.12543  24831254.2034                   24831259.0744
        36.7504         22.0004
  -7873890.01647  -6109753.04345  23668285.5164                   23668285.2384
        43.2504         34.0004
 25  8  9  0 57  0.0000000  0  9G09G16G03G06G04G26G31G01G07
 -15529289.58647 -13154378.37946  21945106.1024                   21945107.0634
        45.5004         41.5004
 -24910181.28947 -18341319.12945  20762018.5474                   20762016.4344
        46.5004         34.7504
 -27495999.73847 -21405918.91848  20505259.8444                   20505261.0744
        47.0004         48.2504
  -5504782.49646  -4270001.60945  24443639.0394                   24443640.8404
        38.0004         30.0004
 -28763233.61747 -21241265.64146  20378464.0944                   20378462.9574
        47.5004         37.0004
 -19354211.57447 -15058935.29746  22080048.6484                   22080049.5634
        43.0004         39.5004
 -13622544.34846 -10172495.69545  23737526.5704                   23737525.6214
        40.5004         32.7504
  -6825224.12946  -4805288.54743  24845965.7274                   24845969.2584
        38.0004         21.0004
  -7954524.09847  -6172584.72745  23652940.3054                   23652941.1564
        42.0004         33.2504
 25  8  9  0 57 30.0000000  0  9G09G16G03G06G04G26G31G01G07
 -15613480.99247 -13219982.03146  21929085.3204                   21929085.7424
        45.0004         41.5004
 -24950697.94547 -18372890.52745  20754308.6724                   20754305.9844
        46.2504         35.2504
 -27447230.31248 -21367916.80948  20514540.5394                   20514541.3954
        48.2504         48.0004
  -5508008.54346  -4272515.44145  24443024.1254                   24443027.3014
        38.2504         30.0004
 -28796347.21947 -21267068.43446  20372162.3284                   20372161.3554
        47.7504         37.7504
 -19303280.23047 -15019248.56246  22089740.4064                   22089741.6954
        44.5004         39.5004
 -13536772.47346 -10105660.53145  23753848.1724                   23753847.1094
        41.2504         34.2504
  -6748028.84446  -4745136.48843  24860653.7424                   24860658.7624
        37.7504         21.2504
  -8034935.88346  -6235243.19545  23637638.1724                   23637639.3484
        41.0004         32.5004
 25  8  9  0 58  0.0000000  0  9G09G16G03G06G04G26G31G01G07
 -15697552.28147 -13285492.09046  21913086.7344                   21913087.8554
        45.5004         41.5004
 -24990543.49647 -18403938.97345  20746726.4454                   20746723.9774
        47.0004         35.0004
 -27397925.36347 -21329497.41048  20523922.8054                   20523923.8404
        47.5004         48.0004
  -5510707.62946  -4274618.65645  24442510.0084                   24442513.8984
        37.5004         30.7504
 -28829205.18047 -21292672.03946  20365909.6094                   20365908.5434
        47.7504         37.5004
 -19251824.41847 -14979153.14846  22099531.7584                   22099533.5204
        43.7504         39.0004
 -13450962.61746 -10038795.75045  23770177.9064                   23770175.3874
        41.0004         33.7504
  -6670942.26246  -4685069.12143  24875323.6484                   24875327.5234
        38.0004         21.5004
  -8115125.41446  -6297728.46145  23622378.9614                   23622379.1024
        41.7504         33.2504
 25  8  9  0 58 30.0000000  0  9G09G16G03G06G04G26G31G01G07
 -15781506.50847 -13350910.93046  21897111.0864                   21897111.2034
        46.0004         41.7504
 -25029720.84447 -18434466.74645  20739271.2274                   20739268.5314
        46.7504         35.0004
 -27348090.73447 -21290665.26247  20533406.1724                   20533407.1024
        47.0004         47.7504
  -5512885.24646  -4276315.52345  24442095.4924                   24442099.6054
        39.0004         30.7504
 -28861810.62547 -21318078.88746  20359705.1954                   20359704.0234
        47.7504         37.5004
 -19199850.62147 -14938654.11346  22109421.9064                   22109423.5274
        42.5004         39.0004
 -13365120.59046  -9971905.93745  23786512.0634                   23786509.6884
        40.0004         32.2504
  -6593971.06646  -4625091.64543  24889970.5554                   24889975.3794
        38.5004         22.0004
  -8195096.92247  -6360043.85245  23607161.4384                   23607161.3404
        42.5004         33.5004
 25  8  9  0 59  0.0000000  0  9G09G16G03G06G04G26G31G01G07
 -15865336.90247 -13416233.28546  21881158.8364                   21881159.3134
        45.2504         41.5004
 -25068222.75447 -18464468.20345  20731944.1804                   20731942.0634
        47.0004         35.5004
 -27297722.49247 -21251417.32447  20542990.7584                   20542991.6724
        47.7504         47.7504
  -5514536.72346  -4277602.41445  24441781.6804                   24441785.5784
        39.0004         31.0004
 -28894156.79347 -21343283.68046  20353549.8834                   20353548.7704
        47.2504         37.5004
 -19147355.42247 -14897748.78946  22119411.1884                   22119412.7704
        44.2504         39.2504
 -13279242.33646  -9904987.95745  23802854.1414                   23802854.1564
        39.2504         32.5004
  -6517112.16046  -4565201.69543  24904597.0234                   24904601.3594
        39.5004         22.7504
  -8274844.19947  -6422184.50045  23591985.6804                   23591986.2464
        42.2504         33.2504
 25  8  9  0 59 30.0000000  0  9G09G16G03G06G04G26G31G01G07
 -15949047.44147 -13481462.24246  21865228.7114                   21865229.4774
        45.2504         41.5004
 -25106053.09447 -18493946.35945  20724745.1954                   20724743.1174
        47.5004         35.5004
 -27246827.44148 -21211758.88347  20552675.6804                   20552676.9654
        48.0004         47.7504
  -5515668.32846  -4278484.21145  24441565.8284                   24441570.4964
        37.7504         30.5004
 -28926247.75447 -21368289.60546  20347443.2034                   20347442.4804
        47.5004         37.0004
 -19094346.11747 -14856442.85946  22129498.7034                   22129500.2934
        44.2504         39.2504
 -13193334.37146  -9838046.75045  23819202.6414                   23819202.9924
        40.7504         34.7504
  -6440373.15646  -4505405.19143  24919199.7344                   24919204.2114
        39.2504         20.7504
  -8354372.48447  -6484154.48845  23576852.2504                   23576852.3244
        42.5004         32.7504
 25  8  9  1  0  0.0000000  0  9G09G16G03G06G04G26G31G01G07
 -16032637.26247 -13546597.12546  21849322.2194                   21849322.9304
        45.5004         41.5004
 -25143210.91847 -18522900.47345  20717674.3914                   20717672.0084
        46.2504         35.2504
 -27195407.52347 -21171691.44947  20562460.7114                   20562462.0474
        46.5004         47.7504
  -5516281.45746  -4278962.01645  24441450.3674                   24441453.5394
        39.5004         31.0004
 -28958082.71148 -21393096.05546  20341384.9844                   20341384.1524
        48.0004         37.5004
 -19040825.32047 -14814738.37146  22139683.5084                   22139685.1484
        42.5004         39.7504
 -13107398.37146  -9771083.65245  23835554.7894                   23835554.8594
        40.5004         34.0004
  -6363756.68746  -4445704.12143  24933778.6724                   24933784.1334
        39.0004         22.2504
  -8433681.86746  -6545953.93045  23561759.1484                   23561759.8284
        41.5004         32.7504
 25  8  9  1  0 30.0000000  0  9G09G16G03G06G04G26G31G01G07
 -16116103.19547 -13611635.48846  21833439.1174                   21833439.7704
        45.5004         41.5004
 -25179692.92647 -18551327.98845  20710732.3834                   20710729.9104
        46.5004         35.5004
 -27143462.52348 -21131214.87147  20572345.9224                   20572346.7854
        48.2504         47.7504
  -5516375.41446  -4279035.26645  24441432.2424                   24441435.9414
        38.2504         30.0004
 -28989658.62147 -21417700.64546  20335376.4694                   20335375.4384
        47.7504         38.0004
 -18986793.25447 -14772635.48446  22149965.2034                   22149967.3324
        44.0004         39.0004
 -13021433.44146  -9704098.06245  23851912.9774                   23851912.3284
        37.7504         32.0004
  -6287263.19946  -4386098.93443  24948334.9224                   24948340.1214
        38.5004         21.2504
  -8512770.26246  -6607581.16045  23546709.1954                   23546710.0634
        41.7504         33.5004
 25  8  9  1  1  0.0000000  0  9G09G16G03G06G04G26G31G01G07
 -16199444.72347 -13676576.91047  21817580.3914                   21817580.5824
        45.0004         42.0004
 -25215498.83247 -18579228.66045  20703918.3054                   20703915.8954
        46.2504         35.2504
 -27090994.80147 -21090330.96547  20582329.9304                   20582331.3794
        47.5004         47.7504
  -5515951.90646  -4278705.32445  24441512.5634                   24441516.1374
        38.5004         30.7504
 -29020975.02047 -21442103.02346  20329417.0704                   20329416.1374
        46.5004         37.7504
 -18932252.91447 -14730136.54346  22160344.2894                   22160346.1174
        42.2504         38.7504
 -12935441.98046  -9637091.84045  23868276.9454                   23868277.0274
        38.7504         32.2504
  -6210895.67246  -4326591.85243  24962867.1644                   24962872.9534
        37.5004         21.5004
  -8591638.16847  -6669036.58645  23531702.0554                   23531701.8594
        42.5004         34.0004
 25  8  9  1  1 30.0000000  0  9G09G16G03G06G04G26G31G01G07
 -16282659.96947 -13741419.93046  21801744.3984                   21801745.1294
        45.0004         41.5004
 -25250626.31247 -18606600.68745  20697234.0474                   20697231.6724
        46.5004         34.7504
 -27038005.47747 -21049040.61747  20592413.5944                   20592414.5594
        47.5004         47.7504
  -5515011.56246  -4277972.61745  24441691.5704                   24441695.2114
        38.5004         30.0004
 -29052030.11347 -21466301.78546  20323507.7114                   20323506.4734
        47.5004         38.0004
 -18877205.89847 -14687242.79346  22170818.9144                   22170820.6684
        43.7504         38.2504
 -12849424.68046  -9570065.43045  23884644.7114                   23884645.6024
        37.2504         32.5004
  -6134656.10946  -4267184.50443  24977375.3984                   24977380.9844
        38.0004         21.0004
  -8670284.76647  -6730319.58645  23516734.9144                   23516735.8834
        42.2504         33.5004
 25  8  9  1  2  0.0000000  0  9G09G16G03G06G04G26G31G01G07
 -16365746.72347 -13806162.82047  21785933.3674                   21785934.1024
        44.7504         42.0004
 -25285073.33647 -18633442.49245  20690678.8204                   20690676.6024
        46.0004         35.5004
 -26984495.24647 -21007344.37147  20602595.9454                   20602597.2814
        46.5004         47.5004
  -5513554.53146  -4276837.32845  24441968.6644                   24441971.6914
        38.7504         31.7504
 -29082821.73447 -21490295.24646  20317647.9384                   20317647.2704
        47.5004         38.0004
 -18821653.48847 -14643955.22346  22181390.9064                   22181392.4614
        42.0004         38.5004
 -12763381.68046  -9503019.03945  23901021.2504                   23901018.1684
        41.5004         32.0004
  -6058545.56246  -4207877.67643  24991859.6174                   24991864.3914
        38.2504         19.7504
  -8748708.78947  -6791429.12145  23501812.1484                   23501811.9964
        42.0004         33.5004
 25  8  9  1  2 30.0000000  0  9G09G16G03G06G04G26G31G01G07
 -16448704.82047 -13870805.46146  21770147.1724                   21770147.7194
        45.5004         41.5004
 -25318839.89147 -18659754.07045  20684253.5634                   20684250.8754
        46.0004         34.5004
 -26930466.98047 -20965244.46147  20612877.6094                   20612878.7194
        47.0004         47.5004
  -5511583.14146  -4275301.20745  24442344.4534                   24442346.7934
        40.0004         32.2504
 -29113349.86347 -21514083.38346  20311838.8134                   20311837.8794
        47.2504         37.2504
 -18765598.99247 -14600276.41446  22192057.4694                   22192059.0164
        42.7504         38.2504
 -12677315.44147  -9435954.51645  23917398.7814                   23917397.2034
        42.5004         33.0004
  -5982567.60546  -4148674.14143  25006318.0944                   25006322.2854
        38.0004         20.0004
  -8826911.18747  -6852365.97745  23486930.7194                   23486930.6484
        43.2504         33.5004
 25  8  9  1  3  0.0000000  0  9G09G16G03G06G04G26G31G01G07
 -16531533.26247 -13935347.06647  21754385.3834                   21754386.0784
        45.5004         42.5004
 -25351924.93447 -18685534.59045  20677957.2664                   20677955.1454
        45.5004         35.2504
 -26875922.68448 -20922742.44147  20623257.0084                   20623258.1844
        48.0004         47.5004
  -5509098.86746  -4273365.42645  24442817.0394                   24442819.7424
        39.0004         31.0004
 -29143613.60947 -21537665.52046  20306079.7274                   20306078.6094
        45.0004         37.2504
 -18709045.05147 -14556208.43446  22202819.4774                   22202820.9774
        43.5004         38.5004
 -12591227.93047  -9368873.39145  23933780.2344                   23933778.5474
        42.0004         32.2504
  -5906724.87546  -4089576.02343  25020750.6414                   25020755.2814
        38.7504         19.5004
  -8904892.11347  -6913130.25445  23472091.2664                   23472091.5004
        43.0004         33.7504
 25  8  9  1  3 30.0000000  0  8G09G16G03G06G04G26G31G07
 -16614231.28147 -13999787.05547  21738648.5474                   21738648.8164
        45.2504         42.0004
 -25384327.69547 -18710783.47345  20671791.2504                   20671788.8914
        46.5004         35.7504
 -26820864.61348 -20879840.08247  20633734.0634                   20633735.0204
        48.0004         47.5004
  -5506103.45746  -4271031.37145  24443387.7814                   24443389.6994
        39.0004         31.2504
 -29173612.28948 -21561041.10546  20300371.0554                   20300370.3244
        48.0004         37.5004
 -18651994.41847 -14511753.41446  22213675.4614                   22213677.4774
        43.7504         38.2504
 -12505120.44146  -9301776.71145  23950165.8204                   23950164.9614
        41.0004         32.0004
  -8982652.04747  -6973722.33245  23457294.1564                   23457293.9574
        43.2504         34.0004
 25  8  9  1  4  0.0000000  0  8G09G16G03G06G04G26G31G07
 -16696792.98847 -14064120.82047  21722937.3834                   21722937.8914
        45.2504         42.5004
 -25416042.87947 -18735496.57845  20665756.0634                   20665753.3554
        47.0004         35.0004
 -26765290.03148 -20836535.24247  20644309.7424                   20644310.9264
        48.0004         47.5004
  -5502593.41446  -4268296.28945  24444055.1414                   24444057.9104
        39.2504         31.5004
 -29203340.17247 -21584205.69546  20294714.3594                   20294713.4884
        47.7504         38.0004
 -18594444.75047 -14466909.54346  22224627.1484                   22224628.9384
        44.0004         39.2504
 -12418989.86347  -9234662.06245  23966556.3524                   23966555.1054
        43.0004         33.5004
  -9060186.11347  -7034138.41045  23442538.9844                   23442540.0124
        42.2504         34.5004
 25  8  9  1  4 30.0000000  0  8G09G16G03G06G04G26G31G07
 -16779204.82447 -14128337.80547  21707255.1644                   21707255.7664
        45.2504         42.0004
 -25447056.79347 -18759663.24645  20659854.0234                   20659851.7664
        47.0004         35.5004
 -26709188.36348 -20792819.69547  20654985.3834                   20654986.7274
        48.5004         47.2504
  -5498558.05146  -4265151.87145  24444822.9694                   24444826.3204
        38.7504         31.7504
 -29232783.77047 -21607148.75846  20289111.2274                   20289110.2544
        47.0004         37.5004
 -18536386.12147 -14421669.07446  22235675.4614                   22235677.1564
        43.0004         38.2504
 -12332825.11346  -9167520.78945  23982951.8984                   23982951.3674
        41.5004         31.7504
  -9137481.78947  -7094368.71945  23427830.3134                   23427830.8404
        42.5004         34.5004
 25  8  9  1  5  0.0000000  0  8G09G16G03G06G04G26G31G07
 -16861457.31647 -14192430.62547  21691602.6484                   21691603.0744
        45.7504         42.0004
 -25477360.34447 -18783276.37545  20654087.3594                   20654085.6374
        46.7504         35.5004
 -26652553.40248 -20748688.58647  20665762.6954                   20665764.0634
        48.7504         47.2504
  -5493990.38346  -4261592.69145  24445691.8914                   24445695.7584
        39.0004         32.5004
 -29261933.75847 -21629863.02746  20283564.1484                   20283563.1684
        47.2504         38.0004
 -18477812.72347 -14376027.48446  22246821.2424                   22246823.3594
        42.5004         38.5004
 -12246619.32846  -9100347.52045  23999356.7424                   23999355.8954
        41.2504         33.2504
  -9214530.72747  -7154406.77045  23413168.0084                   23413168.5164
        42.2504         34.2504
 25  8  9  1  5 30.0000000  0  8G09G16G03G06G04G26G31G07
 -16943550.10947 -14256399.00447  21675980.8524                   21675981.7624
        45.7504         42.0004
 -25506953.26647 -18806335.77046  20648456.2114                   20648454.0354
        47.7504         36.2504
 -26595387.84048 -20704144.03147  20676641.2114                   20676642.3674
        48.5004         47.2504
  -5488892.59046  -4257620.43445  24446662.8054                   24446665.6524
        39.0004         31.7504
 -29290789.90247 -21652348.34046  20278072.8834                   20278072.2384
        47.7504         37.7504
 -18418727.81247 -14329987.32046  22258064.6724                   22258066.9804
        43.2504         38.2504
 -12160374.75447  -9033144.07045  24015769.8834                   24015768.3444
        42.5004         31.7504
  -9291333.85547  -7214253.27345  23398553.4384                   23398553.3834
        43.0004         34.2504
 25  8  9  1  6  0.0000000  0  8G09G16G03G06G04G26G31G07
 -17025486.24247 -14320245.30947  21660388.9534                   21660389.4694
        45.7504         42.5004
 -25535839.07847 -18828844.18045  20642959.6334                   20642957.1134
        47.0004         34.7504
 -26537697.86347 -20659190.84047  20687619.1024                   20687620.2234
        47.5004         47.2504
  -5483270.48846  -4253239.61745  24447731.9844                   24447736.0824
        38.0004         31.0004
 -29319355.32047 -21674607.11346  20272637.0004                   20272636.5664
        47.0004         37.5004
 -18359138.03547 -14283553.75046  22269403.7034                   22269406.5004
        43.5004         38.0004
 -12074096.89846  -8965914.62545  24032187.0474                   24032185.7274
        41.7504         31.5004
  -9367895.41447  -7273911.54745  23383984.0394                   23383984.4104
        42.7504         34.5004
 25  8  9  1  6 30.0000000  0  8G09G16G03G06G04G26G31G07
 -17107270.61347 -14383973.36347  21644826.0784                   21644826.4264
        46.0004         42.5004
 -25564022.88747 -18850805.57046  20637596.1724                   20637593.7384
        47.5004         36.0004
 -26479491.67248 -20613835.40247  20698695.4454                   20698696.7074
        48.2504         47.2504
  -5477131.63746  -4248456.16445  24448901.1954                   24448903.7344
        39.0004         31.7504
 -29347635.12947 -21696643.31246  20267255.4614                   20267254.8554
        47.0004         37.7504
 -18299052.07847 -14236733.55146  22280839.0784                   22280840.6294
        43.0004         39.0004
 -11987793.25846  -8898665.12945  24048610.4774                   24048609.6174
        41.5004         31.5004
  -9444221.60947  -7333386.41045  23369459.8754                   23369459.4384
        43.5004         34.5004
 25  8  9  1  7  0.0000000  0  8G09G16G03G06G04G26G31G07
 -17188905.32447 -14447584.80947  21629291.4064                   21629292.0984
        46.2504         42.7504
 -25591507.32847 -18872222.00045  20632366.0234                   20632363.8554
        47.2504         35.5004
 -26420774.48847 -20568081.78947  20709868.8364                   20709870.3634
        47.5004         47.0004
  -5470480.80146  -4243273.74245  24450165.8284                   24450169.4024
        39.0004         32.0004
 -29375631.50847 -21718458.66846  20261927.9694                   20261926.9304
        47.2504         38.0004
 -18238475.64847 -14189531.16446  22292365.0634                   22292367.2734
        42.2504         38.7504
 -11901468.32046  -8831398.98445  24065036.2894                   24065035.8014
        39.0004         30.5004
  -9520315.48447  -7392680.25845  23354978.7584                   23354979.1724
        43.0004         34.7504
 25  8  9  1  7 30.0000000  0  8G09G16G03G06G04G26G31G07
 -17270392.74247 -14511081.47747  21613785.0084                   21613785.6054
        46.0004         43.0004
 -25618295.16047 -18893095.60245  20627269.0164                   20627265.9454
        47.5004         35.7504
 -26361551.98847 -20521934.42247  20721138.3914                   20721139.6374
        47.0004         47.2504
  -5463323.10946  -4237696.39845  24451527.7734                   24451531.2734
        38.5004         30.0004
 -29403347.02347 -21740055.16446  20256654.0164                   20256653.1094
        46.7504         38.0004
 -18177414.88746 -14141951.37546  22303985.7424                   22303987.0784
        41.7504         38.2504
 -11815127.22346  -8764120.28945  24081465.9694                   24081466.5274
        39.7504         31.7504
  -9596180.77347  -7451795.97745  23340542.2974                   23340542.3984
        42.5004         34.7504
 25  8  9  1  8  0.0000000  0  8G09G16G03G06G04G26G31G07
 -17351732.96147 -14574463.43747  21598306.3204                   21598306.9024
        45.2504         43.0004
 -25644387.01647 -18913426.89145  20622303.4534                   20622301.5084
        47.7504         35.7504
 -26301827.53547 -20475395.92247  20732503.9304                   20732504.9884
        47.5004         47.0004
  -5455661.49246  -4231726.37544  24452987.2344                   24452989.0784
        38.5004         29.5004
 -29430781.92647 -21761433.00846  20251433.2194                   20251432.6884
        46.7504         37.5004
 -18115873.69947 -14093997.23446  22315695.9534                   22315698.3444
        43.0004         38.2504
 -11728772.65246  -8696831.13345  24097900.2424                   24097900.0554
        41.0004         31.0004
  -9671818.96147  -7510734.72345  23326148.5084                   23326149.1954
        43.0004         34.7504
 25  8  9  1  8 30.0000000  0  8G09G16G03G06G04G26G31G07
 -17432928.28147 -14637732.49247  21582855.7114                   21582855.5944
        45.7504         43.0004
 -25669785.57847 -18933217.95345  20617470.1024                   20617468.2934
        47.5004         35.2504
 -26241606.71548 -20428470.64847  20743963.7274                   20743964.9884
        48.0004         47.0004
  -5447501.09846  -4225367.66445  24454539.7664                   24454541.5164
        39.7504         31.0004
 -29457938.69147 -21782594.12146  20246265.1334                   20246264.7424
        46.5004         37.7504
 -18053858.04347 -14045673.37946  22327497.7424                   22327499.1804
        43.5004         38.5004
 -11642409.23846  -8629534.99244  24114332.7504                   24114333.1454
        39.0004         28.7504
  -9747233.49247  -7569499.20345  23311797.6254                   23311797.8674
        43.2504         35.5004
 25  8  9  1  9  0.0000000  0  8G09G16G03G06G04G26G31G07
 -17513976.35247 -14700886.79347  21567432.7034                   21567432.8094
        45.7504         43.0004
 -25694489.22747 -18952467.53145  20612769.3754                   20612767.1684
        47.2504         35.2504
 -26180890.53148 -20381159.37547  20755517.2894                   20755518.7814
        48.0004         46.5004
  -5438842.23846  -4218620.54345  24456186.2664                   24456190.0434
        38.5004         30.5004
 -29484815.09847 -21803536.77046  20241151.2344                   20241150.1334
        47.0004         38.0004
 -17991369.37547 -13996980.93746  22339389.0314                   22339390.4574
        43.5004         38.5004
 -11556037.32447  -8562232.36345  24130771.8444                   24130770.6414
        43.2504         30.7504
  -9822423.33647  -7628088.59445  23297490.1414                   23297489.9654
        42.5004         34.7504
 25  8  9  1  9 30.0000000  0  8G09G16G03G06G04G26G31G07
 -17594874.42247 -14763924.22347  21552038.1094                   21552038.6454
        45.0004         43.2504
 -25718495.78147 -18971173.91445  20608200.9694                   20608198.5474
        46.7504         35.2504
 -26119679.51647 -20333462.50447  20767165.5864                   20767166.8524
        47.0004         46.7504
  -5429685.10246  -4211485.15245  24457929.2504                   24457932.8594
        39.0004         30.7504
 -29511408.60947 -21824258.97746  20236090.2504                   20236089.6994
        46.0004         38.2504
 -17928408.77047 -13947920.76246  22351369.8284                   22351371.5164
        42.0004         38.0004
 -11469656.60547  -8494922.79344  24147209.0944                   24147208.2344
        42.2504         29.2504
  -9897387.07447  -7686501.80545  23283224.5084                   23283224.5984
        43.0004         35.0004
 25  8  9  1 10  0.0000000  0  8G09G16G03G06G04G26G31G07
 -17675624.29347 -14826846.17247  21536671.7504                   21536672.0984
        45.5004         43.2504
 -25741807.50447 -18989338.87546  20603764.7274                   20603762.4804
        47.5004         36.0004
 -26057978.89548 -20285384.11747  20778906.7274                   20778907.8284
        48.2504         46.5004
  -5420034.36746  -4203965.13745  24459765.5704                   24459769.8324
        37.5004         31.0004
 -29537721.19947 -21844762.29346  20231083.6024                   20231082.8094
        47.7504         38.0004
 -17864981.82847 -13898497.21146  22363439.2894                   22363441.4964
        43.0004         38.5004
 -11383271.44146  -8427609.70744  24163647.0704                   24163646.0084
        40.0004         29.0004
  -9972127.84447  -7744741.27745  23269001.2734                   23269001.6764
        42.5004         35.2504
 25  8  9  1 10 30.0000000  0  8G09G16G03G06G04G26G31G07
 -17756222.67247 -14889650.08247  21521334.8444                   21521334.8754
        45.5004         43.2504
 -25764422.03947 -19006960.56246  20599461.2814                   20599459.0864
        47.2504         36.0004
 -25995788.78148 -20236924.31647  20790740.9534                   20790742.4454
        48.0004         46.5004
  -5409889.64546  -4196060.22345  24461696.9774                   24461699.8674
        38.0004         30.7504
 -29563749.78947 -21865044.30946  20226130.6804                   20226129.6414
        47.5004         38.0004
 -17801089.08647 -13848710.68446  22375596.9454                   22375600.0434
        43.5004         38.0004
 -11296880.83246  -8360292.43045  24180086.6884                   24180086.9534
        40.7504         30.2504
 -10046643.27747  -7802805.15645  23254821.7344                   23254821.6844
        43.0004         35.7504
 25  8  9  1 11  0.0000000  0  8G09G16G03G06G04G26G31G07
 -17836670.12147 -14952336.37547  21506026.3284                   21506026.2664
        46.0004         43.2504
 -25786340.28548 -19024039.68745  20595290.6644                   20595288.1134
        48.0004         35.7504
 -25933113.14148 -20188086.20747  20802668.0864                   20802669.4844
        48.0004         46.0004
  -5399254.50446  -4187773.14145  24463719.7894                   24463724.4804
        36.5004         31.2504
 -29589495.05547 -21885105.55946  20221231.2974                   20221230.2934
        47.5004         38.0004
 -17736734.89847 -13798564.60546  22387843.3204                   22387846.0234
        43.2504         37.5004
 -11210488.34047  -8292973.74644  24196527.6254                   24196526.7504
        42.2504         29.5004
 -10120935.67247  -7860695.23445  23240684.4844                   23240684.5234
        43.0004         35.2504
 25  8  9  1 11 30.0000000  0  8G09G16G03G06G04G26G31G07
 -17916963.20747 -15014902.38747  21490746.3524                   21490747.1414
        45.0004         43.7504
 -25807559.84047 -19040574.37545  20591252.3914                   20591250.1214
        47.7504         35.7504
 -25869951.96948 -20138869.76247  20814687.0704                   20814688.4104
        48.2504         46.0004
  -5388128.48445  -4179103.57044  24465836.0784                   24465841.8094
        30.2504         26.2504
 -29614953.85547 -21904943.57846  20216386.6564                   20216385.5394
        47.5004         38.5004
 -17671919.77347 -13748059.35946  22400177.4304                   22400179.9844
        43.5004         38.0004
 -11124092.86346  -8225652.64544  24212966.9534                   24212966.1334
        41.5004         27.0004
 -10195002.93747  -7918409.89145  23226590.2664                   23226589.7774
        43.7504         35.5004
 25  8  9  1 12  0.0000000  0  6G09G16G03G06G04G07
 -17997103.06647 -15077349.00447  21475496.5864                   21475496.8404
        45.5004         43.5004
 -25828082.73047 -19056566.21545  20587347.5704                   20587344.4654
        47.7504         33.0004
 -25806309.84847 -20089278.53147  20826798.1174                   20826799.3914
        47.5004         45.7504
  -5376515.52746  -4170054.63345  24468048.2344                   24468051.4064
        39.5004         33.2504
 -29640127.51647 -21924559.41446  20211596.3984                   20211595.2814
        47.5004         36.7504
 -10268847.33647  -7975950.89145  23212537.5634                   23212536.9774
        43.2504         35.5004
