     2.11           OBSERVATION DATA    G (GPS)             RINEX VERSION / TYPE
teqc  2019Feb25                         20250820 04:48:12UTCPGM / RUN BY / DATE
Linux 2.6.32-573.12.1.x86_64|x86_64|gcc -static|Linux 64|=+ COMMENT
BIT 2 OF LLI FLAGS DATA COLLECTED UNDER A/S CONDITION       COMMENT
35323540                                                    MARKER NAME
3540                                                        MARKER NUMBER
-Unknown-           -Unknown-                               OBSERVER / AGENCY
0220413532          TRIMBLE R7          2.32                REC # / TYPE / VERS
-Unknown-           TRM39105.00     NONE                    ANT # / TYPE
 -2414917.4538 -4545227.3882  3756114.4131                  APPROX POSITION XYZ
        0.0000        0.0000        0.0000                  ANTENNA: DELTA H/E/N
     1     1                                                WAVELENGTH FACT L1/2
     7    L1    L2    C1    P1    P2    S1    S2            # / TYPES OF OBSERV
    18                                                      LEAP SECONDS
 SNR is mapped to RINEX snr flag value [0-9]                COMMENT
  L1 & L2: min(max(int(snr_dBHz/6), 0), 9)                  COMMENT
  2025     8     5    19    56    0.0000000     GPS         TIME OF FIRST OBS
                                                            END OF HEADER
 25  8  5 19 56  0.0000000  0  8G08G02G32G10G24G23G27G28
   -422186.63757   -271929.60956  22855491.1724                   22855495.9534
        42.0004         38.5004
   -709781.50457   -455801.60255  23096615.0704                   23096614.2304
        45.0004         30.5004
   -351486.90258   -220447.66858  20648348.4694                   20648349.7734
        52.5004         51.7504
   -458798.98858   -289169.73058  21377841.7034                   21377843.1524
        50.5004         48.5004
   -295177.30956   -161983.64854  24462345.9924                   24462350.1094
        38.7504         25.5004
   -352261.75057   -228981.18054  23316540.8914                   23316543.1094
        42.2504         25.0004
   -298904.94157   -186052.67256  23122581.6644                   23122585.9344
        42.0004         39.7504
   -588104.94957   -368229.41054  23364701.3284                   23364704.8404
        43.0004         29.2504
 25  8  5 19 56 30.0000000  0  8G08G02G32G10G24G23G27G28
   -652327.88747   -451260.53146  22811696.7734                   22811701.2234
        42.2504         38.0004
  -1052506.82847   -722860.23445  23031396.8444                   23031394.6684
        45.0004         30.0004
   -608296.71948   -420559.22748  20599479.1564                   20599480.3014
        52.5004         51.2504
   -704032.25448   -480260.60948  21331174.7194                   21331177.0204
        49.7504         48.5004
   -479295.71146   -305452.60944  24427308.4064                   24427313.4924
        40.0004         28.5004
   -549154.41446   -291375.15254  23279073.3984                   23279075.5824
        41.0004         25.7504
   -481459.62947   -328303.19946  23087842.2894                   23087846.6294
        42.5004         38.7504
   -949689.30546   -649983.30944  23295894.3834                   23295897.3244
        41.5004         27.0004
 25  8  5 19 57  0.0000000  0 10G08G02G18G32G10G24G23G31G27G28
   -881970.78546   -630203.12946  22767997.3594                   22768001.7154
        40.7504         38.0004
  -1394985.99647   -989727.08244  22966224.8284                   22966223.6454
        43.7504         28.5004
   -380668.34455   -234471.32453  24760283.5554                   24760292.2584
        34.5004         18.2504
   -864641.97748   -620308.79748  20550698.4064                   20550699.7114
        52.2504         51.5004
   -949067.04748   -671196.85248  21284546.1954                   21284548.1174
        50.2504         48.5004
   -662947.60546   -448558.04344  24392360.6254                   24392365.8364
        38.0004         27.0004
   -745914.39146   -444694.75843  23241631.5234                   23241634.0474
        40.2504         23.7504
   -212443.82056   -300128.51253  25154862.7194                   25154871.0234
        36.5004         20.2504
   -663735.15647   -470336.20746  23053156.5634                   23053160.7194
        43.0004         39.2504
  -1311074.93447   -931582.34444  23227124.3754                   23227127.6174
        43.0004         28.2504
 25  8  5 19 57 30.0000000  0 10G08G02G18G32G10G24G23G31G27G28
  -1111091.57046   -808738.87146  22724396.9144                   22724401.4844
        41.5004         37.7504
  -1737191.27347  -1256380.50445  22901105.2344                   22901103.9304
        45.0004         30.7504
   -537652.92645   -356797.37143  24730410.3054                   24730419.1524
        35.7504         20.0004
  -1120498.34448   -819677.39548  20502010.4694                   20502012.1414
        51.7504         51.7504
  -1193877.54348   -861958.29348  21237960.5394                   21237962.3914
        50.2504         48.5004
   -846109.90246   -591281.96144  24357506.4384                   24357511.0744
        37.0004         28.0004
   -942515.91046   -597890.87944  23204219.5554                   23204222.1844
        40.7504         25.0004
   -587736.41446   -592563.85943  25083447.6724                   25083455.8954
        37.2504         19.0004
   -845709.02347   -612134.14546  23018527.9144                   23018532.7774
        42.0004         39.0004
  -1672233.27346  -1213004.25844  23158398.4924                   23158401.5704
        41.7504         28.5004
 25  8  5 19 58  0.0000000  0 10G08G02G18G32G10G24G23G31G27G28
  -1339678.48047   -986858.62946  22680898.4924                   22680903.2114
        43.0004         38.0004
  -2079106.71947  -1522808.09045  22836040.5314                   22836039.6414
        44.0004         30.5004
   -694423.78146   -478956.83643  24700578.6254                   24700586.8954
        36.0004         20.2504
  -1375853.19148  -1018655.21948  20453418.1954                   20453419.2154
        51.7504         51.2504
  -1438449.71148  -1052534.04748  21191419.8594                   21191421.6844
        50.5004         48.2504
  -1028771.41846   -733615.65644  24322747.7274                   24322751.4534
        38.2504         29.0004
  -1138945.16046   -750952.77344  23166840.1644                   23166843.0554
        39.2504         25.0004
                                  25012021.414
        33.000
  -1027370.53947   -753688.71546  22983959.4844                   22983963.7854
        43.5004         39.0004
  -2033147.42646  -1494235.89843  23089718.5784                   23089721.7544
        39.7504         23.2504
 25  8  5 19 58 30.0000000  0 10G08G02G18G32G10G24G23G31G27G28
  -1567719.77346  -1164553.20346  22637504.0394                   22637508.3094
        41.5004         37.2504
  -2420716.75847  -1788997.68445  22771034.7344                   22771032.9964
        43.7504         30.5004
   -850968.98446   -600940.50043  24670789.6724                   24670797.5394
        37.2504         20.5004
  -1630694.09048  -1217232.54348  20404923.5944                   20404924.6954
        52.0004         51.5004
  -1682769.58248  -1242913.18448  21144927.3444                   21144929.2734
        50.5004         48.2504
  -1210920.98846   -875550.45744  24288085.2974                   24288090.1764
        37.7504         27.7504
  -1335188.41446   -903869.73044  23129496.5944                   23129499.6094
        40.5004         26.0004
  -1338468.29756  -1042996.73453  24940587.4534                   24940595.4654
        39.2504         21.2504
  -1208709.07447   -894991.56646  22949452.0234                   22949456.4414
        43.0004         38.2504
  -2393800.57846  -1775264.19144  23021088.4694                   23021091.7774
        41.5004         27.0004
 25  8  5 19 59  0.0000000  0 10G08G02G18G32G10G24G23G31G27G28
   -219782.53547   -114212.58246  22894007.8054                   22894012.0554
        42.5004         37.0004
  -1186580.52047   -827333.06245  23005883.2504                   23005881.4454
        44.5004         30.2504
    568142.00046    504859.87943  24940837.6954                   24940845.8554
        39.0004         20.7504
   -309586.49248   -187798.06248  20656322.0004                   20656323.1484
        51.2504         51.5004
   -351401.47748   -205483.51648  21398278.1484                   21398280.2934
        50.7504         48.2504
    182872.06346    210521.99644  24553315.0704                   24553320.1644
        37.5004         28.5004
     44188.28546    170969.12544  23391983.6334                   23391986.0514
        39.0004         25.2504
   -138445.69946   -107913.79743  25168944.0084                   25168952.3834
        40.2504         22.5004
    185705.63347    191565.22746  23214800.0474                   23214804.5004
        43.0004         38.5004
  -1178750.32846   -828471.62944  23252304.2034                   23252307.4774
        41.7504         27.0004
 25  8  5 19 59 30.0000000  0 10G08G02G18G32G10G24G23G31G27G28
   -446719.19146   -291046.40646  22850823.4844                   22850827.7274
        41.2504         37.5004
  -1527553.67647  -1093026.38745  22940998.0944                   22940996.8244
        43.5004         31.0004
    412061.86346    383238.63343  24911136.2274                   24911145.1454
        38.2504         21.5004
   -563383.83648   -385562.23048  20608025.7814                   20608027.2664
        51.5004         51.2504
   -595196.65648   -395453.80948  21351885.6024                   21351887.5474
        50.5004         48.2504
      1757.77745     69393.92244  24518850.3204                   24518855.2704
        35.5004         29.2504
   -151663.27746     18357.35544  23354713.6414                   23354716.5864
        39.7504         26.7504
   -513875.60246   -400456.18744  25097501.6804                   25097510.1174
        40.5004         26.0004
      5023.14547     50773.55546  23180417.5004                   23180422.1214
        43.0004         38.2504
  -1538852.91446  -1109070.88744  23183779.2664                   23183782.4224
        41.5004         28.0004
 25  8  5 20  0  0.0000000  0 10G08G02G18G32G10G24G23G31G27G28
   -673101.86346   -467448.57446  22807743.8134                   22807748.5274
        40.7504         37.0004
  -1868200.52747  -1358465.44144  22876175.2424                   22876173.4534
        44.0004         29.7504
    256216.11746    261799.96943  24881480.3914                   24881489.4304
        38.2504         20.0004
   -816656.60548   -582917.64848  20559829.6884                   20559830.9884
        51.2504         51.2504
   -838724.34848   -585215.67248  21305543.9774                   21305545.6604
        49.2504         48.0004
   -178837.96145    -71330.10544  24484483.5944                   24484489.1484
        35.2504         28.0004
   -347314.16846   -134098.01644  23317483.4384                   23317486.5124
        38.7504         25.5004
   -889320.43446   -693010.17644  25026056.3134                   25026065.0314
        38.7504         27.5004
   -175331.26647    -89762.46946  23146097.1334                   23146101.5084
        42.2504         38.5004
  -1898670.98047  -1389448.43444  23115308.0394                   23115310.9614
        42.2504         28.2504
 25  8  5 20  0 30.0000000  0 10G08G02G18G32G10G24G23G31G27G28
   -898934.70347   -643422.28946  22764769.0474                   22764773.4534
        42.0004         37.2504
  -2208521.08647  -1623650.25045  22811414.0554                   22811412.3524
        44.0004         30.2504
    100601.15646    140541.20743  24851868.2504                   24851876.7734
        39.0004         20.2504
  -1069408.14148   -779866.89848  20511732.6174                   20511734.1134
        51.7504         51.2504
  -1081986.44148   -774770.57048  21259252.6724                   21259254.3594
        50.2504         48.0004
   -358920.01645   -211653.85944  24450216.9384                   24450220.7854
        35.0004         28.0004
   -542766.44946   -286398.60244  23280289.7194                   23280293.1844
        39.5004         26.5004
  -1264779.63346   -985575.34844  24954609.2034                   24954617.2154
        40.2504         29.7504
   -355362.78947   -230046.89146  23111838.5234                   23111843.1684
        43.0004         37.5004
  -2258203.44947  -1669603.45344  23046890.8364                   23046893.9414
        42.2504         27.2504
 25  8  5 20  1  0.0000000  0 10G08G02G18G32G10G24G23G31G27G28
  -1124221.44547   -818970.48046  22721898.7424                   22721903.4844
        42.7504         38.0004
  -2548515.10547  -1888580.62145  22746715.2194                   22746713.7664
        44.2504         31.5004
    -54786.90646     19459.18443  24822298.8284                   24822307.5474
        39.0004         20.0004
  -1321641.47348   -976412.35548  20463734.3674                   20463735.3094
        51.7504         51.0004
  -1324984.35948   -964119.62548  21213011.6564                   21213013.5474
        50.0004         48.0004
   -538492.76645   -351580.74244  24416044.4064                   24416049.4104
        35.5004         27.5004
   -738021.75446   -438545.72344  23243134.0004                   23243136.9924
        41.0004         26.2504
  -1640252.43046  -1278151.12144  24883158.0474                   24883166.8364
        39.2504         29.0004
   -535076.21947   -370083.44146  23077639.8834                   23077644.3754
        43.0004         37.5004
  -2617448.98447  -1949534.87944  22978529.2114                   22978531.8364
        43.0004         26.0004
 25  8  5 20  1 30.0000000  0 10G08G02G18G32G10G24G23G31G27G28
  -1348965.95347   -994096.14846  22679131.6254                   22679136.1994
        42.0004         37.7504
  -2888181.99247  -2153256.07845  22682078.8054                   22682077.3834
        44.5004         31.7504
   -209951.43046   -101448.61343  24792772.2274                   24792781.1174
        38.7504         19.7504
  -1573359.69148  -1172556.43448  20415833.8134                   20415835.1094
        51.0004         51.2504
  -1567719.53948  -1153263.93448  21166820.5234                   21166822.4734
        49.5004         48.0004
   -717560.59445   -491114.17644  24381968.7814                   24381973.7934
        33.5004         26.5004
   -933081.76646   -590540.67244  23206015.7274                   23206018.5904
        41.2504         27.2504
  -2015738.03946  -1570736.87945  24811705.3834                   24811714.1484
        40.2504         30.7504
   -714476.43447   -509875.93046  23043501.5394                   23043506.2464
        43.0004         38.0004
  -2976406.29347  -2229241.73044  22910221.0394                   22910224.0864
        42.7504         27.5004
 25  8  5 20  2  0.0000000  0 10G08G02G18G32G10G24G23G31G27G28
      2254.02747     58802.46146  22936260.3284                   22936264.9614
        42.0004         38.0004
  -1652091.60247  -1190068.70345  22917298.8984                   22917297.5204
        44.0004         31.0004
   1210527.62946   1005417.75843  25063081.7194                   25063089.7894
        38.7504         18.2504
   -249138.82048   -140696.02048  20667824.8284                   20667825.9384
        52.2504         51.2504
   -234766.79748   -114599.48047  21420473.1174                   21420474.8954
        50.2504         47.7504
    679296.78145    597346.02744  24647781.6954                   24647786.9024
        32.5004         25.7504
    447476.93446    485219.23044  23468727.4454                   23468730.1294
        41.0004         25.7504
   -815804.39546   -635723.22344  25040044.8444                   25040053.3284
        39.5004         29.7504
    681856.28147    578175.41846  23309215.2034                   23309219.3014
        43.2504         37.5004
  -1759643.50047  -1281114.71544  23141763.6414                   23141766.2814
        43.0004         27.5004
 25  8  5 20  2 30.0000000  0 10G08G02G18G32G10G24G23G31G27G28
   -221419.94947   -115489.03146  22893696.8284                   22893701.2034
        42.0004         37.0004
  -1991105.45347  -1454235.28545  22852786.9304                   22852784.8054
        44.5004         31.7504
   1055796.86746    884848.02042  25033637.7194                   25033646.0474
        40.0004         17.2504
   -499838.34048   -336046.30148  20620118.1484                   20620119.8284
        52.0004         51.2504
   -476983.40248   -303339.69547  21374380.5634                   21374382.7234
        50.7504         47.7504
    501223.25845    458587.37144  24613895.6804                   24613901.2194
        33.2504         27.0004
    252800.03947    333522.81344  23431681.5084                   23431684.6564
        42.0004         26.2504
  -1191315.43446   -928328.80944  24968586.8054                   24968595.3094
        38.5004         28.5004
    503065.52347    438857.83246  23275192.0394                   23275196.9414
        42.5004         37.5004
  -2118022.81247  -1560371.18044  23073566.1954                   23073568.7894
        43.0004         26.5004
 25  8  5 20  3  0.0000000  0 10G08G02G18G32G10G24G23G31G27G28
   -444563.06246   -289366.85946  22851233.6254                   22851238.3284
        41.7504         37.0004
  -2329791.02047  -1718146.08245  22788336.8674                   22788335.3794
        45.2504         32.5004
    901278.86746    764443.98842  25004233.8594                   25004242.7894
        38.0004         16.2504
   -750031.74648   -531002.21948  20572507.8754                   20572508.9734
        51.2504         51.2504
   -718941.53148   -491878.51648  21328337.7894                   21328339.4774
        50.0004         48.0004
    323641.52345    320211.91444  24580103.9144                   24580108.0594
        33.0004         27.0004
     58313.60547    181974.80544  23394671.9144                   23394674.8754
        42.7504         27.5004
  -1566836.52346  -1220942.24244  24897127.2504                   24897135.5234
        38.5004         29.0004
    324573.56347    299773.07046  23241226.1254                   23241231.1094
        43.0004         37.2504
  -2476109.77347  -1839399.85544  23005424.8914                   23005427.0044
        44.2504         27.2504
 25  8  5 20  3 30.0000000  0 10G08G02G18G32G10G24G23G31G27G28
   -667177.94946   -462833.09046  22808871.7424                   22808876.3754
        41.0004         36.7504
  -2668146.37547  -1981799.56645  22723950.5704                   22723948.3134
        45.2504         32.7504
    746971.37146    644203.96942  24974869.8524                   24974879.9654
        38.2504         16.2504
   -999720.88748   -725565.19948  20524993.7584                   20524995.1024
        52.0004         51.2504
   -960641.39848   -680216.09448  21282344.0554                   21282345.6724
        50.0004         48.0004
    146548.48055    182217.25854  24546403.2274                   24546408.4454
        32.5004         26.5004
   -135982.83647     30574.86344  23357699.2034                   23357702.0044
        42.5004         27.5004
  -1942365.41046  -1513561.76644  24825665.7584                   24825674.5984
        37.7504         29.5004
    146376.82447    160918.34446  23207316.3594                   23207321.5824
        42.2504         37.0004
  -2833901.78147  -2118198.69944  22937338.5004                   22937340.7974
        44.0004         27.5004
 25  8  5 20  4  0.0000000  0 10G08G02G18G32G10G24G23G31G27G28
   -889269.69546   -635891.67246  22766609.5634                   22766613.8094
        41.2504         37.0004
  -3006172.67247  -2245196.63345  22659625.7664                   22659624.5984
        45.7504         31.7504
    592869.62146    524124.37942  24945546.3674                   24945556.0864
        38.2504         16.2504
  -1248910.02348   -919738.55948  20477574.2814                   20477575.9384
        51.2504         51.2504
  -1202085.59848   -868354.44948  21236398.9224                   21236400.2814
        50.0004         48.0004
    -30061.55545     44598.96544  24512795.9534                   24512800.9574
        33.2504         28.0004
   -330092.09047   -120679.23444  23320760.9694                   23320763.9734
        42.5004         25.7504
  -2317902.80146  -1806187.93444  24754203.7974                   24754211.8484
        37.0004         29.2504
    -31530.69547     22288.98846  23173462.3444                   23173466.5474
        42.0004         36.7504
  -3191398.69547  -2396767.59044  22869309.1094                   22869311.5944
        43.7504         28.5004
 25  8  5 20  4 30.0000000  0 10G08G02G18G32G10G24G23G31G27G28
  -1110842.04346   -808545.52046  22724445.2894                   22724449.6804
        40.5004         37.2504
  -3343869.27747  -2508336.78545  22595364.3984                   22595362.6644
        45.7504         33.0004
    438970.21545    404202.35242  24916259.8444                   24916269.7854
        35.5004         15.5004
  -1497602.07848  -1113524.58648  20430250.1564                   20430251.4264
        51.7504         51.2504
  -1443275.37948  -1056294.55947  21190501.6254                   21190503.6684
        49.5004         47.7504
   -206192.79345    -92646.20344  24479279.5084                   24479284.2034
        33.2504         26.0004
   -524015.62147   -271788.59844  23283858.7974                   23283861.6484
        42.7504         25.7504
  -2693447.43446  -2098819.76644  24682738.6414                   24682747.7384
        36.2504         27.2504
   -209153.71146   -116118.68446  23139661.6644                   23139666.3204
        41.5004         36.5004
  -3548598.97747  -2675105.32844  22801336.3054                   22801338.6024
        44.0004         27.5004
 25  8  5 20  5  0.0000000  0 10G08G02G18G32G10G24G23G31G27G28
    243528.17646    246807.81346  22982172.7664                   22982177.7234
        41.5004         36.7504
  -2105804.66447  -1543611.06645  22830960.3674                   22830958.5004
        46.0004         32.5004
   1860694.31645   1512038.87942  25186805.4384                   25186816.0204
        34.5004         13.7504
   -170372.21148    -79319.50848  20682813.6334                   20682814.8204
        52.2504         51.2504
   -108784.52048    -16431.57847  21444446.8204                   21444448.5944
        50.2504         47.7504
   1193575.77045    998082.47344  24745646.1024                   24745650.7974
        32.2504         27.2504
    857671.04346    804850.23444  23546785.7034                   23546788.2384
        41.7504         25.5004
  -1493565.91045  -1163846.83244  24911070.0004                   24911077.2894
        35.2504         27.2504
   1188928.55547    973295.94546  23405708.4844                   23405713.1764
        42.2504         37.0004
  -2330069.78547  -1725601.92244  23033214.2894                   23033216.4384
        43.2504         27.0004
 25  8  5 20  5 30.0000000  0 10G08G02G18G32G10G24G23G31G27G28
     22980.99646     74952.79346  22940204.7114                   22940209.2234
        41.7504         36.7504
  -2442842.14547  -1806237.63345  22766824.1334                   22766822.2624
        46.2504         31.7504
   1707186.83645   1392422.28542  25157593.0634                   25157606.2194
        31.7504         13.7504
   -418081.34448   -272339.62148  20635675.9844                   20635677.0984
        53.0004         51.2504
   -349471.67248   -203980.03147  21398645.5784                   21398647.6994
        50.7504         47.7504
   1018386.80945    861571.52744  24712308.2344                   24712313.3014
        32.2504         27.2504
    664112.08647    654024.94544  23509952.1484                   23509955.0004
        42.2504         24.5004
  -1869123.80945  -1456489.03944  24839602.4384                   24839610.3054
        34.5004         24.2504
   1011858.15646    835318.88746  23372012.8134                   23372017.4614
        41.7504         36.7504
  -2686674.75047  -2003475.78144  22965354.6254                   22965356.9694
        44.5004         28.2504
 25  8  5 20  6  0.0000000  0 10G08G02G18G32G10G24G23G31G27G28
   -197059.83247    -96507.68046  22898332.3444                   22898337.3134
        42.2504         36.7504
  -2779550.02347  -2068607.34845  22702750.3134                   22702748.7774
        46.0004         31.7504
   1553869.59045   1272953.88342  25128418.3134                   25128431.3914
        33.5004         15.5004
   -665304.01648   -464980.68448  20588631.1954                   20588632.4384
        52.5004         51.2504
   -589909.95348   -391334.55547  21352891.6804                   21352893.7624
        50.7504         47.7504
    843661.86745    725422.15644  24679059.8834                   24679064.7734
        35.2504         27.0004
    470732.53146    503339.45743  23473153.8444                   23473156.1334
        41.2504         22.7504
  -2244687.36345  -1749135.63744  24768135.4774                   24768143.1604
        33.2504         24.5004
    835056.50846    697551.24246  23338368.8524                   23338373.1684
        41.0004         36.5004
  -3042980.42247  -2281116.43044  22897551.6954                   22897553.8244
        43.7504         28.5004
 25  8  5 20  6 30.0000000  0 10G08G02G18G32G10G24G23G31G27G28
   -416600.44546   -267578.37146  22856555.3754                   22856560.0274
        41.5004         37.2504
  -3115929.82847  -2330721.43745  22638739.5634                   22638737.9694
        46.0004         32.7504
   1400736.840 5                  25099279.352
        30.000
   -912045.48448   -657246.77048  20541677.8364                   20541679.2894
        51.7504         51.2504
   -830102.84848   -578497.87148  21307184.5864                   21307186.3054
        50.5004         48.0004
    669394.46145    589629.30544  24645897.6884                   24645902.9924
        35.0004         29.7504
    277528.68446    352790.86343  23436388.3594                   23436390.9844
        40.5004         22.5004
  -2620257.73045  -2041787.54344  24696666.7034                   24696673.9304
        32.2504         24.2504
    658516.64546    559987.59046  23304773.9454                   23304779.0124
        40.7504         36.2504
  -3398987.50847  -2558524.40244  22829805.7114                   22829807.7114
        42.7504         28.2504
 25  8  5 20  7  0.0000000  0 11G08G02G18G32G10G24G23G31G01G27G28
   -635640.24646   -438258.80946  22814873.8444                   22814877.7664
        40.5004         37.2504
  -3451976.62547  -2592576.02745  22574791.9694                   22574789.6524
        46.5004         32.2504
   1247789.648 5                  25070176.453
        33.500
  -1158304.32448   -849136.78548  20494816.2034                   20494817.6134
        51.7504         51.2504
  -1070047.30948   -765467.60247  21261524.9144                   21261526.2544
        49.7504         47.7504
    495584.60546    454193.00844  24612823.0234                   24612827.6024
        36.7504         29.2504
     84503.46546    202381.50843  23399656.8984                   23399659.8134
        40.7504         22.5004
  -2995829.21945  -2334440.33644  24625197.3444                   24625205.1644
        34.5004         26.0004
   3978829.36356   3307890.71553  24757204.8754                   24757207.7034
        36.7504         20.0004
    482238.30946    422627.71546  23271229.4774                   23271234.6294
        41.5004         36.5004
  -3754690.22747  -2835695.21544  22762117.7034                   22762119.8914
        42.5004         29.0004
 25  8  5 20  7 30.0000000  0 10G08G02G32G10G24G23G31G01G27G28
   -854180.78546   -608550.22346  22773286.8754                   22773291.4064
        41.5004         36.0004
  -3787687.61347  -2854168.96545  22510908.0394                   22510906.0664
        46.0004         33.0004
  -1404081.25848  -1040651.28148  20448046.6564                   20448047.8364
        52.5004         51.2504
  -1309742.25048   -952242.90647  21215912.0314                   21215913.9654
        50.5004         47.7504
    322230.33645    319111.68844  24579834.9924                   24579839.9884
        35.5004         29.0004
   -108342.41446     52111.86743  23362959.1484                   23362962.4104
        41.0004         22.2504
  -3371398.71946  -2627091.60544  24553729.4534                   24553735.5704
        36.7504         27.5004
   3612581.33646   3022502.69343  24687509.6564                   24687513.2424
        38.5004         21.2504
    306218.98446    285469.67646  23237733.8284                   23237739.6024
        40.7504         36.0004
  -4110084.74247  -3112625.85544  22694488.0164                   22694490.3324
        42.5004         28.5004
 25  8  5 20  8  0.0000000  0 11G08G02G18G32G10G24G23G31G01G27G28
    503197.10547    449146.75046  23031587.0004                   23031591.6644
        42.0004         36.5004
  -2547635.23847  -1887894.32845  22746882.4384                   22746880.6134
        45.5004         31.0004
                                  25311864.203
        31.250
    -73955.43048     -4189.60548  20701161.3204                   20701162.4144
        52.2504         51.2504
     26234.82048     88778.16447  21470140.6884                   21470142.1884
        50.7504         47.7504
   1724748.73846   1411983.12144  24846725.5944                   24846729.9144
        36.7504         29.0004
   1274411.75046   1129582.52343  23626088.6954                   23626091.8714
        40.7504         22.7504
  -2171536.84046  -1692134.00444  24782054.2894                   24782062.0234
        38.0004         28.5004
   4821859.07446   3964797.09843  24917627.3444                   24917630.7114
        39.0004         20.0004
   1705875.72746   1376111.16046  23504080.7344                   23504085.3984
        41.2504         36.5004
  -2889742.02747  -2161709.31244  22926711.6724                   22926714.0234
        43.0004         28.5004
 25  8  5 20  8 30.0000000  0 11G08G02G18G32G10G24G23G31G01G27G28
    285632.19546    279615.56346  22990185.5704                   22990190.8444
        41.5004         36.7504
  -2882684.20347  -2148971.38345  22683124.3914                   22683123.0594
        45.7504         31.5004
   2365448.629 4                  25282856.984
        25.750
   -318788.94948   -194968.97748  20654570.9694                   20654572.1054
        52.0004         51.0004
   -212976.12148    -97619.98447  21424620.0314                   21424621.5704
        50.5004         47.5004
   1552281.12546   1277592.72344  24813905.3984                   24813910.5124
        37.5004         28.5004
   1081908.86346    979580.12543  23589456.3834                   23589459.9964
        39.7504         22.5004
  -2547109.93046  -1984788.09044  24710585.3054                   24710592.6884
        40.5004         29.5004
   4455795.90646   3679553.09443  24847967.3594                   24847971.1374
        39.0004         20.5004
   1530349.22746   1239337.14146  23470679.1484                   23470683.9304
        41.5004         37.2504
  -3244527.04747  -2438165.03144  22859197.7664                   22859200.3484
        42.0004         28.0004
 25  8  5 20  9  0.0000000  0 11G08G02G18G32G10G24G23G31G01G27G28
     68548.66047    110459.49246  22948876.8364                   22948880.7304
        42.2504         37.0004
  -3217401.90247  -2409790.33245  22619429.6954                   22619427.8914
        46.0004         31.5004
   2213200.19545   2334855.10553  25253888.6024                   25253898.3284
        33.0004         18.5004
   -563155.92248   -385384.81248  20608069.2344                   20608070.5234
        52.0004         51.0004
   -451947.54348   -283831.51247  21379145.2274                   21379146.9384
        49.7504         47.5004
   1380249.71146   1143542.20344  24781169.7344                   24781174.0514
        37.0004         27.5004
    889574.51646    829709.06643  23552856.9844                   23552859.8054
        39.5004         22.0004
  -2922684.00046  -2277442.93744  24639116.0164                   24639122.8954
        40.5004         29.2504
   4089825.04346   3394381.03143  24778325.7194                   24778329.2154
        38.5004         18.5004
   1355061.44546   1102749.12146  23437323.1644                   23437327.4654
        41.2504         37.0004
  -3599005.74647  -2714382.05544  22791743.2664                   22791745.1524
        42.0004         28.2504
 25  8  5 20  9 30.0000000  0 10G08G02G32G10G24G23G31G01G27G28
   -148060.55147    -58326.99246  22907657.6724                   22907661.7704
        42.2504         37.0004
  -3551791.19947  -2670353.37145  22555797.8204                   22555795.4104
        45.7504         31.5004
   -807062.55948   -575441.93748  20561655.3914                   20561656.7934
        52.0004         51.2504
   -690683.89548   -469859.85547  21333715.4614                   21333717.0314
        50.5004         47.5004
   1208646.95746   1009825.70744  24748514.4614                   24748519.5164
        37.5004         27.5004
    697404.14546    679965.80143  23516287.8204                   23516290.8914
        40.0004         21.2504
  -3298260.83646  -2570099.93044  24567645.9384                   24567652.4304
        40.7504         28.2504
   3723943.66046   3109278.66842  24708701.1644                   24708704.4614
        38.7504         17.7504
   1180004.49646    966340.98846  23404010.6174                   23404015.9024
        40.5004         36.7504
  -3953179.82047  -2990361.71944  22724345.4614                   22724347.6684
        42.5004         29.5004
 25  8  5 20 10  0.0000000  0 10G08G02G32G10G24G23G31G01G27G28
   -364199.52346   -226747.04746  22866527.4844                   22866532.0594
        41.5004         37.2504
  -3885851.33247  -2930659.91845  22492227.7974                   22492225.9654
        45.5004         32.7504
  -1050511.98848   -765142.79748  20515328.4384                   20515329.5434
        51.5004         51.0004
   -929186.43748   -655706.01247  21288329.6024                   21288331.3444
        50.0004         47.5004
   1037468.35446    876439.74744  24715940.2034                   24715945.1174
        38.2504         26.5004
    505396.07046    530348.99243  23479750.1254                   23479753.3484
        40.2504         22.7504
  -3673839.36346  -2862758.25044  24496174.1724                   24496181.8874
        40.5004         26.0004
   3358152.09046   2824246.30143  24639092.7034                   24639096.4924
        37.7504         18.2504
   1005173.68046    830109.06346  23370741.5554                   23370746.8404
        41.5004         37.2504
  -4307047.86347  -3266102.90244  22657006.8204                   22657008.9924
        43.0004         28.7504
 25  8  5 20 10 30.0000000  0 10G08G02G32G10G24G23G31G01G27G28
   -579872.22747   -394803.77746  22825486.4064                   22825491.2034
        42.7504         37.7504
  -4219582.07447  -3190709.78545  22428721.0234                   22428719.6414
        44.5004         32.2504
  -1293507.36748   -954489.84848  20469088.0944                   20469089.3324
        52.5004         51.0004
  -1167456.57848   -841371.07847  21242988.4304                   21242989.9844
        50.2504         47.5004
    866709.48046    743380.85544  24683446.4224                   24683450.5784
        38.0004         25.0004
    313548.68446    380857.39143  23443243.0394                   23443246.0594
        40.0004         22.5004
  -4049418.68046  -3155417.15244  24424704.1094                   24424711.4224
        41.0004         26.5004
   2992450.53546   2539284.08642  24569502.1174                   24569505.5234
        38.0004         16.7504
    830564.16046    694049.56346  23337514.6954                   23337519.5864
        41.0004         37.0004
  -4660608.53947  -3541604.59445  22589726.4774                   22589728.9574
        43.2504         30.5004
 25  8  5 20 11  0.0000000  0 10G08G02G32G10G24G23G31G01G27G28
    780350.21947    665109.73046  23084328.3204                   23084333.2194
        43.0004         37.0004
  -2977546.17247  -2222889.55545  22665072.6484                   22665070.5784
        45.2504         32.0004
     39381.97748     84125.22348  20722728.4224                   20722729.7544
        52.0004         51.0004
    169938.12948    200754.65247  21497486.4384                   21497488.1604
        50.0004         47.2504
   2271797.27746   1838254.41844  24950826.0234                   24950830.2234
        36.7504         25.5004
   1697292.60546   1459099.28543  23706561.0784                   23706563.8284
        40.5004         22.5004
  -2849559.38746  -2220461.59844  24653029.8054                   24653036.1134
        41.0004         25.0004
   4202277.31646   3482006.32842  24799724.7114                   24799727.3674
        38.5004         17.2504
   2231602.74246   1785767.80546  23604123.3054                   23604128.4024
        41.2504         37.2504
  -3438422.96147  -2589252.06644  22822300.7114                   22822302.6884
        43.0004         29.5004
 25  8  5 20 11 30.0000000  0 10G08G02G32G10G24G23G31G01G27G28
    565609.19546    497778.98446  23043464.7504                   23043468.7624
        41.7504         37.2504
  -3310605.26647  -2482416.08645  22601693.7344                   22601691.2304
        45.5004         31.7504
   -202703.47348   -104512.80148  20676661.1804                   20676662.2344
        51.5004         51.0004
    -67859.75048     15457.57847  21452234.6334                   21452236.4144
        49.7504         47.2504
   2101875.63746   1705847.92244  24918490.6644                   24918495.4384
        37.5004         24.7504
   1505773.21946   1309863.26643  23670115.4454                   23670119.0084
        41.2504         22.5004
  -3225125.54346  -2513110.29344  24581561.4454                   24581568.0274
        40.5004         25.5004
   3836768.13346   3197194.05543  24730170.3914                   24730173.1954
        38.0004         18.5004
   2057432.83646   1650050.86346  23570980.1564                   23570985.7624
        41.0004         36.7504
  -3791353.52047  -2864262.75844  22755139.5234                   22755141.7464
        43.7504         29.0004
 25  8  5 20 12  0.0000000  0 10G08G02G32G10G24G23G31G01G27G28
    351326.20346    330805.14146  23002688.0784                   23002692.2194
        41.7504         36.7504
  -3643329.10247  -2741681.37945  22538378.7664                   22538376.2854
        45.0004         32.2504
   -444340.50448   -292801.39848  20630679.0554                   20630680.2934
        51.2504         51.0004
   -305425.19148   -169658.37147  21407027.3594                   21407029.1954
        49.5004         47.2504
   1932364.23446   1573761.10943  24886233.5394                   24886238.3674
        37.5004         22.7504
   1314413.71546   1160751.84043  23633701.7274                   23633704.9224
        41.2504         22.7504
  -3600685.34846  -2805753.99644  24510094.9924                   24510101.0904
        40.5004         26.5004
   3471353.80946   2912455.73443  24660634.0864                   24660637.2814
        38.5004         19.2504
   1883473.81646   1514498.24246  23537876.2894                   23537882.1214
        41.0004         36.5004
  -4143968.71547  -3139027.72344  22688039.1414                   22688040.9414
        44.5004         29.5004
 25  8  5 20 12 30.0000000  0 10G08G02G32G10G24G23G31G01G27G28
    137492.77047    164181.60946  22961996.5634                   22962001.3134
        42.2504         36.5004
  -3975722.58247  -3000689.23445  22475126.0234                   22475124.0664
        46.0004         32.5004
   -685536.59848   -480746.41048  20584781.0234                   20584782.1804
        51.0004         51.0004
   -542763.89548   -354597.63347  21361863.3834                   21361865.2974
        48.2504         47.0004
   1763254.03145   1441986.87143  24854053.2194                   24854057.3714
        35.5004         21.5004
   1123208.03546   1011760.28543  23597316.5704                   23597319.8674
        41.5004         22.7504
  -3976241.93746  -3098395.18444  24438628.6414                   24438635.0044
        39.7504         26.7504
   3106030.27046   2627788.15243  24591115.4454                   24591118.3874
        39.0004         19.5004
   1709716.55546   1379102.84446  23504811.9844                   23504817.2274
        40.7504         36.2504
  -4496271.56247  -3413549.31644  22620998.4384                   22621000.4344
        43.7504         29.2504
 25  8  5 20 13  0.0000000  0 10G08G02G32G10G24G23G31G01G27G28
    -75895.35246     -2094.93045  22921390.1954                   22921394.4654
        41.0004         35.7504
  -4307784.92647  -3259439.05945  22411936.5474                   22411934.6644
        44.7504         32.5004
   -926295.16848   -668350.50048  20538966.1334                   20538967.1254
        49.5004         51.0004
   -779877.29747   -539361.34447  21316742.1954                   21316744.0904
        47.2504         47.0004
   1594540.49645   1310521.75443  24821947.8754                   24821952.6174
        34.2504         20.2504
    932154.50847    862887.29344  23560960.1174                   23560963.6994
        42.0004         24.0004
  -4351794.40246  -3391033.14844  24367162.9454                   24367169.5824
        39.0004         26.7504
   2740797.80146   2343191.52343  24521613.3364                   24521616.6414
        40.7504         20.2504
   1536156.10946   1243860.79746  23471784.7194                   23471789.8094
        41.2504         36.5004
  -4848260.87547  -3687826.58244  22554017.0164                   22554018.7114
        44.7504         29.2504
 25  8  5 20 13 30.0000000  0 10G08G02G32G10G24G23G31G01G27G28
   -288841.17646   -168026.82045  22880867.9614                   22880872.7194
        40.7504         35.5004
  -4639514.21947  -3517929.36745  22348810.4304                   22348808.6564
        44.5004         33.0004
  -1166618.30948   -855615.30148  20493234.2584                   20493235.3054
        51.5004         51.0004
  -1016765.67248   -723949.70747  21271664.0474                   21271666.1374
        49.2504         47.0004
   1426220.14545   1179362.98843  24789917.8594                   24789922.0274
        34.7504         20.2504
    741252.56347    714132.39543  23524632.5004                   23524636.7504
        42.0004         22.5004
  -4727340.60946  -3683666.21544  24295698.1954                   24295705.3794
        38.2504         26.0004
   2375657.67246   2058666.87143  24452130.0864                   24452133.1564
        40.5004         21.0004
   1362788.74646   1108769.21946  23438793.8444                   23438799.1334
        39.7504         36.2504
  -5199934.19147  -3961857.62145  22487095.3204                   22487097.2274
        43.7504         30.0004
 25  8  5 20 14  0.0000000  0 10G08G02G32G10G24G23G31G01G27G28
   1074077.78546    893987.86345  23140222.8594                   23140227.8484
        40.7504         35.5004
  -3395479.93047  -2548551.94945  22585542.3204                   22585540.3674
        44.5004         31.7504
    168918.30948    185062.57048  20747378.3594                   20747379.4384
        51.5004         50.7504
    321997.15248    319242.08247  21526422.0864                   21526423.8164
        49.5004         47.2504
   2833713.62945   2276111.05943  25057755.6334                   25057760.2704
        34.5004         20.7504
   2125926.50046   1793098.98443  23788128.0084                   23788131.0044
        41.7504         22.5004
  -3527447.21946  -2748683.98444  24524030.4144                   24524037.2114
        39.0004         27.2504
   3586042.00446   3001823.54343  24682458.2274                   24682461.3244
        41.0004         20.5004
   2765035.12146   2201428.59046  23705633.1724                   23705638.1254
        40.7504         36.2504
  -3975858.94147  -3008032.65645  22720029.2424                   22720030.9694
        44.0004         30.0004
 25  8  5 20 14 30.0000000  0  9G08G02G32G10G23G31G01G27G28
    862002.46946    728734.28545  23099866.5164                   23099870.7734
        40.5004         35.2504
  -3726544.43447  -2806524.25445  22522542.3524                   22522540.6564
        45.5004         32.2504
    -70545.34448     -1532.49648  20701809.8594                   20701811.5084
        51.5004         51.0004
     85553.26648    135000.07447  21481428.2504                   21481430.0664
        49.7504         47.0004
   1935321.21546   1644575.26243  23751857.3134                   23751860.8984
        41.5004         22.7504
  -3902979.18046  -3041305.95744  24452568.9064                   24452575.6294
        39.0004         27.2504
   3221085.93846   2717442.27043  24613009.3834                   24613012.5784
        40.5004         19.5004
   2592037.98446   2066625.50046  23672712.6954                   23672718.2854
        41.5004         36.0004
  -4326897.98847  -3281569.47345  22653229.0634                   22653230.1484
        44.0004         30.0004
 25  8  5 20 15  0.0000000  0  9G08G02G32G10G23G31G01G27G28
    650357.02746    563815.66445  23059591.7194                   23059595.7854
        41.2504         35.5004
  -4057275.00047  -3064236.34045  22459606.9844                   22459604.6054
        44.5004         33.0004
   -309583.20348   -187795.77748  20656322.5234                   20656323.7734
        51.5004         51.0004
   -150669.43748    -49069.58247  21436476.7664                   21436478.4964
        50.5004         46.7504
   1744862.75047   1496165.95343  23715614.1254                   23715617.7624
        42.2504         22.5004
  -4278501.38346  -3333920.30945  24381109.3134                   24381115.3014
        40.5004         30.0004
   2856223.30146   2433133.77342  24543578.4534                   24543581.1094
        39.0004         17.7504
   2419219.67646   1931961.74646  23639826.5234                   23639831.7624
        40.7504         36.2504
  -4677617.04347  -3554856.94945  22586488.9304                   22586490.8594
        43.7504         30.0004
 25  8  5 20 15 30.0000000  0  9G08G02G32G10G23G31G01G27G28
    439140.13346    399230.98446  23019398.8444                   23019403.1604
        41.7504         36.2504
  -4387668.27347  -3321685.60245  22396735.1804                   22396733.1294
        44.5004         32.5004
   -548195.73448   -373727.62948  20610916.2034                   20610917.5204
        51.5004         51.0004
   -386669.52048   -232965.77347  21391567.4064                   21391569.0314
        49.0004         47.0004
   1554552.31346   1347871.97743  23679399.2274                   23679402.4694
        41.0004         22.5004
  -4654010.04746  -3626524.12945  24309651.6254                   24309657.9144
        41.2504         30.5004
   2491457.30546   2148900.57043  24474165.4694                   24474168.3794
        37.2504         18.5004
   2246578.20746   1797435.78546  23606973.8204                   23606979.5664
        40.5004         36.2504
  -5028011.93447  -3827891.84044  22519810.4614                   22519812.5354
        43.7504         29.7504
 25  8  5 20 16  0.0000000  0  9G08G02G32G10G23G31G01G27G28
    228348.89546    234977.98446  22979286.9774                   22979291.2814
        41.7504         36.0004
  -4717722.41447  -3578870.60245  22333927.7894                   22333925.6254
        45.5004         33.0004
   -786384.85548   -559329.55948  20565590.0474                   20565591.4774
        51.2504         51.0004
   -622446.89848   -416688.43447  21346700.4534                   21346702.3284
        50.0004         47.0004
   1364389.52047   1199693.04743  23643212.3594                   23643216.0004
        42.0004         23.2504
  -5029502.66046  -3919115.43045  24238197.5084                   24238203.8014
        41.2504         30.5004
   2126789.58645   1864744.01642  24404771.3444                   24404774.9144
        34.5004         17.2504
   2074110.10246   1663044.91846  23574154.4384                   23574160.0234
        40.7504         36.2504
  -5378080.09447  -4100672.12545  22453195.3054                   22453196.7464
        44.7504         30.5004
 25  8  5 20 16 30.0000000  0  9G08G02G32G10G23G31G01G27G28
     17982.99647     71056.41446  22939255.3204                   22939259.4774
        43.2504         36.0004
  -5047433.19547  -3835788.05545  22271185.9534                   22271183.9804
        45.0004         33.0004
  -1024149.93048   -744601.06248  20520345.2034                   20520346.2464
        51.5004         51.0004
   -857998.99248   -600235.53947  21301876.5474                   21301878.1804
        49.2504         47.0004
   1174376.72746   1051630.99244  23607054.6334                   23607057.7814
        41.5004         24.5004
  -5404974.05946  -4211690.19544  24166747.8284                   24166753.5314
        39.5004         29.7504
   1762224.32045   1580667.39542  24335396.1884                   24335400.0984
        31.2504         15.5004
   1901814.54746   1528788.50445  23541368.2734                   23541373.5904
        39.5004         35.2504
  -5727816.23847  -4373193.70745  22386642.5004                   22386644.3674
        44.2504         30.7504
 25  8  5 20 17  0.0000000  0  9G08G02G32G10G23G31G01G27G28
   1383463.87547   1135067.40646  23199097.7274                   23199102.4144
        42.0004         36.0004
  -3801370.62147  -2864830.16045  22508303.9844                   22508301.4804
        45.2504         32.5004
    313932.22748    298060.34848  20774973.5394                   20774975.0124
        51.7504         51.0004
    482099.30548    443996.87147  21556888.8834                   21556890.8484
        49.0004         47.0004
   2559937.14546   2131288.34843  23870718.0164                   23870721.4454
        41.5004         22.2504
  -4204992.20746  -3276639.03544  24395096.2504                   24395102.1054
        39.5004         29.0004
   2973192.64845   2524279.15642  24565835.2814                   24565839.8094
        34.7504         16.2504
   3305110.92646   2622266.05545  23808406.5004                   23808411.6094
        41.0004         34.5004
  -4501788.94147  -3417847.67245  22619947.4144                   22619949.0354
        43.2504         30.5004
 25  8  5 20 17 30.0000000  0  9G08G02G32G10G23G31G01G27G28
   1173930.86746    971794.85246  23159224.8364                   23159230.0784
        40.7504         36.5004
  -4130398.78147  -3121215.69945  22445691.1644                   22445689.4734
        45.0004         33.2504
     77000.17648    113437.96148  20729886.9144                   20729888.1684
        49.5004         51.0004
    246988.62547    260793.72347  21512149.0164                   21512150.6374
        47.5004         47.0004
   2370214.19946   1983452.16843  23834614.5004                   23834618.2344
        40.7504         22.0004
  -4580423.52746  -3569182.57444  24323653.9534                   24323659.6414
        38.5004         27.0004
   2608828.42646   2240359.08243  24496500.1484                   24496503.7894
        37.7504         20.0004
   3133140.72746   2488263.15245  23775681.6954                   23775687.1724
        40.0004         34.5004
  -4850862.52747  -3689852.97745  22553521.1484                   22553522.4964
        44.5004         30.0004
 25  8  5 20 18  0.0000000  0  9G08G02G32G10G23G31G01G27G28
    964808.51646    808842.27346  23119430.3674                   23119435.2504
        40.2504         36.5004
  -4459084.46947  -3377334.37545  22383145.1174                   22383142.9804
        45.2504         33.2504
   -159519.78148    -70863.31248  20684878.7974                   20684880.1094
        51.5004         51.0004
     12097.28548     77761.49247  21467450.4614                   21467452.0864
        49.7504         47.0004
   2180634.21146   1835727.37144  23798538.7194                   23798542.8094
        41.5004         24.0004
  -4955832.50846  -3861708.73044  24252215.5554                   24252221.1844
        37.2504         26.2504
   2244565.74246   1956518.14143  24427183.0314                   24427186.1644
        38.7504         22.5004
   2961326.59446   2354381.85945  23742986.4384                   23742991.9574
        40.0004         34.0004
  -5199602.37947  -3961598.22345  22487157.9144                   22487159.8134
        44.2504         30.5004
 25  8  5 20 18 30.0000000  0  9G08G02G32G10G23G31G01G27G28
    756090.73046    646204.95346  23079712.2274                   23079717.8674
        41.2504         36.0004
  -4787429.07447  -3633187.27345  22320662.7814                   22320660.6994
        44.7504         34.2504
   -395632.65248   -254847.37548  20639947.8754                   20639949.0744
        50.7504         51.0004
   -222577.81248   -105102.25047  21422792.8914                   21422794.7304
        49.0004         47.0004
   1991193.85546   1688111.39143  23762489.8204                   23762493.7034
        41.0004         23.5004
  -5331219.59046  -4154217.82444  24180781.4844                   24180786.7504
        38.5004         27.0004
   1880403.37546   1672755.35244  24357885.4534                   24357888.3404
        40.0004         24.2504
   2789661.98446   2220617.09045  23710320.8364                   23710325.6484
        39.5004         33.2504
  -5548008.91847  -4233083.75445  22420858.5234                   22420860.1374
        44.5004         30.5004
 25  8  5 20 19  0.0000000  0  9G08G02G32G10G23G31G01G27G28
    547775.23846    483881.10246  23040070.9454                   23040076.6764
        40.0004         36.2504
  -5115430.14847  -3888772.48845  22258246.1564                   22258244.4144
        44.5004         33.2504
   -631339.89848   -438515.36748  20595094.7274                   20595095.3674
        51.0004         50.7504
   -457036.04748   -287797.00447  21378177.0864                   21378179.0864
        49.0004         47.0004
   1801893.38746   1540604.41843  23726466.9694                   23726470.5664
        41.2504         23.7504
  -5706582.02346  -4446707.70344  24109351.5234                   24109357.7304
        38.2504         28.5004
   1516343.55146   1389072.46943  24288607.0234                   24288610.2424
        40.0004         23.7504
   2618144.11346   2086966.64545  23677681.6484                   23677687.3444
        40.0004         34.2504
  -5896078.96147  -4504307.08245  22354622.8594                   22354624.2504
        44.0004         30.2504
 25  8  5 20 19 30.0000000  0  9G08G02G32G10G23G31G01G27G28
    339858.43046    321867.89845  23000506.0394                   23000511.4384
        39.5004         35.2504
  -5443086.69547  -4144089.24245  22195895.3204                   22195893.2074
        45.2504         33.5004
   -866644.03548   -621869.25048  20550317.5394                   20550318.5904
        51.5004         50.7504
   -691277.96948   -470323.20347  21333602.3984                   21333604.2344
        49.2504         47.0004
   1612731.91446   1393205.74243  23690471.9064                   23690475.4654
        40.2504         22.5004
  -6081917.33246  -4739176.42244  24037927.8284                   24037933.7624
        39.7504         29.7504
   1152387.38346   1105470.35543  24219348.4454                   24219351.6564
        39.5004         22.7504
   2446768.82846   1953427.31345  23645069.9304                   23645075.3484
        40.0004         34.2504
  -6243810.53947  -4775266.65644  22288451.4694                   22288453.4964
        44.5004         29.7504
 25  8  5 20 20  0.0000000  0  9G08G02G32G10G23G31G01G27G28
   1707763.01246   1387767.47345  23260809.6334                   23260814.6054
        40.7504         35.0004
  -4194967.18047  -3171528.54345  22433404.5944                   22433402.6484
        44.7504         33.5004
    473879.45348    422694.49648  20805410.5394                   20805411.7114
        51.5004         50.7504
    650122.94948    574924.24647  21588862.7584                   21588864.2384
        49.2504         47.0004
   2999134.12546   2473519.04343  23954295.0394                   23954299.0204
        41.0004         22.5004
  -4881792.07446  -3804013.53145  24266303.8284                   24266309.7624
        39.0004         31.2504
   2363967.49646   2049558.87143  24449904.4064                   24449907.3444
        38.7504         22.2504
   3850957.19546   3047599.91445  23912278.4924                   23912283.9924
        38.7504         34.0004
  -5015770.79747  -3818352.47745  22522139.8054                   22522141.3634
        44.5004         30.7504
 25  8  5 20 20 30.0000000  0  9G08G02G32G10G23G31G01G27G28
   1500632.42646   1226366.91445  23221394.6954                   23221399.2544
        39.5004         35.7504
  -4521931.48847  -3426305.89145  22371185.2664                   22371183.2664
        44.7504         33.5004
    239373.15248    239962.30548  20760785.6804                   20760786.8164
        49.7504         50.7504
    416311.44947    392733.44147  21544369.8134                   21544371.5434
        47.5004         46.7504
   2810247.36746   2326334.43843  23918351.1174                   23918355.3834
        40.5004         22.7504
  -5257068.62146  -4096436.48045  24194890.8594                   24194896.5554
        40.5004         32.5004
   2000221.56346   1766120.58643  24380684.9694                   24380688.8794
        39.2504         21.5004
   3679854.58246   2914273.04745  23879718.5314                   23879724.0474
        38.7504         33.5004
  -5362819.97347  -4088780.32445  22456097.8914                   22456099.9384
        45.0004         30.2504
 25  8  5 20 21  0.0000000  0  9G08G02G32G10G23G31G01G27G28
   1293888.32846   1065267.52045  23182053.0704                   23182057.3834
        40.5004         35.0004
  -4848549.39147  -3680813.30145  22309031.9844                   22309030.1724
        45.5004         34.7504
      5260.65648     57536.96948  20716235.3284                   20716236.4924
        49.5004         50.5004
    182713.10947    210708.73047  21499917.5314                   21499919.2384
        47.2504         46.7504
   2621495.32846   2179254.79743  23882433.2034                   23882437.0234
        41.5004         22.7504
  -5632314.18046  -4388835.30145  24123484.4064                   24123489.8554
        40.2504         32.5004
   1636581.29746   1482764.63743  24311487.5314                   24311490.1134
        40.5004         22.0004
   3508880.97746   2781046.70345  23847183.6484                   23847189.1804
        38.2504         33.2504
  -5709526.26647  -4358940.97745  22390122.2664                   22390123.9534
        45.0004         30.5004
 25  8  5 20 21 30.0000000  0  9G08G02G32G10G23G31G01G27G28
   1087528.57846    904467.62545  23142783.4844                   23142788.6994
        40.2504         35.5004
  -5174818.35247  -3935048.82045  22246945.1254                   22246942.8094
        44.2504         34.5004
   -228459.23048   -124582.43748  20671760.1644                   20671761.4384
        50.2504         50.7504
    -50671.22348     28850.78547  21455505.6804                   21455507.5594
        48.7504         46.7504
   2432878.56646   2032280.57043  23846540.3364                   23846544.1604
        40.5004         22.7504
  -6007525.32046  -4681207.31245  24052083.6884                   24052089.0204
        39.5004         31.0004
   1273049.29746   1199492.98043  24242309.5234                   24242311.6374
        41.2504         22.5004
   3338033.77746   2647918.85545  23814672.0554                   23814677.9224
        38.5004         33.7504
  -6055886.22747  -4628831.76645  22324211.7734                   22324213.0664
        44.0004         32.2504
 25  8  5 20 22  0.0000000  0  9G08G02G32G10G23G31G01G27G28
    881548.57846    743963.62945  23103587.2974                   23103592.1334
        40.5004         35.7504
  -5500738.31647  -4189012.39545  22184924.6254                   22184922.0394
        45.0004         33.5004
   -461790.08648   -306398.70348  20627359.1174                   20627360.4804
        51.2504         50.5004
   -283843.10248   -152841.60947  21411134.4304                   21411136.6054
        48.7504         46.7504
   2244395.16846   1885410.26643  23810673.2584                   23810677.4774
        40.5004         22.5004
  -6382701.00446  -4973551.68444  23980689.6254                   23980694.7034
        39.0004         29.7504
    909625.76647    916305.87543  24173151.9924                   24173154.4224
        42.2504         22.5004
   3167308.06646   2514885.66845  23782184.8204                   23782190.3554
        38.2504         32.7504
  -6401898.83647  -4898451.89145  22258368.3054                   22258369.4844
        45.2504         31.2504
 25  8  5 20 22 30.0000000  0  9G08G02G32G10G23G31G01G27G28
    675945.64846    583753.45746  23064462.1954                   23064467.1764
        40.5004         36.0004
  -5826307.12547  -4442702.35545  22122970.4384                   22122968.1134
        44.5004         33.7504
   -694733.64848   -487913.17648  20583031.1094                   20583032.5044
        50.5004         50.7504
   -516802.11348   -334368.14547  21366804.4384                   21366805.8754
        48.7504         47.0004
   2056045.12546   1738643.86343  23774831.2584                   23774835.3954
        40.7504         23.2504
  -6757838.84046  -5265866.57444  23909302.8984                   23909307.8244
        39.0004         28.5004
    546312.80147    633204.92643  24104016.1954                   24104018.6604
        43.2504         23.2504
   2996700.56346   2381944.59045  23749719.0704                   23749724.9694
        38.0004         34.0004
  -6747561.29747  -5167799.18045  22192590.5394                   22192591.9574
        44.5004         30.7504
 25  8  5 20 23  0.0000000  0  9G08G02G32G10G23G31G01G27G28
   2046144.07046   1651440.43445  23325202.0164                   23325207.1644
        39.5004         35.5004
  -4576091.89147  -3468508.62545  22360878.8674                   22360876.7344
        44.2504         33.5004
    648136.30148    558478.96948  20838570.7424                   20838571.8244
        50.7504         50.5004
    825880.01647    711877.64147  21622308.2814                   21622310.0554
        47.7504         46.7504
   3443254.88746   2819586.37944  24038808.4924                   24038812.5664
        40.2504         24.2504
  -5557502.96146  -4330539.59444  24137719.4144                   24137724.0744
        39.0004         29.0004
   1758544.68447   1577801.28543  24334696.1254                   24334698.7544
        42.5004         22.7504
   4401634.08646   3476697.81645  24017068.7734                   24017074.9414
        38.0004         34.0004
  -5517439.05947  -4209262.27745  22426675.0784                   22426676.5004
        46.0004         31.7504
 25  8  5 20 23 30.0000000  0  9G08G02G32G10G23G31G01G27G28
   1841286.57446   1491811.10945  23286219.4224                   23286224.7734
        39.7504         35.0004
  -4900952.59847  -3721646.80945  22299059.8134                   22299057.6804
        44.5004         34.0004
    415961.72348    377563.70748  20794389.1884                   20794390.8444
        50.5004         50.5004
    593347.32047    530683.30547  21578058.7814                   21578060.4064
        47.0004         46.7504
   3255171.04746   2673027.41043  24003017.9694                   24003021.8874
        39.5004         23.2504
  -5932556.32846  -4622788.67645  24066348.3204                   24066353.9534
        38.5004         30.0004
   1395458.54746   1294877.09843  24265602.6954                   24265605.6764
        41.7504         22.2504
   4231253.35946   3343933.44545  23984647.7034                   23984653.4534
        38.7504         34.5004
  -5862393.12547  -4478057.55945  22361032.6804                   22361034.0164
        45.7504         32.2504
 25  8  5 20 24  0.0000000  0  9G08G02G32G10G23G31G01G27G28
   1636796.90646   1332468.41045  23247306.4924                   23247311.1914
        39.2504         35.2504
  -5225457.38347  -3974507.64545  22237308.3364                   22237306.5984
        44.5004         33.5004
    184168.18048    196945.35248  20750280.9304                   20750281.8914
        50.0004         50.5004
    361027.42647    349654.78547  21533849.7894                   21533852.0904
        47.7504         46.7504
   3067219.46946   2526571.50043  23967251.7894                   23967255.9414
        40.0004         23.0004
  -6307564.14146  -4915002.26645  23994986.7114                   23994991.7544
        40.0004         30.2504
   1032488.21146   1012043.17243  24196531.7274                   24196534.8674
        39.7504         23.7504
   4060980.47346   3211253.10245  23952245.7734                   23952251.1414
        39.7504         35.0004
  -6206989.54347  -4746574.16045  22295458.2274                   22295459.0044
        45.5004         32.0004
 25  8  5 20 24 30.0000000  0  9G08G02G32G10G23G31G01G27G28
   1432672.64546   1173410.44546  23208462.7274                   23208468.1254
        39.7504         36.2504
  -5549603.73447  -4227089.18745  22175625.2814                   22175623.1994
        45.0004         33.5004
    -47245.67248     16622.85948  20706243.8134                   20706245.1134
        51.0004         50.5004
    128921.11348    168792.69547  21489681.1804                   21489683.0744
        48.0004         46.7504
   2879400.43846   2380218.87143  23931511.0394                   23931514.9654
        39.7504         22.2504
  -6682523.16446  -5207177.85245  23923634.2424                   23923638.7934
        40.7504         30.0004
    669636.04346    729301.32043  24127482.3054                   24127485.8554
        38.5004         20.0004
   3890812.76246   3078654.71945  23919864.1884                   23919869.4414
        40.0004         34.7504
  -6551225.13347  -5014809.59845  22229951.7424                   22229953.5164
        45.7504         32.0004
 25  8  5 20 25  0.0000000  0  9G08G02G32G10G23G31G01G27G28
   1228909.84046   1014634.13345  23169688.4224                   23169693.5044
        39.2504         35.7504
  -5873390.81647  -4479390.77045  22114010.5634                   22114008.5704
        44.5004         34.7504
   -278282.80548   -163406.08648  20662279.2034                   20662280.1454
        51.2504         50.5004
   -102972.41448    -11903.59047  21445553.6174                   21445555.4924
        48.5004         46.7504
   2691712.71946   2233968.56643  23895795.7734                   23895799.7034
        38.7504         21.5004
  -7057431.68446  -5499314.08645  23852291.2664                   23852296.1094
        41.2504         31.2504
    306903.07046    446652.37143  24058456.8594                   24058460.2344
        39.0004         19.2504
   3720745.84446   2946134.87945  23887501.4064                   23887507.0234
        39.5004         35.5004
  -6895098.22747  -5282762.57045  22164515.1954                   22164516.7344
        45.5004         32.0004
 25  8  5 20 25 30.0000000  0  9G08G02G32G10G23G31G01G27G28
   1025504.95946    856136.71145  23130981.3594                   23130986.9804
        39.7504         35.2504
  -6196817.52047  -4731411.54745  22052464.7504                   22052462.4964
        44.7504         34.0004
   -508945.65648   -343143.39548  20618385.5084                   20618386.5704
        51.7504         50.5004
   -334653.58648   -192434.40247  21401465.7504                   21401468.1054
        48.5004         46.5004
   2504155.57046   2087819.99243  23860104.8524                   23860108.6764
        38.5004         21.5004
  -7432287.40246  -5791409.15645  23780958.7974                   23780962.9924
        41.0004         32.5004
    -55709.30946    164097.34443  23989453.6804                   23989456.8714
        41.0004         20.0004
   3550775.96746   2813690.64345  23855156.8364                   23855163.1804
        39.0004         34.5004
  -7238606.81247  -5550431.51645  22099147.5474                   22099148.8484
        46.2504         32.5004
 25  8  5 20 26  0.0000000  0  9G08G02G32G10G23G31G01G27G28
   2397882.83246   1925521.97346  23392136.0944                   23392141.5234
        39.5004         36.0004
  -4944450.45747  -3755541.07845  22290782.1414                   22290780.1684
        45.5004         34.2504
    836192.31648    705016.05548  20874356.4304                   20874357.4844
        51.5004         50.2504
   1009306.37948    854807.08647  21657213.5394                   21657215.3524
        49.0004         46.7504
   3892155.95746   3169378.57043  24124231.7274                   24124236.7304
        37.0004         21.5004
  -6231654.19146  -4855850.50845  24009431.2894                   24009436.0634
        40.7504         33.5004
   1157233.83246   1109247.91043  24220269.8754                   24220272.1254
        41.2504         19.2504
   4956326.25446   3908924.46545  24122624.5394                   24122630.3634
        40.0004         34.7504
  -6006315.92247  -4590204.76245  22333644.6174                   22333645.9304
        46.0004         32.5004
 25  8  5 20 26 30.0000000  0  9G08G02G32G10G23G31G01G27G28
   2195185.39146   1767575.81345  23353564.9924                   23353570.0204
        39.5004         34.7504
  -5267150.53547  -4006995.66045  22229373.9694                   22229372.4064
        45.0004         34.2504
    606272.44548    525857.69548  20830604.2814                   20830605.8094
        50.2504         50.5004
    778050.82048    674607.91847  21613206.8134                   21613208.7894
        49.0004         46.5004
   3704859.72746   3023433.28943  24088591.2034                   24088595.7074
        37.5004         20.7504
  -6606396.06246  -5147856.87145  23938119.9694                   23938124.1954
        41.0004         33.5004
    794868.89846    826885.67243  24151314.6414                   24151315.9534
        41.5004         20.0004
   4786540.81346   3776623.94145  24090315.1804                   24090321.9844
        39.5004         34.5004
  -6349087.25047  -4857299.22345  22268417.0554                   22268418.3984
        46.2504         32.5004
 25  8  5 20 27  0.0000000  0  9G08G02G32G10G23G31G01G27G28
   1992836.17646   1609900.98846  23315059.0084                   23315064.2154
        39.0004         36.2504
  -5589485.36347  -4258165.62945  22168036.2194                   22168034.1214
        44.5004         34.5004
    376720.18448    346985.79348  20786921.9224                   20786922.9844
        50.2504         50.5004
    547007.43047    494574.07447  21569240.7194                   21569242.6684
        47.2504         46.5004
   3517692.58246   2877588.59443  24052974.7974                   24052979.1294
        36.7504         19.7504
  -6981078.09446  -5439816.59445  23866820.3204                   23866824.6334
        40.5004         33.0004
    432629.65646    544621.37543  24082382.2974                   24082384.2424
        41.5004         21.0004
   4616841.66046   3644390.65645  24058023.0554                   24058029.3634
        39.7504         34.5004
  -6691487.02747  -5124104.17245  22203260.3524                   22203261.9144
        46.2504         32.7504
 25  8  5 20 27 30.0000000  0  9G08G02G32G10G23G31G01G27G28
   1790830.41746   1452493.79846  23276618.4384                   23276623.5234
        39.7504         36.0004
  -5911455.19547  -4509051.19145  22106767.2664                   22106765.3674
        44.5004         33.7504
    147531.86348    168397.48048  20743308.9304                   20743310.0744
        49.7504         50.2504
    316174.63747    314704.33247  21525314.7114                   21525316.8364
        47.2504         46.5004
   3330652.67246   2731843.05543  24017382.5234                   24017386.5664
        38.5004         20.7504
  -7355699.09046  -5731728.76245  23795531.7424                   23795536.1294
        41.0004         32.5004
     70516.24246    262455.20743  24013474.3134                   24013476.2234
        39.5004         19.7504
   4447223.89846   3512220.78945  24025745.7504                   24025752.4964
        40.0004         34.5004
  -7033514.34847  -5390618.89545  22138174.7194                   22138176.4184
        46.2504         32.2504
 25  8  5 20 28  0.0000000  0  9G08G02G32G10G23G31G01G27G28
   1589168.85546   1295354.80545  23238243.6254                   23238249.2384
        41.2504         35.5004
  -6233054.58247  -4759648.09445  22045569.2344                   22045566.6914
        45.0004         34.7504
    -81290.87148     -9905.96548  20699765.3054                   20699766.6374
        50.7504         50.5004
     85556.22348    135001.64147  21481429.3134                   21481431.6374
        49.5004         46.5004
   3143743.32446   2586199.22343  23981814.1564                   23981818.7894
        38.7504         21.0004
  -7730252.89146  -6023588.59045  23724255.9224                   23724260.7734
        41.0004         32.2504
   -291465.71946    -19608.52343  23944590.4614                   23944593.6214
        36.0004         19.5004
   4277687.74246   3380114.50445  23993484.1414                   23993490.5394
        40.0004         34.2504
  -7375163.00847  -5656838.55545  22073161.4304                   22073162.7974
        46.5004         31.7504
 25  8  5 20 28 30.0000000  0  9G08G02G32G10G23G31G01G27G28
   1387846.70746   1138480.28145  23199933.5944                   23199938.7114
        40.7504         35.7504
  -6554283.18047  -5009956.07045  21984440.9694                   21984438.9844
        45.7504         34.5004
   -309751.63748   -187927.35548  20656290.9694                   20656292.0864
        50.7504         50.5004
   -144849.25448    -44535.13347  21437584.8364                   21437586.8984
        49.0004         46.5004
   2956962.67246   2440655.68843  23946271.7814                   23946275.5354
        38.0004         19.7504
  -8104738.41046  -6315395.23045  23652993.9844                   23652998.2934
        40.7504         31.5004
   -653315.82446   -301569.50443  23875732.5864                   23875736.2344
        38.0004         19.0004
   4108228.42646   3248068.09045  23961237.9064                   23961244.1414
        39.5004         35.5004
  -7716432.08247  -5922762.44545  22008219.6724                   22008221.2074
        46.5004         32.5004
 25  8  5 20 29  0.0000000  0  9G08G02G32G10G23G31G01G27G28
   2762288.09446   2209473.46145  23461481.4924                   23461486.1644
        41.0004         35.2504
  -5299708.57847  -4032365.43745  22223178.8054                   22223176.6564
        45.5004         34.0004
   1037575.57848    861937.99248  20912678.5634                   20912679.8284
        50.7504         50.2504
   1200386.44148   1003700.44147  21693574.7194                   21693576.3874
        49.0004         46.5004
   4345737.07846   3522817.39543  24210546.5394                   24210550.8714
        37.7504         19.5004
  -6903720.05146  -5379536.51645  23881540.3444                   23881544.0554
        41.0004         30.5004
    560400.35246    644183.48843  24106696.4384                   24106698.0394
        40.5004         21.2504
   5514268.55946   4343683.58645  24228798.0084                   24228804.3164
        39.0004         34.5004
  -6481887.26247  -4960779.39845  22243145.8524                   22243147.1024
        46.2504         32.0004
 25  8  5 20 29 30.0000000  0  9G08G02G32G10G23G31G01G27G28
   2561637.46946   2053122.21545  23423298.4224                   23423304.0784
        40.0004         35.2504
  -5620189.32047  -4282090.67645  22162193.5864                   22162190.6994
        46.7504         34.7504
    809834.46948    684477.36748  20869340.9304                   20869341.8634
        51.2504         50.2504
    970408.99648    824497.19547  21649811.6884                   21649813.1524
        49.5004         46.5004
   4159214.79346   3377475.19543  24175052.1174                   24175057.0664
        38.5004         19.5004
  -7278058.90246  -5671228.88345  23810305.2734                   23810309.3554
        40.2504         31.7504
    198821.59446    362433.88343  24037889.7274                   24037891.8444
        41.0004         22.5004
   5344954.57846   4211750.42245  24196578.5314                   24196585.0634
        38.2504         33.2504
  -6822387.91447  -5226104.52345  22178350.4844                   22178352.0474
        46.2504         32.2504
 25  8  5 20 30  0.0000000  0  9G08G02G32G10G23G31G01G27G28
   2361317.00046   1897028.22746  23385178.8984                   23385184.3794
        40.0004         36.0004
  -5940294.47747  -4531523.24645  22101279.2504                   22101277.0164
        45.0004         34.5004
    582449.17248    507294.00848  20826070.8834                   20826072.4574
        50.7504         50.2504
    740644.81648    645460.12947  21606089.2274                   21606090.8134
        49.5004         46.5004
   3972820.25446   3232232.52743  24139583.4924                   24139587.5354
        39.0004         19.7504
  -7652321.52046  -5962861.84445  23739085.4454                   23739089.3554
        40.2504         32.0004
   -162619.57046     80791.50043  23969109.1174                   23969112.3364
        41.5004         22.0004
   5175707.27346   4079869.21945  24164372.1484                   24164379.2344
        39.0004         33.5004
  -7162501.55147  -5491128.06245  22113629.1724                   22113630.4804
        46.0004         31.7504
 25  8  5 20 30 30.0000000  0  9G08G02G32G10G23G31G01G27G28
   2161322.85946   1741188.52345  23347121.3134                   23347126.7304
        40.7504         35.5004
  -6260023.02047  -4780662.35245  22040437.1564                   22040434.6454
        45.5004         34.7504
    355416.89148    330385.72348  20782868.2274                   20782869.3834
        51.0004         50.2504
    511093.30948    466588.78547  21562406.9694                   21562408.2544
        49.2504         46.5004
   3786552.42646   3087088.63343  24104137.9224                   24104142.4344
        38.5004         19.2504
  -8026506.10246  -6254433.99645  23667879.6564                   23667884.3444
        39.2504         30.5004
   -523921.92246   -200742.72343  23900355.8444                   23900358.0904
        41.0004         21.0004
   5006522.79346   3948036.95345  24132178.2274                   24132184.1644
        38.2504         32.2504
  -7502226.42247  -5755848.68045  22048981.5784                   22048982.8674
        46.5004         31.7504
 25  8  5 20 31  0.0000000  0  9G08G02G32G10G23G31G01G27G28
   1961653.07046   1585601.55145  23309125.8914                   23309130.7464
        40.2504         35.2504
  -6579372.10947  -5029505.77045  21979666.9144                   21979664.8554
        45.7504         35.0004
    128736.75848    153751.84048  20739732.2734                   20739733.5474
        51.0004         50.2504
    281755.75048    287884.15247  21518765.1334                   21518767.2114
        48.2504         46.2504
   3600412.15646   2942044.10543  24068716.5944                   24068721.1994
        40.7504         18.2504
  -8400608.52746  -6545942.14545  23596690.4774                   23596694.6914
        39.0004         31.2504
   -885082.37146   -482166.37143  23831629.0314                   23831630.9924
        40.5004         20.7504
   4837398.78946   3816251.82045  24099995.0314                   24100001.4384
        37.5004         32.0004
  -7841558.96147  -6020263.57445  21984409.0634                   21984409.6604
        46.5004         32.2504
 25  8  5 20 31 30.0000000  0  9G08G02G32G10G23G31G01G27G28
   1762304.88746   1430265.18046  23271191.0234                   23271196.2384
        40.5004         36.2504
  -6898339.93447  -5278052.10946  21918969.4844                   21918966.9694
        46.0004         36.2504
    -97592.91448    -22608.96148  20696663.2194                   20696664.5594
        51.5004         50.2504
     52632.63748    109346.62147  21475164.8834                   21475166.7544
        49.5004         46.2504
   3414399.57446   2797099.07043  24033319.9144                   24033323.8554
        41.2504         18.5004
  -8774625.84046  -6837383.95745  23525516.8594                   23525521.1994
        38.0004         32.0004
  -1246098.54346   -763477.58643  23762929.6024                   23762932.5944
        40.2504         22.0004
   4668332.48846   3684511.63745  24067822.4694                   24067829.2774
        37.7504         31.7504
  -8180496.25047  -6284370.48445  21919910.9454                   21919912.5234
        46.7504         32.5004
 25  8  5 20 32  0.0000000  0  9G08G02G32G10G23G31G01G27G28
   3138701.08246   2502781.57845  23533110.1334                   23533116.3484
        39.7504         35.2504
  -5641494.78947  -4298692.23045  22158138.8754                   22158136.6024
        45.0004         34.7504
   1251852.62948   1028907.02048  20953454.0234                   20953455.4184
        50.5004         50.2504
   1399151.02048   1158581.68447  21731398.6334                   21731400.5474
        48.2504         46.0004
   4803939.80146   3879857.57043  24297740.5474                   24297744.3484
        40.7504         19.2504
  -7573123.60246  -5901148.21545  23754155.0784                   23754159.6294
        39.7504         31.0004
    -31537.22346    182933.96143  23994053.0864                   23994055.8714
        41.0004         23.0004
   6074745.34046   4780417.55545  24335454.5704                   24335460.8164
        38.7504         32.0004
  -6943605.33647  -5320559.31245  22155283.2664                   22155284.7304
        46.0004         32.2504
 25  8  5 20 32 30.0000000  0  9G08G02G32G10G23G31G01G27G28
   2939983.10246   2347936.27345  23495295.8674                   23495301.5664
        41.2504         35.5004
  -5959698.48847  -4546643.14845  22097586.7504                   22097584.3834
        45.0004         35.0004
   1026214.08248    853084.76248  20910516.6254                   20910518.1054
        51.0004         50.2504
   1170453.62548    980375.87947  21687878.9774                   21687881.1174
        49.0004         46.0004
   4618177.92646   3735107.92243  24262391.7814                   24262395.6174
        41.5004         19.0004
  -7946966.28946  -6192453.98445  23683015.2664                   23683019.4144
        40.0004         31.7504
   -392262.57847    -98150.62144  23925409.7664                   23925411.9844
        42.0004         25.7504
   5905780.73046   4648756.61345  24303301.4454                   24303308.4414
        38.0004         31.5004
  -7281748.53947  -5584047.45345  22090937.3364                   22090938.2854
        46.5004         32.7504
 25  8  5 20 33  0.0000000  0  9G08G02G32G10G23G31G01G27G28
   2741575.75446   2193333.02345  23457539.7274                   23457546.2704
        40.5004         35.2504
  -6277517.31647  -4794294.16045  22037107.7664                   22037105.2344
        46.5004         35.2504
    800918.28148    677529.57048  20867644.5164                   20867645.5864
        51.5004         50.2504
    941969.49248    802336.24647  21644400.2194                   21644402.0554
        48.7504         46.0004
   4432541.21147   3590455.76643  24227066.1484                   24227070.3324
        42.0004         20.2504
  -8320717.18446  -6483688.23445  23611892.8594                   23611896.4804
        40.0004         31.5004
   -752839.21947   -379119.34044  23856794.0314                   23856796.4024
        43.2504         26.0004
   5736862.24246   4517131.61345  24271157.1414                   24271164.3164
        37.0004         30.2504
  -7619490.77747  -5847223.16045  22026666.7664                   22026667.9344
        46.5004         32.5004
 25  8  5 20 33 30.0000000  0  9G08G02G32G10G23G31G01G27G28
   2543478.45746   2038971.35945  23419843.7894                   23419849.0784
        40.7504         34.7504
  -6594947.22747  -5041642.11745  21976703.2894                   21976700.7154
        46.0004         34.7504
    575965.70348    502241.83648  20824837.0864                   20824838.6994
        50.7504         50.2504
    713701.37547    624464.94547  21600961.8054                   21600963.8984
        47.2504         45.7504
   4247031.89547   3445902.91043  24191764.6334                   24191769.0354
        42.5004         19.7504
  -8694371.29346  -6774847.07445  23540788.3054                   23540792.1414
        40.2504         32.0004
  -1113262.71147   -659968.70744  23788207.4064                   23788210.3404
        43.0004         26.0004
   5567989.26246   4385542.06345  24239022.1254                   24239029.0634
        37.5004         31.0004
  -7956827.08247  -6110082.55145  21962473.8834                   21962474.6174
        47.0004         32.2504
 25  8  5 20 34  0.0000000  0  9G08G02G32G10G23G31G01G27G28
   2345684.81646   1884846.32445  23382204.7664                   23382210.6094
        41.0004         35.5004
  -6911989.48847  -5288688.02045  21916372.0864                   21916369.7664
        45.2504         35.2504
    351351.01248    327217.39148  20782094.7584                   20782095.6214
        51.0004         50.0004
    485646.09047    446759.48447  21557564.3914                   21557566.3554
        47.7504         45.7504
   4061646.35947   3301446.52343  24156488.1484                   24156491.8554
        43.0004         20.0004
  -9067929.25046  -7065930.99645  23469702.6564                   23469706.3984
        41.2504         32.2504
  -1473534.30147   -940699.74244  23719650.5234                   23719652.6724
        42.2504         26.0004
   5399155.17646   4253982.82845  24206894.1334                   24206901.4184
        36.5004         30.2504
  -8293758.34847  -6372626.32445  21898358.0554                   21898359.1254
        47.0004         32.2504
 25  8  5 20 34 30.0000000  0  9G08G02G32G10G23G31G01G27G28
   2148191.70346   1730955.47345  23344623.4924                   23344628.7934
        40.5004         35.5004
  -7228642.57047  -5535430.66445  21856115.0864                   21856112.4884
        45.2504         35.5004
    127072.21148    152454.67648  20739415.6094                   20739417.1524
        50.7504         50.0004
    257803.87148    269220.05147  21514207.4844                   21514209.2344
        48.2504         45.5004
   3876384.35947   3157086.36343  24121233.1804                   24121237.3444
        43.2504         20.7504
  -9441387.82846  -7356937.47745  23398635.6804                   23398639.5474
        40.0004         33.0004
  -1833651.92647  -1221310.78543  23651121.6644                   23651124.3954
        42.0004         22.7504
   5230356.76246   4122451.39145  24174773.3594                   24174780.0824
        37.2504         30.2504
  -8630282.10547  -6634852.56245  21834319.2034                   21834320.1604
        47.0004         33.0004
 25  8  5 20 35  0.0000000  0  9G08G02G32G10G23G31G01G27G28
   3526425.42246   2804903.71945  23606892.6954                   23606898.3984
        40.0004         34.2504
  -5969471.73047  -4554258.56245  22095726.9064                   22095724.6374
        45.5004         34.7504
   1478557.62948   1205560.18848  20996594.8284                   20996596.1994
        50.7504         50.0004
   1605605.43847   1319454.98847  21770685.4224                   21770687.8484
        47.7504         45.5004
   5266674.69947   4240429.34043  24385796.6884                   24385801.2114
        42.0004         20.5004
  -8239309.14546  -6420252.57845  23627383.4224                   23627386.9574
        41.0004         33.5004
   -618178.62947   -274188.65244  23882419.1024                   23882421.3594
        42.2504         24.5004
   6637019.44946   5218551.98845  24442452.3444                   24442459.2424
        38.0004         30.0004
  -7390961.80147  -5669148.36345  22070154.2894                   22070155.0084
        46.7504         33.2504
 25  8  5 20 35 30.0000000  0  9G08G02G32G10G23G31G01G27G28
   3329530.41446   2651478.91445  23569424.6804                   23569430.5514
        40.2504         33.5004
  -6285335.59047  -4800386.23445  22035620.4694                   22035617.6914
        45.5004         35.0004
   1254950.90248   1031321.16048  20954043.9144                   20954045.3834
        51.2504         50.0004
   1378196.34047   1142253.04747  21727411.3524                   21727413.1454
        47.5004         45.5004
   5081665.36346   4096266.06643  24350590.8674                   24350595.3524
        41.5004         20.5004
  -8612554.87147  -6711093.21945  23556357.3984                   23556360.5704
        42.2504         34.5004
   -977975.66447   -554549.91444  23813952.2194                   23813953.8754
        42.2504         24.5004
   6468289.14146   5087073.62145  24410344.3444                   24410351.1954
        37.5004         30.5004
  -7726656.81647  -5930728.83245  22006273.2894                   22006274.5824
        47.0004         34.0004
 25  8  5 20 36  0.0000000  0  9G08G02G32G10G23G31G01G27G28
   3132929.05946   2498282.93445  23532012.7504                   23532018.4264
        39.5004         33.5004
  -6600802.86347  -5046204.88345  21975588.7814                   21975586.4614
        45.0004         35.7504
   1031676.49648    857341.09048  20911556.2504                   20911557.5434
        51.0004         50.0004
   1151003.38347    965219.52347  21684177.4924                   21684179.8874
        47.7504         45.5004
   4896781.24647   3952200.37943  24315408.6094                   24315413.1334
        42.0004         20.5004
  -8985690.70747  -7001848.24245  23485351.5314                   23485355.1454
        42.0004         35.7504
  -1337610.02047   -834784.39844  23745515.2274                   23745517.5704
        43.2504         26.2504
   6299587.45346   4955617.55945  24378241.6884                   24378248.1914
        38.7504         30.2504
  -8061934.57847  -6191984.16845  21942472.0944                   21942473.0474
        47.5004         34.0004
 25  8  5 20 36 30.0000000  0  9G08G02G32G10G23G31G01G27G28
   2936616.41046   2345311.91045  23494655.7114                   23494661.3594
        39.2504         32.0004
  -6915874.09447  -5291714.91445  21915632.5164                   21915630.2974
        45.2504         35.2504
    808730.55148    683616.96948  20869130.9774                   20869132.1414
        51.0004         50.0004
    924024.89148    788353.11347  21640985.3984                   21640987.5554
        48.0004         45.5004
   4712020.20346   3808230.55543  24280249.3364                   24280254.9024
        41.0004         22.0004
  -9358715.55147  -7292516.78945  23414367.7114                   23414371.0164
        43.2504         35.5004
  -1697081.42647  -1114891.93444  23677110.2584                   23677112.5514
        43.0004         27.2504
   6130909.30546   4824179.82445  24346143.7424                   24346150.8244
        38.5004         31.5004
  -8396794.50047  -6452913.91445  21878750.3284                   21878751.8284
        47.2504         34.5004
 25  8  5 20 37  0.0000000  0  9G08G02G32G10G23G31G01G27G28
   2740590.16046   2192564.05145  23457352.4454                   23457358.9844
        38.5004         30.7504
  -7230546.29347  -5536914.01245  21855752.4304                   21855749.9304
        45.2504         35.5004
    586111.94148    510147.90648  20826768.1174                   20826769.3834
        51.2504         50.0004
    697262.02747    611654.73447  21597833.9064                   21597835.5394
        47.7504         45.5004
   4527382.90646   3664357.17243  24245114.8054                   24245120.0434
        41.0004         22.0004
  -9731625.69947  -7583095.95745  23343404.5634                   23343408.3554
        42.2504         35.5004
  -2056386.93447  -1394870.13744  23608736.4924                   23608738.7194
        42.0004         25.0004
   5962252.38746   4692758.62945  24314049.0314                   24314056.4734
        38.7504         32.0004
  -8731233.28947  -6713515.50845  21815108.7664                   21815109.6094
        47.0004         33.5004
 25  8  5 20 37 30.0000000  0  9G08G02G32G10G23G31G01G27G28
   2544848.93846   2040038.30145  23420104.8284                   23420110.7464
        38.5004         32.2504
  -7544816.20347  -5781799.65245  21795949.2034                   21795946.8404
        46.0004         35.5004
    363820.33248    336933.64548  20784467.2664                   20784468.6994
        51.7504         49.7504
    470716.66448    435125.83247  21554724.0864                   21554726.1644
        48.5004         45.5004
   4342870.76246   3520581.31643  24210002.8054                   24210008.1294
        40.2504         22.0004
 -10104417.08646  -7873582.60245  23272464.4534                   23272468.0004
        41.7504         34.7504
  -2415522.66446  -1674716.05543  23540395.6564                   23540397.7504
        41.5004         23.7504
   5793615.23046   4561352.84445  24281959.0164                   24281965.8554
        38.0004         31.7504
  -9065246.80947  -6973785.71945  21751548.0784                   21751549.0944
        47.0004         34.0004
 25  8  5 20 38  0.0000000  0  9G08G02G32G10G23G31G01G27G28
   3924814.67246   3115336.15245  23682704.0164                   23682709.7194
        39.2504         31.7504
  -6283253.15647  -4798763.50845  22036016.1724                   22036014.0274
        46.5004         35.5004
   1717279.72748   1391577.31348  21042022.2114                   21042023.4804
        52.0004         50.0004
   1819815.16048   1486371.35947  21811448.5784                   21811450.9694
        48.5004         45.7504
   5733908.14846   4604506.38743  24474709.1094                   24474714.1214
        40.0004         22.0004
  -8901655.50046  -6936365.63345  23501342.7814                   23501345.6884
        41.0004         34.0004
  -1199056.02046   -726819.86343  23771880.8364                   23771883.4064
        41.7504         23.7504
   7200418.84846   5657563.23045  24549664.8134                   24549672.2384
        38.0004         32.0004
  -7823403.03147  -6006115.18045  21987863.1804                   21987864.3364
        47.0004         33.5004
 25  8  5 20 38 30.0000000  0  9G08G02G32G10G23G31G01G27G28
   3729631.69146   2963245.39545  23645561.9844                   23645567.6564
        39.2504         32.0004
  -6596716.04747  -5043020.28545  21976366.3594                   21976363.7584
        45.2504         35.2504
   1495633.71948   1218866.11748  20999844.4384                   20999846.0354
        51.2504         49.7504
   1593703.07448   1310180.06647  21768421.4304                   21768423.1884
        48.0004         45.7504
   5549643.07446   4460923.03543  24439645.2584                   24439650.0904
        39.2504         22.0004
  -9274202.43746  -7226661.78945  23430448.8594                   23430452.6724
        41.7504         35.2504
  -1557848.34047  -1006398.21543  23703605.1644                   23703607.0784
        42.0004         23.7504
   7031809.33246   5526178.95345  24517579.6564                   24517587.1994
        38.2504         32.5004
  -8156561.36347  -6265719.02045  21924464.8754                   21924466.1094
        46.5004         34.5004
 25  8  5 20 39  0.0000000  0  9G08G02G32G10G23G31G01G27G28
   3534724.20346   2811369.29745  23608472.7194                   23608478.1884
        39.2504         32.5004
  -6909771.91847  -5286959.91045  21916793.8444                   21916791.3244
        45.7504         35.2504
   1274308.56348   1046404.94148  20957727.8284                   20957728.7854
        51.2504         49.7504
   1367809.04347   1134158.68847  21725435.0704                   21725437.3094
        47.7504         45.5004
   5365502.21546   4317436.47743  24404604.2504                   24404609.3594
        38.2504         21.2504
  -9646621.85546  -7516858.59045  23359580.1884                   23359583.1804
        41.2504         35.5004
  -1916464.62946  -1285839.42244  23635362.7734                   23635364.3714
        41.2504         24.5004
   6863210.02046   5394802.64845  24485496.2194                   24485503.7854
        39.5004         34.0004
  -8489287.44147  -6524986.03945  21861149.1954                   21861150.5704
        46.5004         33.7504
 25  8  5 20 39 30.0000000  0  9G08G02G32G10G23G31G01G27G28
   3340087.40246   2659704.13745  23571434.4144                   23571440.5314
        39.7504         32.7504
  -7222420.75847  -5530582.37545  21857298.6254                   21857296.5594
        46.0004         35.7504
   1053300.64548    874190.95748  20915671.3364                   20915672.6414
        51.7504         49.5004
   1142131.63748    958306.11747  21682489.5864                   21682492.0744
        48.5004         45.5004
   5181483.59046   4174045.14843  24369586.6094                   24369592.1094
        38.5004         21.2504
 -10018912.63347  -7806955.16445  23288735.6724                   23288738.5204
        42.0004         35.7504
  -2274904.42246  -1565143.10243  23567153.5554                   23567155.7114
        41.5004         23.2504
   6694616.05546   5263430.49245  24453414.2814                   24453421.9384
        38.7504         33.0004
  -8821580.62147  -6783915.73445  21797915.7894                   21797916.7814
        47.0004         34.2504
 25  8  5 20 40  0.0000000  0  9G08G02G32G10G23G31G01G27G28
   3145719.65246   2508248.61345  23534447.2814                   23534453.8244
        37.5004         32.2504
  -7534659.69547  -5773885.43045  21797881.6024                   21797879.1644
        45.7504         35.5004
    832609.37948    702223.71948  20873675.0474                   20873676.2234
        51.0004         49.7504
    916672.52748    782623.64547  21639586.5554                   21639588.6174
        48.5004         45.7504
   4997588.47745   4030750.06643  24334592.6564                   24334598.5164
        35.5004         20.2504
 -10391070.59846  -8096948.24245  23217915.8594                   23217919.2664
        40.7504         35.0004
  -2633164.18746  -1844306.46944  23498979.0634                   23498981.4534
        41.2504         24.0004
   6526025.82846   5132061.24245  24421333.1724                   24421340.0904
        39.5004         34.0004
  -9153437.02047  -7042505.08245  21734766.0864                   21734767.0554
        46.5004         34.2504
 25  8  5 20 40 30.0000000  0  9G08G02G32G10G23G31G01G27G28
   2951617.00846   2356999.67245  23497510.9614                   23497517.1454
        37.7504         31.7504
  -7846487.60247  -6016868.19145  21738542.7504                   21738540.2584
        46.0004         35.7504
    612231.99648    530501.06348  20831738.5704                   20831740.1334
        51.5004         49.7504
    691431.19148    607110.86347  21596724.2894                   21596726.4614
        48.7504         45.5004
   4813815.82445   3887550.41043  24299622.2504                   24299627.5394
        35.5004         19.2504
 -10763093.76646  -8386836.27045  23147122.2664                   23147125.0904
        40.0004         34.2504
  -2991242.46546  -2123328.42243  23430838.4384                   23430841.1524
        41.2504         23.5004
   6357435.42646   5000691.86745  24389251.1414                   24389259.0394
        39.2504         33.0004
  -9484855.11747  -7300752.89845  21671699.5704                   21671700.2544
        47.0004         34.5004
 25  8  5 20 41  0.0000000  0  9G08G02G32G10G23G31G01G27G28
   4333203.07846   3433560.10545  23760418.0474                   23760424.6604
        37.7504         32.0004
  -6582472.17647  -5031921.09845  21979076.9384                   21979074.3484
        46.0004         35.5004
   1967594.10548   1586627.35948  21089655.7344                   21089656.6604
        51.2504         49.5004
   2041835.63748   1659374.01247  21853697.7034                   21853700.0944
        48.5004         45.7504
   6205591.71145   4972050.89143  24564467.6884                   24564473.7974
        33.0004         18.5004
  -9559546.32846  -7449006.93745  23376149.4694                   23376152.7274
        40.5004         33.0004
  -1773704.86746  -1174597.73043  23662528.2894                   23662530.5704
        40.0004         22.2504
   7764267.70346   6096924.58645  24656963.1564                   24656970.3404
        38.5004         33.0004
  -8240401.23847  -6331048.50845  21908510.6724                   21908511.3954
        46.5004         34.0004
 25  8  5 20 41 30.0000000  0  9G08G02G32G10G23G31G01G27G28
   4139622.68446   3282718.10245  23723580.7344                   23723587.0204
        37.7504         32.0004
  -6893471.82847  -5274258.48445  21919895.5784                   21919892.9024
        46.7504         35.5004
   1747839.97748   1415390.35948  21047837.7344                   21047838.7974
        51.5004         49.5004
   1817032.00448   1484202.29347  21810919.4534                   21810921.3874
        49.0004         45.7504
   6022064.53145   4829042.46142  24529544.6094                   24529549.4184
        31.0004         16.7504
  -9931289.37946  -7738676.70345  23305408.6724                   23305411.8754
        40.5004         32.5004
  -2131412.10946  -1453330.57443  23594459.7734                   23594461.1484
        41.5004         23.7504
   7595669.18846   5965548.87145  24624879.6174                   24624887.2704
        39.0004         33.2504
  -8570934.25447  -6588606.64145  21845611.7274                   21845613.2704
        46.2504         34.2504
 25  8  5 20 42  0.0000000  0  9G08G02G32G10G23G31G01G27G28
   3946298.04746   3132075.39845  23686792.8674                   23686798.7464
        37.2504         31.5004
  -7204055.80547  -5516271.95745  21860793.1334                   21860791.0784
        47.2504         35.5004
   1528393.77348   1244393.30548  21006078.5084                   21006079.9454
        50.7504         49.5004
   1592446.92648   1309200.88347  21768182.3134                   21768184.2194
        49.2504         45.5004
   5838659.10955   4686128.96152  24494644.7894                   24494649.2544
        31.7504         16.7504
 -10302888.97746  -8028234.69545  23234695.9534                   23234698.6484
        40.0004         33.0004
  -2488931.26647  -1731916.86743  23526425.5784                   23526427.2584
        42.0004         23.5004
   7427061.27046   5834165.84045  24592795.3834                   24592802.6954
        38.2504         33.2504
  -8901021.96547  -6845817.79345  21782798.6804                   21782799.6644
        47.0004         34.2504
 25  8  5 20 42 30.0000000  0  9G08G02G32G10G23G31G01G27G28
   3753226.22746   2981629.69145  23650052.4454                   23650058.7854
        39.2504         32.5004
  -7514222.09047  -5757959.96146  21801770.6484                   21801768.0004
        46.5004         36.0004
   1309253.77748   1073634.84848  20964377.7664                   20964379.4064
        51.2504         49.5004
   1368080.83648   1134370.11347  21725487.0944                   21725489.0704
        49.2504         45.7504
   5655375.23445   4543310.12543  24459766.1884                   24459771.9574
        33.0004         18.5004
 -10674341.67246  -8317678.22745  23164010.8914                   23164013.2424
        41.0004         33.7504
  -2846259.91047  -2010354.68044  23458428.0864                   23458429.6024
        42.5004         24.0004
   7258441.11346   5702773.27345  24560707.3054                   24560715.5984
        37.7504         32.2504
  -9230661.78147  -7102679.92645  21720070.3054                   21720071.1294
        47.2504         34.5004
 25  8  5 20 43  0.0000000  0  9G08G02G32G10G23G31G01G27G28
   3560404.97746   2831379.25845  23613360.8364                   23613366.4574
        40.2504         33.0004
  -7823968.43448  -5999320.73845  21742828.1724                   21742825.6414
        48.0004         35.5004
   1090418.88748    903114.14148  20922734.8284                   20922735.8794
        50.5004         49.5004
   1143934.93448    959710.92247  21682833.6024                   21682835.1484
        48.7504         45.7504
   5472213.68445   4400586.60543  24424910.0314                   24424917.6484
        34.5004         19.5004
 -11045643.65646  -8607004.31645  23093354.0554                   23093357.0864
        40.5004         34.7504
  -3203394.97347  -2288641.69543  23390467.5634                   23390469.4414
        42.0004         23.0004
   7089806.59446   5571369.50845  24528618.0704                   24528625.9414
        37.2504         31.5004
  -9559850.57447  -7359190.61745  21657427.8134                   21657428.5124
        46.5004         34.2504
 25  8  5 20 43 30.0000000  0  9G08G02G32G10G23G31G01G27G28
   3367828.87146   2681319.82845  23576713.7274                   23576720.6994
        40.2504         33.5004
  -8133295.28547  -6240354.66045  21683964.7664                   21683962.3834
        46.5004         35.2504
    871884.85548    732827.85948  20881149.2034                   20881150.1954
        52.0004         49.5004
    920007.21148    785221.73447  21640221.3914                   21640223.4304
        48.7504         45.7504
   5289171.75846   4257956.34043  24390080.6254                   24390086.1414
        36.7504         19.2504
 -11416794.46146  -8896212.59445  23022726.7274                   23022729.1334
        40.5004         33.7504
  -3560336.40247  -2566777.80544  23322543.7584                   23322545.3014
        42.2504         24.2504
   6921152.25046   5439950.27745  24496523.7034                   24496532.1954
        37.5004         31.7504
  -9888588.30147  -7615349.82445  21594870.8364                   21594871.8714
        46.7504         34.0004
 25  8  5 20 44  0.0000000  0  9G08G02G32G10G23G31G01G27G28
   4750924.16446   3759056.28145  23839908.4694                   23839915.0824
        39.2504         33.7504
  -6866767.88347  -5253450.18745  21924977.0314                   21924974.5984
        47.0004         35.5004
   2229079.88348   1790382.40648  21139414.6954                   21139416.0204
        51.2504         49.5004
   2271728.27048   1838510.82447  21897445.3444                   21897447.6214
        49.0004         45.7504
   6681678.40646   5343026.24643  24655065.2344                   24655071.4414
        36.5004         20.2504
 -10212356.13346  -7957689.08245  23251923.0394                   23251925.6954
        40.7504         34.5004
  -2341647.23047  -1617149.80944  23554452.5944                   23554454.3794
        42.0004         25.5004
   8327903.75046   6536120.02045  24764220.7194                   24764228.2894
        37.0004         30.5004
  -8641438.86747  -6643545.00845  21832195.5164                   21832196.1524
        46.7504         34.7504
 25  8  5 20 44 30.0000000  0  9G08G02G32G10G23G31G01G27G28
   4558834.34046   3609375.76645  23803355.1884                   23803361.2584
        39.7504         33.2504
  -7175245.83647  -5493822.61346  21866275.7814                   21866273.3284
        47.2504         36.0004
   2011146.94948   1620564.51648  21097943.7034                   21097944.9024
        51.5004         49.5004
   2048242.99248   1664366.40247  21854917.4534                   21854919.6174
        49.2504         45.7504
   6498880.54346   5200586.15643  24620280.7664                   24620286.0904
        39.0004         21.2504
 -10583190.76246  -8246650.98845  23181355.6724                   23181358.6134
        41.5004         34.5004
  -2698189.49246  -1894974.87544  23486604.7974                   23486606.1914
        41.2504         25.5004
   8159206.26646   6404667.16445  24732118.0004                   24732126.1254
        37.0004         31.5004
  -8969262.35547  -6898991.82045  21769812.7344                   21769813.3324
        46.5004         34.0004
 25  8  5 20 45  0.0000000  0  9G08G02G32G10G23G31G01G27G28
   4366981.91046   3459880.21945  23766846.7344                   23766853.1764
        39.7504         33.0004
  -7483298.00447  -5733863.26245  21807655.2114                   21807653.0474
        47.7504         35.2504
   1793510.60248   1450977.72748  21056528.7274                   21056529.8164
        51.0004         49.5004
   1824978.28148   1490393.85547  21812431.8594                   21812434.1684
        48.5004         45.5004
   6316203.24646   5058240.02343  24585518.6724                   24585524.1524
        39.2504         22.5004
 -10953863.71947  -8535486.93045  23110818.6644                   23110821.2624
        42.0004         35.0004
  -3054529.79747  -2172642.57044  23418795.4454                   23418797.3284
        42.7504         26.2504
   7990481.58646   6273193.14145  24700011.7034                   24700019.1134
        37.2504         30.2504
  -9296626.32047  -7154080.56245  21707517.4064                   21707518.1804
        46.7504         34.7504
 25  8  5 20 45 30.0000000  0  9G08G02G32G10G23G31G01G27G28
   4175364.19146   3310567.55945  23730383.4614                   23730390.1294
        39.2504         33.0004
  -7790922.21947  -5973570.43045  21749116.4774                   21749113.9494
        47.5004         34.7504
   1576169.33248   1281620.87548  21015169.8204                   21015171.2504
        51.7504         49.2504
   1601934.96948   1316593.82047  21769988.3594                   21769990.6804
        49.5004         45.5004
   6133646.73446   4915988.00443  24550779.2274                   24550784.8444
        40.0004         22.7504
 -11324371.88747  -8824194.48845  23040313.4064                   23040315.7344
        43.2504         35.7504
  -3410665.43747  -2450150.79744  23351024.9384                   23351026.7234
        42.7504         27.0004
   7821727.21545   6141695.96944  24667898.1254                   24667906.6524
        35.7504         29.7504
  -9623528.13347  -7408809.19145  21645310.1414                   21645311.1454
        46.7504         34.5004
 25  8  5 20 46  0.0000000  0  9G08G02G32G10G23G31G01G27G28
   3983976.70746   3161434.30945  23693964.1094                   23693969.7584
        40.5004         33.5004
  -8098118.63748  -6212944.26645  21690658.8134                   21690656.3324
        48.0004         35.2504
   1359119.85548   1112491.39148  20973867.2034                   20973868.5984
        51.5004         49.2504
   1379111.93848   1142965.43447  21727586.6024                   21727588.6054
        48.5004         45.5004
   5951209.38346   4773828.80143  24516063.1884                   24516068.2854
        39.7504         22.2504
 -11694713.53147  -9112772.26645  22969839.5864                   22969842.4184
        42.2504         35.7504
  -3766595.46547  -2727498.81644  23283293.4774                   23283295.3984
        42.7504         26.7504
   7652938.73046   6010172.22345  24635779.2504                   24635787.5354
        36.2504         30.0004
  -9949966.81247  -7663176.93045  21583190.6094                   21583191.2464
        47.0004         34.0004
 25  8  5 20 46 30.0000000  0  9G08G02G32G10G23G31G01G27G28
   3792818.91846   3012480.04345  23657588.0554                   23657594.1454
        39.7504         33.2504
  -8404882.71948  -6451981.21145  21632283.8674                   21632281.1644
        48.5004         35.5004
   1142362.79348    943589.76248  20932619.4144                   20932620.9574
        52.2504         49.5004
   1156512.03948    969510.91847  21685227.1254                   21685229.1994
        48.7504         45.5004
   5768893.56346   4631764.32443  24481369.2664                   24481375.0784
        39.2504         20.7504
 -12064883.24247  -9401216.07046  22899398.9924                   22899401.2544
        42.0004         36.0004
  -4122315.05947  -3004682.84844  23215602.6254                   23215604.0044
        42.5004         25.0004
   7484115.84045   5878621.64544  24603653.4694                   24603662.0904
        34.2504         29.0004
 -10275937.63347  -7917180.10545  21521160.3834                   21521161.5354
        46.7504         34.5004
 25  8  5 20 47  0.0000000  0  9G08G02G32G10G23G31G01G27G28
   5177312.78146   4091306.28945  23921048.6884                   23921054.6414
        40.7504         32.7504
  -7135784.11348  -5463073.20746  21873785.1254                   21873782.7234
        48.0004         36.5004
   2501322.14548   2002519.10948  21191220.9614                   21191222.1294
        51.5004         49.2504
   2509561.73448   2023835.30947  21942703.4614                   21942705.7384
        48.5004         45.2504
   7162123.80946   5717398.04743  24746492.1024                   24746497.8484
        38.2504         22.0004
 -10859446.95347  -8461914.92646  23128785.1414                   23128788.4494
        42.0004         36.2504
  -2902391.37147  -2054092.89144  23447745.7664                   23447747.9534
        42.7504         26.5004
   8890679.94145   6974645.33644  24871314.8054                   24871322.4414
        34.2504         26.2504
  -9026008.74247  -6943209.48445  21759014.1024                   21759014.7774
        47.0004         34.0004
 25  8  5 20 47 30.0000000  0  9G08G02G32G10G23G31G01G27G28
   4986601.67646   3942700.08645  23884757.2894                   23884763.7304
        39.2504         33.0004
  -7441682.57048  -5701435.63746  21815574.4614                   21815571.9414
        48.0004         36.0004
   2285140.77048   1834066.06648  21150082.9614                   21150084.2934
        51.2504         49.2504
   2287405.68848   1850726.64847  21900428.7274                   21900431.3164
        48.7504         45.0004
   6980046.93846   5575519.73843  24711844.2034                   24711850.4964
        39.0004         21.0004
 -11229267.08647  -8750086.32046  23058410.8444                   23058413.4064
        42.0004         36.7504
  -3257686.53147  -2330946.18744  23380135.6724                   23380137.8094
        42.0004         26.2504
   8721775.83245   6843031.48444  24839172.2114                   24839181.4454
        34.2504         27.2504
  -9351040.45747  -7196480.89145  21697162.5004                   21697163.6024
        47.0004         34.2504
 25  8  5 20 48  0.0000000  0  9G08G02G32G10G23G31G01G27G28
   4796106.35246   3794262.02345  23848507.6564                   23848513.7734
        41.0004         33.5004
  -7747148.91047  -5939461.36745  21757446.2274                   21757443.6524
        47.5004         35.5004
   2069241.39148   1665832.75848  21108998.5704                   21108999.7274
        51.2504         49.0004
   2065469.09448   1677788.98847  21858195.7114                   21858197.9384
        49.0004         45.0004
   6798086.15646   5433731.89543  24677218.1724                   24677224.2234
        38.5004         20.7504
 -11598910.94547  -9038120.37146  22988069.5864                   22988072.0004
        42.5004         36.5004
  -3612768.92647  -2607633.69944  23312565.7344                   23312567.7504
        42.0004         27.0004
   8552823.91046   6711380.34444  24807021.9844                   24807030.7664
        36.0004         26.5004
  -9675602.26247  -7449386.13745  21635400.4774                   21635401.1094
        46.5004         34.5004
 25  8  5 20 48 30.0000000  0  9G08G02G32G10G23G31G01G27G28
   4605828.07846   3645993.09845  23812298.8984                   23812305.3594
        39.7504         33.7504
  -8052177.02348  -6177145.61346  21699401.0394                   21699398.8984
        48.0004         36.0004
   1853626.58648   1497821.21148  21067968.6644                   21067969.8364
        51.0004         49.0004
   1843756.75048   1505026.06347  21816005.7584                   21816007.6024
        48.5004         44.7504
   6616245.84446   5292037.94543  24642615.3364                   24642621.6414
        37.2504         19.0004
 -11968371.16047  -9326011.32446  22917763.5704                   22917766.3874
        42.2504         37.0004
  -3967631.78147  -2884150.14544  23245037.7424                   23245038.9064
        43.0004         27.7504
   8383825.61346   6579693.09844  24774863.0944                   24774872.3714
        36.5004         28.2504
  -9999687.49647  -7701920.02345  21573728.5554                   21573729.5514
        46.5004         34.2504
 25  8  5 20 49  0.0000000  0  9G08G02G32G10G23G31G01G27G28
   4415764.92246   3497891.78545  23776130.9454                   23776137.7974
        41.0004         34.2504
  -8356764.36348  -6414486.39845  21641439.6884                   21641437.5784
        48.0004         35.7504
   1638295.60248   1330030.80948  21026992.3594                   21026993.7304
        51.2504         49.2504
   1622270.07048   1332438.98847  21773858.0084                   21773860.4224
        48.7504         45.0004
   6434526.82846   5150438.44943  24608035.6804                   24608041.8244
        37.5004         20.2504
 -12337643.52046  -9613755.88346  22847493.4614                   22847495.8984
        41.7504         36.5004
  -4322271.59847  -3160492.80144  23177551.9304                   23177553.6524
        42.7504         26.0004
   8214779.13346   6447968.30144  24742695.0944                   24742703.9804
        37.7504         28.7504
 -10323292.85247  -7954079.98445  21512148.6564                   21512149.6334
        47.0004         34.5004
 25  8  5 20 49 30.0000000  0  9G08G02G32G10G23G31G01G27G28
   4225911.28946   3349953.72345  23740003.1024                   23740010.0314
        39.2504         34.0004
  -8660911.75047  -6651484.35245  21583562.8834                   21583560.0944
        47.5004         35.7504
   1423243.91848   1162458.04348  20986069.3594                   20986071.0554
        51.2504         49.0004
   1401006.85948   1160026.03547  21731753.3444                   21731755.2114
        48.5004         44.7504
   6252926.30946   5008931.36343  24573478.9144                   24573484.8094
        38.7504         19.2504
 -12706727.44547  -9901353.60545  22777259.2194                   22777261.4534
        42.2504         35.7504
  -4676688.59847  -3436661.83644  23110108.1094                   23110110.1214
        42.5004         26.5004
   8045679.11346   6316201.78944  24710517.0474                   24710525.3834
        39.0004         29.5004
 -10646418.64547  -8205866.25845  21450659.7274                   21450660.5354
        46.5004         35.2504
 25  8  5 20 50  0.0000000  0  9G08G02G32G10G23G31G01G27G28
   5611690.59446   4429781.58245  24003708.5004                   24003715.0234
        40.5004         33.7504
  -7389187.35247  -5660530.28145  21825563.7504                   21825561.3324
        47.2504         35.5004
   2783897.12548   2222707.27048  21244993.0704                   21244994.4184
        51.0004         49.0004
   2755395.07048   2215393.41847  21989484.6254                   21989486.8834
        49.0004         44.5004
   7646870.40246   6095121.31343  24838737.2034                   24838743.3594
        37.7504         19.5004
 -11500187.45347  -8961192.44146  23006855.8204                   23006858.3054
        42.7504         36.5004
  -3455448.35546  -2485045.98444  23342502.3984                   23342504.0274
        41.2504         26.2504
   9451948.56346   7411995.91444  24978121.0314                   24978129.5594
        39.5004         28.7504
  -9393631.72347  -7229668.59845  21689057.8594                   21689058.4614
        46.7504         34.7504
 25  8  5 20 50 30.0000000  0  9G08G02G32G10G23G31G01G27G28
   5422248.50446   4282164.19545  23967658.9774                   23967665.3524
        41.5004         33.7504
  -7692448.40647  -5896837.59846  21767855.1334                   21767852.7704
        46.5004         36.0004
   2569400.33648   2055566.89148  21204175.5084                   21204177.3094
        50.7504         49.0004
   2534581.62948   2043330.93047  21947465.1724                   21947467.9104
        48.2504         44.7504
   7465508.09446   5953799.85242  24804225.7504                   24804231.5514
        39.0004         17.7504
 -11868883.77347  -9248488.14146  22936695.0084                   22936697.6844
        43.0004         37.2504
  -3809410.78946  -2760860.80544  23275145.4534                   23275147.4304
        41.2504         26.0004
   9282734.59446   7280140.63744  24945921.5634                   24945929.2584
        39.5004         27.0004
  -9715790.10947  -7480701.05545  21627752.7814                   21627753.2704
        46.2504         35.0004
 25  8  5 20 51  0.0000000  0  9G08G02G32G10G23G31G01G27G28
   5233006.76646   4134702.92645  23931647.3134                   23931654.3524
        41.0004         35.0004
  -7995265.09847  -6132798.65645  21710231.0394                   21710228.6644
        47.5004         35.7504
   2355177.32848   1888639.84848  21163410.5704                   21163411.6994
        51.5004         49.0004
   2313992.80148   1871443.46547  21905488.7114                   21905491.3164
        48.7504         44.2504
   7284263.72346   5812570.24242  24769736.0004                   24769741.8874
        37.0004         16.2504
 -12237382.50447  -9535629.85946  22866572.1254                   22866574.5354
        43.0004         36.0004
  -4163143.12946  -3036496.32844  23207832.4454                   23207834.4734
        41.2504         26.5004
   9113458.56346   7148236.98044  24913709.2734                   24913717.8444
        39.5004         27.0004
 -10037462.39847  -7731354.73045  21566540.0474                   21566541.1094
        46.5004         34.5004
 25  8  5 20 51 30.0000000  0  9G08G02G32G10G23G31G01G27G28
   5043961.71946   3987394.93045  23895673.2664                   23895680.4224
        41.5004         34.5004
  -8297636.10547  -6368412.43746  21652692.1884                   21652689.4884
        47.0004         36.0004
   2141225.83248   1721924.37148  21122696.8444                   21122698.4344
        51.0004         49.0004
   2093628.49248   1699730.95747  21863554.4064                   21863557.0354
        48.5004         44.5004
   7103136.66446   5671432.07042  24735268.4384                   24735275.2074
        37.5004         16.2504
 -12605681.40647  -9822615.87146  22796487.1484                   22796489.1454
        42.7504         36.0004
  -4516643.44946  -3311951.04744  23140563.6564                   23140565.3484
        41.5004         27.5004
   8944117.16446   7016282.40644  24881485.3524                   24881493.5124
        39.5004         27.2504
 -10358646.84047  -7981628.27745  21505420.8914                   21505421.6174
        46.5004         34.7504
 25  8  5 20 52  0.0000000  0  9G08G02G32G10G23G31G01G27G28
   4855110.93446   3840238.30945  23859737.1484                   23859743.6134
        40.7504         34.0004
  -8599559.39847  -6603677.34046  21595237.9534                   21595235.1764
        46.7504         36.0004
   1927544.43848   1555419.36748  21082034.7344                   21082036.0314
        51.0004         49.0004
   1873489.48448   1528194.00847  21821663.7894                   21821665.9384
        48.5004         44.0004
   6922127.13746   5530385.55142  24700824.6484                   24700831.2854
        37.5004         14.7504
 -12973776.82047 -10109443.32446  22726440.6564                   22726443.2154
        43.7504         36.0004
  -4869908.93446  -3587222.75444  23073339.3204                   23073341.4884
        41.5004         26.0004
   8774708.10246   6884275.11344  24849247.3754                   24849255.8754
        40.0004         25.5004
 -10679340.89847  -8231519.70345  21444394.8284                   21444395.2114
        47.0004         35.2504
 25  8  5 20 52 30.0000000  0  9G08G02G32G10G23G31G01G27G28
   4666452.84046   3693231.84045  23823835.9064                   23823843.3634
        40.5004         34.2504
  -8901031.95347  -6838591.02345  21537869.5394                   21537867.0314
        46.0004         35.7504
   1714132.89548   1389124.63748  21041423.8594                   21041425.4104
        50.2504         49.0004
   1653577.73048   1356834.13347  21779816.3134                   21779818.5164
        48.5004         44.2504
   6741236.53546   5389431.68042  24666401.1724                   24666408.7664
        37.2504         15.5004
 -13341664.09447 -10396108.60246  22656433.9774                   22656435.9024
        43.5004         36.2504
  -5222935.53146  -3862308.33244  23006160.6254                   23006162.2854
        41.2504         25.7504
   8605230.12946   6752214.10244  24816996.8914                   24817005.8594
        40.0004         26.7504
 -10999540.84847  -8481026.09845  21383462.7814                   21383463.2504
        47.0004         35.5004
 25  8  5 20 53  0.0000000  0  9G08G02G32G10G23G31G01G27G28
   6053409.90246   4773977.43445  24087765.7664                   24087772.9024
        40.5004         33.5004
  -7626623.21947  -5845545.26246  21780381.1804                   21780378.9224
        47.2504         36.2504
   3076415.62948   2450643.62148  21300657.3674                   21300658.8094
        50.5004         49.0004
   3009320.18848   2413256.77047  22037805.1334                   22037807.3674
        48.7504         44.0004
   8135889.90646   6476174.35242  24931795.9304                   24931803.4344
        36.5004         16.2504
 -12133908.60947  -9455000.31246  22886261.5474                   22886263.8714
        44.5004         37.0004
  -4000289.86346  -2909597.34844  23238821.9384                   23238823.8554
        41.5004         26.0004
  10011105.30946   7847701.01644  25084526.4304                   25084535.3444
        39.7504         27.7504
  -9743814.71147  -7502538.15245  21622419.8524                   21622420.0704
        46.7504         35.0004
 25  8  5 20 53 30.0000000  0  9G08G02G32G10G23G31G01G27G28
   5865125.12946   4627261.85245  24051935.8054                   24051943.5744
        39.5004         33.7504
  -7927192.83247  -6079755.35946  21723184.7664                   21723182.5164
        46.5004         36.5004
   2863535.27348   2284762.79348  21260148.1334                   21260149.4304
        50.7504         49.0004
   2789861.12147   2242249.63747  21996043.3674                   21996046.0394
        47.7504         44.0004
   7955233.543 5                  24897418.477
        35.000
 -12501373.28547  -9741336.30146  22816336.1024                   22816338.2344
        44.0004         36.7504
  -4352834.44146  -3184307.34444  23171734.9064                   23171736.7304
        41.2504         26.5004
   9841478.12946   7715523.72344  25052248.0004                   25052256.9574
        39.7504         29.2504
 -10063023.07847  -7751271.89845  21561675.8524                   21561676.5784
        47.5004         35.5004
 25  8  5 20 54  0.0000000  0  9G08G02G32G10G23G31G01G27G28
   5677021.07046   4480687.08245  24016141.3754                   24016148.6174
        39.0004         31.7504
  -8227310.02747  -6313612.92246  21666074.4224                   21666072.1994
        46.5004         36.5004
   2650916.45348   2119085.76248  21219687.9384                   21219689.3324
        51.2504         49.0004
   2570627.67248   2071418.31347  21954325.0314                   21954327.0904
        48.0004         44.0004
   7774692.703 5                  24863062.500
        34.250
 -12868623.34447 -10027505.05546  22746450.3204                   22746452.6334
        44.0004         37.2504
  -4705135.63747  -3458827.70344  23104694.0084                   23104695.6954
        43.0004         27.0004
   9671770.96546   7583284.11744  25019953.7734                   25019962.4224
        39.0004         29.5004
 -10381733.82847  -7999617.89145  21501027.3444                   21501027.8954
        47.2504         34.7504
 25  8  5 20 54 30.0000000  0  9G08G02G32G10G23G31G01G27G28
   5489089.85946   4334247.00045  23980379.5784                   23980386.5634
        39.2504         32.5004
  -8526978.29747  -6547120.66445  21609049.6024                   21609046.7854
        47.5004         35.5004
   2438552.48448   1953607.32048  21179276.2274                   21179277.7274
        51.0004         48.7504
   2351615.36347   1900759.31347  21912648.6174                   21912650.8404
        47.2504         43.7504
   7594262.188 5                  24828727.570
        32.500
 -13235660.68447 -10313508.05946  22676605.6564                   22676607.2544
        44.5004         37.0004
  -5057195.88747  -3733160.31644  23037699.5864                   23037701.0084
        43.0004         26.7504
   9501976.16446   7450976.22344  24987642.7584                   24987652.3444
        39.0004         29.5004
 -10699949.78547  -8247578.32845  21440472.8984                   21440473.4224
        47.0004         35.0004
 25  8  5 20 55  0.0000000  0  9G08G02G32G10G23G31G01G27G28
   5301327.13746   4187938.21545  23944649.2424                   23944656.8284
        39.2504         31.0004
  -8826197.51247  -6780278.49646  21552109.8054                   21552107.6914
        47.0004         36.5004
   2226440.24248   1788325.03148  21138912.5944                   21138913.9414
        50.5004         49.0004
   2132823.23847   1730271.89547  21871013.8134                   21871015.9454
        47.7504         43.5004
                                  24794414.633
        30.250
 -13602483.23847 -10599343.69546  22606801.5394                   22606803.2734
        45.5004         37.2504
  -5409014.07447  -4007304.29744  22970750.5314                   22970752.3874
        42.5004         26.5004
   9332089.56546   7318596.79445  24955315.3204                   24955324.1764
        39.2504         30.0004
 -11017670.17247  -8495152.61345  21380012.8594                   21380013.2464
        47.0004         34.7504
 25  8  5 20 55 30.0000000  0  9G08G02G32G10G23G31G01G27G28
   5113731.30946   4041759.46545  23908951.0314                   23908958.5594
        39.2504         31.7504
  -9124964.66447  -7013084.08246  21495256.7114                   21495254.0594
        47.2504         36.7504
   2014579.37148   1623238.60948  21098597.0944                   21098598.7304
        50.2504         48.7504
   1914253.12948   1559957.46947  21829421.2424                   21829423.3834
        48.0004         43.5004
   7233729.18814                  24760120.063
        28.250
 -13969086.76247 -10885008.66846  22537038.8444                   22537040.8204
        44.5004         37.5004
  -5760586.21947  -4281256.55144  22903848.6024                   22903850.2344
        42.7504         27.5004
   9162110.13346   7186145.03545  24922969.1334                   24922978.5234
        38.2504         30.0004
 -11334891.52047  -8742338.02745  21319647.4144                   21319647.9804
        46.5004         35.5004
 25  8  5 20 56  0.0000000  0  9G08G02G32G10G23G31G01G27G28
   6501729.24646   5123316.12945  24173078.9534                   24173085.7584
        40.0004         32.2504
  -7847844.79747  -6017925.74246  21738284.5474                   21738282.0354
        47.5004         36.5004
   3378398.84848   2685955.05948  21358123.3134                   21358124.6524
        51.0004         48.7504
   3271336.34848   2617424.86747  22087665.2034                   22087667.8794
        48.5004         43.5004
   8629057.34014                  25025642.633
        24.500
 -12760032.44547  -9942888.30946  22767114.3674                   22767116.3984
        45.5004         37.5004
  -4536474.53947  -3327403.22344  23136789.4304                   23136790.4264
        42.7504         27.5004
  10567464.29746   8281225.94144  25190399.0394                   25190408.4574
        36.0004         29.7504
 -10076177.54347  -7761521.89145  21559172.4144                   21559173.7074
        47.0004         35.0004
 25  8  5 20 56 30.0000000  0  8G08G02G32G10G31G01G27G28
   6314467.05946   4977397.38344  24137443.2734                   24137450.8284
        38.0004         29.5004
  -8145694.42647  -6250016.35545  21681605.4844                   21681603.0634
        46.7504         35.7504
   3167044.34448   2521263.20748  21317903.9614                   21317905.5234
        50.7504         48.5004
   3053220.40247   2447464.34047  22046159.0234                   22046161.8444
        47.7504         43.5004
 -13126179.84447 -10228197.85546  22697438.7664                   22697440.5314
        44.0004         37.5004
  -4887538.23847  -3600959.28144  23069984.6174                   23069984.9304
        42.7504         26.5004
  10397299.66046   8148629.86344  25158017.8364                   25158027.8984
        36.5004         28.5004
 -10392385.70347  -8007917.81645  21499000.3834                   21499000.5514
        46.7504         35.5004
 25  8  5 20 57  0.0000000  0  8G08G02G32G10G31G01G27G28
   6127367.58646   4831605.40244  24101840.2734                   24101847.3094
        38.2504         28.7504
  -8443082.73847  -6481747.52046  21625014.1254                   21625012.2274
        47.5004         36.0004
   2955940.70748   2356766.84048  21277732.2344                   21277733.9344
        51.2504         48.7504
   2835332.49247   2277681.49647  22004696.6254                   22004699.6054
        47.7504         43.2504
 -13492094.13347 -10513325.75046  22627807.4844                   22627809.1174
        44.7504         37.5004
  -5238343.71947  -3874314.16844  23003227.3834                   23003229.0204
        44.0004         26.0004
  10227038.83645   8015958.83644  25125617.5634                   25125628.6914
        34.5004         26.7504
 -10708083.89548  -8253916.35945  21438924.8594                   21438925.8484
        48.0004         35.5004
 25  8  5 20 57 30.0000000  0  8G08G02G32G10G31G01G27G28
   5940426.81646   4685937.09044  24066266.5234                   24066273.2974
        37.2504         27.5004
  -8740009.03547  -6713118.66046  21568511.0004                   21568508.4024
        47.7504         36.2504
   2745085.20348   2192463.82848  21237608.0314                   21237609.2894
        51.5004         48.7504
   2617672.06348   2108075.90247  21963277.6334                   21963280.3914
        48.0004         43.5004
 -13857773.02047 -10798270.21946  22558220.7894                   22558222.7074
        44.5004         38.0004
  -5588889.35947  -4147466.57044  22936521.4144                   22936522.9024
        43.5004         27.2504
  10056678.18445   7883210.00444  25093201.5084                   25093210.1094
        35.0004         27.5004
 -11023271.09847  -8499516.73445  21378946.3524                   21378947.1294
        47.2504         35.0004
 25  8  5 20 58  0.0000000  0  8G08G02G32G10G31G01G27G28
   5753641.68046   4540390.04744  24030722.5314                   24030729.7344
        36.2504         26.0004
  -9036472.29348  -6944128.99246  21512095.9144                   21512093.4924
        48.2504         36.2504
   2534476.13348   2028352.83248  21197530.4454                   21197531.6414
        51.0004         48.5004
   2400239.55947   1938647.91847  21921901.4614                   21921903.8714
        47.5004         43.5004
 -14223213.51647 -11083028.93446  22488679.7034                   22488681.6414
        43.7504         38.0004
  -5939172.59847  -4420414.49244  22869864.8984                   22869866.2194
        43.7504         27.7504
   9886215.01645   7750381.28144  25060762.7974                   25060772.7544
        31.7504         24.5004
 -11337945.25047  -8744717.33245  21319066.3364                   21319067.0434
        47.5004         35.2504
 25  8  5 20 58 30.0000000  0  8G08G02G32G10G31G01G27G28
   5567011.57446   4394963.79344  23995208.6254                   23995215.3054
        36.2504         27.2504
  -9332468.71147  -7174775.55946  21455770.0004                   21455767.4844
        47.2504         37.0004
   2324113.97348   1864434.24248  21157499.8594                   21157501.0864
        51.2504         48.5004
   2183037.66848   1769399.63347  21880568.8364                   21880571.3754
        48.0004         43.2504
 -14588410.02747 -11367597.53146  22419185.0864                   22419187.0084
        44.2504         38.2504
  -6289188.71947  -4693154.28144  22803259.0314                   22803260.5394
        43.7504         27.5004
   9715648.98055   7617472.39554  25028304.6484                   25028314.4614
        30.7504         26.0004
 -11652102.15247  -8989514.87145  21259284.5084                   21259284.6684
        46.5004         35.7504
 25  8  5 20 59  0.0000000  0  8G08G02G32G10G31G01G27G28
   6955960.05146   5477261.12544  24259515.4144                   24259523.7234
        37.5004         26.5004
  -8052567.06647  -6177449.59446  21699327.0864                   21699324.8134
        47.5004         37.0004
   3689424.42248   2928312.49248  21417309.5864                   21417310.9304
        51.0004         48.5004
   3541494.48847   2827937.35247  22139075.3984                   22139077.5784
        47.7504         43.2504
 -13377926.91447 -10424363.80546  22649532.5394                   22649534.0944
        43.5004         38.7504
  -5063503.05947  -3738074.48444  23036498.7894                   23036500.6724
        43.5004         28.7504
  11120403.61755   8712086.12554  25295621.0784                   25295631.1374
        31.7504         26.0004
 -10390308.95747  -8006299.35945  21499395.1724                   21499395.6764
        47.5004         35.0004
 25  8  5 20 59 30.0000000  0  8G08G02G32G10G31G01G27G28
   6769638.02746   5332074.93444  24224060.6254                   24224068.1954
        37.5004         27.2504
  -8347618.78548  -6407360.02346  21643180.5864                   21643177.9414
        48.0004         36.5004
   3479558.00448   2764780.19148  21377373.2894                   21377374.7304
        50.7504         48.5004
   3324762.14147   2659054.93847  22097832.6174                   22097834.6994
        47.7504         43.2504
 -13742619.14547 -10708539.44546  22580133.4064                   22580135.7304
        43.7504         38.7504
  -5412970.15247  -4010386.45344  22969997.2584                   22969998.8834
        43.0004         28.0004
  10949631.12555   8579016.36754  25263125.5084                   25263134.2234
        32.5004         26.0004
 -10703418.35247  -8250280.66046  21439812.5004                   21439813.2624
        47.5004         36.0004
 25  8  5 21  0  0.0000000  0  8G08G02G32G10G31G01G27G28
   6583469.92246   5187008.70344  24188633.9144                   24188642.0434
        39.0004         29.2504
  -8642191.20747  -6636896.98046  21587125.2734                   21587123.0124
        47.7504         36.0004
   3269941.25048   2601442.43448  21337484.4924                   21337486.2664
        51.0004         48.5004
   3108269.62147   2490359.39847  22056635.0784                   22056637.6604
        47.2504         43.0004
 -14107050.24247 -10992511.60246  22510784.3674                   22510786.2894
        44.0004         39.0004
  -5762154.55947  -4282478.13344  22903549.9144                   22903550.9384
        43.2504         27.7504
  10778755.89155   8445866.57054  25230607.5864                   25230617.9574
        31.5004         26.5004
 -11015996.73047  -8493848.18445  21380330.8204                   21380331.2464
        47.5004         35.2504
 25  8  5 21  0 30.0000000  0  8G08G02G32G10G31G01G27G28
   6397450.73846   5042058.49645  24153236.6414                   24153243.7344
        39.0004         30.0004
  -8936285.20348  -6866061.14146  21531161.0314                   21531158.3984
        48.0004         36.2504
   3060570.45348   2438296.33248  21297642.8134                   21297644.1174
        50.7504         48.2504
   2892015.35547   2321849.51647  22015483.4694                   22015486.3164
        47.7504         43.2504
 -14471218.98847 -11276279.33646  22441485.5634                   22441487.3954
        45.0004         38.5004
  -6111055.73047  -4554349.11744  22837155.9454                   22837157.6844
        44.0004         28.7504
  10607773.18445   8312633.03544  25198070.9614                   25198081.4964
        34.2504         28.0004
 -11328044.12947  -8737001.94945  21320950.1724                   21320950.6684
        47.5004         35.5004
 25  8  5 21  1  0.0000000  0  8G08G02G32G10G31G01G27G28
   6211576.13746   4897220.95745  24117865.7274                   24117873.2504
        39.7504         30.2504
  -9229900.96547  -7094852.64146  21475287.5554                   21475285.1954
        46.7504         36.0004
   2851442.42248   2275339.39548  21257846.9534                   21257848.6684
        51.5004         48.2504
   2675998.24247   2153524.42647  21974376.5394                   21974379.1214
        47.7504         43.0004
 -14835123.77747 -11559841.40246  22372236.4064                   22372238.4344
        44.5004         39.0004
  -6459672.58247  -4825998.56644  22770816.6254                   22770817.8554
        43.0004         29.2504
  10436679.18445   8179312.77044  25165513.8054                   25165523.6724
        34.5004         29.0004
 -11639560.10247  -8979741.63346  21261670.9924                   21261671.0164
        47.5004         36.0004
 25  8  5 21  1 30.0000000  0  8G08G02G32G10G31G01G27G28
   6025841.37546   4752492.35944  24082521.8984                   24082529.4414
        38.2504         28.5004
  -9523038.85948  -7323271.79346  21419505.5474                   21419502.9964
        48.5004         37.0004
   2642553.70348   2112568.94148  21218096.9694                   21218098.2704
        51.0004         48.0004
   2460217.05947   1985383.18047  21933315.1094                   21933317.5004
        47.7504         43.0004
 -15198763.11347 -11843196.60946  22303038.2344                   22303039.8674
        45.0004         39.2504
  -6808004.33647  -5097425.85544  22704530.8754                   22704532.8134
        42.2504         29.2504
  10265469.50846   8045902.39544  25132933.2344                   25132943.8874
        36.2504         29.5004
 -11950544.58248  -9222067.15645  21202492.1804                   21202492.7974
        48.0004         35.5004
 25  8  5 21  2  0.0000000  0  8G08G02G32G10G31G01G27G28
   5840242.60946   4607869.75444  24047203.2734                   24047210.9104
        39.7504         29.7504
  -9815698.24248  -7551318.06646  21363814.2194                   21363811.7934
        48.0004         36.7504
   2433901.82048   1949983.03148  21178391.9144                   21178393.3204
        50.7504         48.0004
   2244671.36347   1817425.43047  21892298.4384                   21892300.7504
        47.2504         43.0004
 -15562134.84047 -12126343.29346  22233890.8984                   22233892.6524
        45.2504         39.5004
  -7156049.16847  -5368629.55144  22638300.3914                   22638301.6604
        42.7504         28.5004
  10094140.85946   7912399.32445  25100331.1334                   25100341.1024
        37.2504         30.0004
 -12260996.42647  -9463977.62945  21143415.4224                   21143415.3954
        47.2504         35.5004
 25  8  5 21  2 30.0000000  0  8G08G02G32G10G31G01G27G28
   7230201.41046   5690954.32844  24311703.9454                   24311711.8014
        40.0004         29.5004
  -8532449.65247  -6551384.09446  21608008.5944                   21608005.5944
        46.7504         36.2504
   3800910.33648   3015184.44947  21438524.8674                   21438526.3364
        50.7504         47.7504
   3604787.07447   2877255.78547  22151119.4694                   22151122.5864
        47.5004         43.0004
 -14349805.31247 -11181670.81646  22464589.5394                   22464591.2544
        44.5004         39.0004
  -5928374.69947  -4412000.03144  22871918.7424                   22871920.1524
        43.0004         29.0004
  11498114.55946   9006404.56645  25367498.6484                   25367508.6524
        37.7504         30.5004
 -10995485.21947  -8477864.96146  21384233.4774                   21384234.2114
        47.5004         36.0004
 25  8  5 21  3  0.0000000  0  8G08G02G32G10G31G01G27G28
   7044862.52746   5546534.21145  24276435.4224                   24276443.1174
        40.0004         30.7504
  -8824151.24247  -6778684.03146  21552499.2664                   21552496.6884
        47.5004         37.0004
   3592723.71148   2852961.07847  21398908.2814                   21398909.5354
        50.5004         47.7504
   3389710.31347   2709663.43047  22110191.8444                   22110194.7854
        47.0004         43.2504
 -14712635.53547 -11464395.55146  22395544.8834                   22395546.7234
        45.0004         39.0004
  -6275841.50847  -4682753.34444  22805798.6724                   22805799.4224
        43.0004         28.5004
  11326536.86346   8872707.41845  25334848.3134                   25334858.6844
        38.2504         30.5004
 -11304869.70347  -8718943.74245  21325359.7504                   21325360.2114
        47.7504         35.5004
 25  8  5 21  3 30.0000000  0  8G08G02G32G10G31G01G27G28
   6859649.03546   5402211.81345  24241190.5234                   24241198.1604
        41.2504         31.5004
  -9115372.27348  -7005609.51246  21497082.1254                   21497079.6174
        48.0004         36.5004
   3384767.08648   2690916.93447  21359335.6804                   21359336.9494
        51.0004         47.7504
   3174868.54347   2542254.19947  22069308.8204                   22069311.6024
        47.2504         43.0004
 -15075189.87547 -11746905.30946  22326553.3204                   22326554.7854
        45.2504         39.7504
  -6623015.45347  -4953278.44944  22739733.3054                   22739734.3794
        42.7504         28.5004
  11154830.74246   8738910.22345  25302174.1094                   25302184.3444
        37.7504         30.0004
 -11613717.89147  -8959604.62545  21266588.1724                   21266588.4924
        47.2504         35.5004
 25  8  5 21  4  0.0000000  0  8G08G02G32G10G31G01G27G28
   6674556.98446   5257984.02745  24205968.8054                   24205976.7814
        40.2504         31.5004
  -9406112.38348  -7232160.24246  21441755.5864                   21441753.5784
        48.2504         37.0004
   3177037.70748   2529049.86347  21319805.8914                   21319807.3054
        50.7504         47.7504
   2960261.14147   2375027.57847  22028470.7424                   22028473.2774
        47.5004         43.7504
 -15437467.27747 -12029199.27746  22257613.8674                   22257615.5664
        45.5004         39.7504
  -6969895.11747  -5223574.23444  22673723.8594                   22673725.6024
        43.2504         28.5004
  10982992.65646   8605010.19145  25269474.2664                   25269484.7304
        37.2504         30.2504
 -11922029.02347  -9199847.02746  21207918.2584                   21207918.7074
        47.0004         36.0004
 25  8  5 21  4 30.0000000  0  8G08G02G32G10G31G01G27G28
   6489585.68046   5113850.33245  24170770.6484                   24170777.9064
        40.5004         32.2504
  -9696368.06647  -7458333.50446  21386521.9774                   21386519.4694
        46.7504         36.7504
   2969536.23448   2367360.37547  21280319.6024                   21280320.7624
        50.5004         47.7504
   2745890.85547   2207985.72747  21987677.0554                   21987679.9454
        46.5004         43.2504
 -15799461.88747 -12311272.89146  22188728.6564                   22188729.9224
        45.2504         39.0004
  -7316475.61747  -5493636.91444  22607772.2274                   22607773.6414
        42.7504         29.0004
  10811022.38346   8471007.14845  25236750.5084                   25236760.2424
        37.5004         30.0004
 -12229798.98447  -9439667.73845  21149351.7424                   21149352.3794
        47.0004         35.5004
 25  8  5 21  5  0.0000000  0  8G08G02G32G10G31G01G27G28
   6304730.74246   4969807.32045  24135594.0234                   24135602.0824
        40.7504         31.5004
  -9986139.43747  -7684129.37546  21331380.8204                   21331378.0204
        47.5004         36.7504
   2762259.58248   2205846.07447  21240876.3834                   21240878.0044
        50.2504         47.7504
   2531756.64547   2041127.83247  21946929.0474                   21946931.8984
        47.0004         43.2504
 -16161171.60247 -12593124.49246  22119897.3674                   22119898.5864
        44.5004         39.0004
  -7662755.78147  -5763465.54744  22541877.3594                   22541878.7304
        43.0004         29.2504
  10638916.02046   8336898.04345  25203999.5704                   25204009.5784
        37.5004         30.0004
 -12537027.48847  -9679066.53146  21090888.2114                   21090888.4414
        47.2504         36.5004
 25  8  5 21  5 30.0000000  0  8G08G02G32G10G31G01G27G28
   7695413.82846   6053456.27345  24400232.0474                   24400240.3014
        40.0004         32.5004
  -8699996.77747  -6681940.28146  21576125.1334                   21576122.8134
        47.2504         37.0004
   4130631.42648   3272109.82447  21501268.9144                   21501270.4144
        50.0004         47.7504
   3893284.54347   3102058.60247  22206019.5784                   22206021.7464
        47.7504         43.0004
 -14947162.94147 -11647143.60246  22350915.5234                   22350916.9614
        44.5004         39.2504
  -6433303.07847  -4805450.40244  22775834.1954                   22775835.7034
        43.5004         29.2504
  12042095.29746   9430284.24645  25471015.2814                   25471026.4304
        37.7504         30.2504
 -11268284.18747  -8690435.34446  21332321.7584                   21332321.8554
        47.2504         36.0004
 25  8  5 21  6  0.0000000  0  8G08G02G32G10G31G01G27G28
   7510779.02046   5909584.78145  24365097.2734                   24365104.9884
        40.7504         32.2504
  -8988799.35547  -6906981.26246  21521167.8364                   21521165.3524
        47.7504         36.7504
   3923795.63748   3110939.05147  21461909.1484                   21461910.6684
        50.2504         47.5004
   3679620.03547   2935566.70347  22165360.3204                   22165362.7114
        47.0004         42.7504
 -15308297.78147 -11928547.25846  22282194.0394                   22282195.2034
        45.0004         39.5004
  -6778978.71947  -5074808.00444  22710054.4224                   22710055.5744
        44.0004         29.0004
  11869705.59046   9295954.37945  25438211.1334                   25438222.0124
        38.5004         30.7504
 -11574428.39547  -8928989.23045  21274064.5004                   21274064.7424
        47.0004         35.5004
 25  8  5 21  6 30.0000000  0  8G08G02G32G10G31G01G27G28
   7326248.50446   5765794.55545  24329983.0004                   24329990.9064
        40.7504         32.7504
  -9277117.30147  -7131644.59046  21466302.8834                   21466300.2424
        47.2504         37.0004
   3717176.40648   2949937.02347  21422590.8834                   21422592.2974
        50.5004         47.7504
   3466189.57047   2769257.18847  22124745.7034                   22124748.7974
        47.0004         43.2504
 -15669142.04747 -12209724.50046  22213526.9694                   22213528.6174
        44.7504         39.2504
  -7124349.59447  -5343928.12944  22644332.3594                   22644333.2704
        44.0004         29.0004
  11697169.09846   9161510.12544  25405378.3444                   25405389.1724
        38.5004         28.2504
 -11880029.30547  -9167119.76645  21215910.2734                   21215910.9224
        47.5004         35.5004
 25  8  5 21  7  0.0000000  0  8G08G02G32G10G31G01G27G28
   7141821.07846   5622084.64845  24294888.3524                   24294896.0234
        40.7504         32.0004
  -9564947.42247  -7355927.80146  21411530.6484                   21411527.8984
        47.2504         36.5004
   3510773.83248   2789103.82447  21383313.6094                   21383315.5904
        50.7504         47.7504
   3252995.30547   2603131.70747  22084176.4384                   22084179.2624
        46.7504         43.0004
 -16029690.67247 -12490671.35946  22144916.8524                   22144918.6054
        44.5004         39.5004
  -7469411.40647  -5612807.41844  22578668.9924                   22578670.3834
        44.7504         29.5004
  11524485.11346   9026950.93844  25372518.1644                   25372528.9064
        37.7504         26.7504
 -12185083.48847  -9404824.27745  21157860.5634                   21157861.1094
        46.7504         35.5004
 25  8  5 21  7 30.0000000  0  8G08G02G32G10G31G01G27G28
   6957495.72746   5478454.27345  24259811.7974                   24259820.1254
        39.0004         31.7504
  -9852286.60547  -7579828.46146  21356851.8524                   21356849.1994
        47.7504         37.0004
   3304588.26648   2628439.71947  21344078.1484                   21344079.7734
        50.0004         47.7504
   3040039.64147   2437192.16047  22043652.5004                   22043654.8244
        47.0004         43.5004
 -16389938.41047 -12771383.77046  22076364.0084                   22076365.4024
        44.0004         39.7504
  -7814159.57047  -5881442.29745  22513065.9224                   22513067.2344
        44.5004         30.0004
  11351653.19546   8892276.46944  25339629.5394                   25339640.5004
        37.7504         27.2504
 -12489587.32047  -9642099.94945  21099915.4144                   21099915.6844
        47.5004         35.5004
 25  8  5 21  8  0.0000000  0  8G08G02G32G10G31G01G27G28
   6773268.05146   5334900.01645  24224754.4224                   24224762.6804
        39.5004         31.5004
 -10139135.14147  -7803346.80946  21302266.1254                   21302263.9534
        47.5004         36.7504
   3098616.51648   2467942.22747  21304883.1484                   21304884.7034
        50.2504         47.7504
   2827321.44547   2271437.64847  22003173.7584                   22003176.1414
        46.7504         43.0004
 -16749884.03947 -13051860.77046  22007868.7814                   22007870.1994
        44.7504         40.0004
  -8158593.03947  -6149831.95744  22447522.5474                   22447523.5394
        44.7504         29.7504
  11178669.39146   8757483.66844  25306712.6094                   25306722.8954
        38.7504         25.2504
 -12793540.72747  -9878946.72345  21042074.9694                   21042075.6604
        47.2504         35.2504
 25  8  5 21  8 30.0000000  0  9G08G02G03G32G10G31G01G27G28
   8164562.83646   6419025.59445  24489509.2194                   24489517.6454
        39.0004         31.2504
  -8850060.90247  -6798873.37546  21547569.1484                   21547566.6724
        47.2504         36.7504
  37162601.73056  29030997.52354  24484194.5234                   24484201.4344
        40.0004         27.5004
   4468285.45348   3535216.68847  21565522.3284                   21565523.8094
        49.7504         47.7504
   4190269.85247   3333475.29347  22262533.6954                   22262536.6454
        46.7504         42.7504
 -15534090.51247 -12104489.07846  22239226.5474                   22239227.5664
        44.7504         39.7504
  -6927276.16847  -5190364.20344  22681833.8594                   22681835.4224
        43.5004         29.5004
  12580958.53546   9850176.25043  25573558.7194                   25573569.2624
        37.5004         23.0004
 -11521510.30547  -8887754.14545  21284134.3284                   21284134.5634
        47.2504         35.5004
 25  8  5 21  9  0.0000000  0  9G08G02G03G32G10G31G01G27G28
   7980523.10546   6275617.78545  24454487.7664                   24454496.2504
        38.0004         31.5004
  -9135923.49247  -7021623.44946  21493171.1334                   21493168.3524
        47.0004         36.5004
  36815701.94946  28760686.14144  24418182.0944                   24418188.5234
        39.0004         27.2504
   4262737.89848   3375049.73847  21526408.1094                   21526409.5744
        50.7504         47.7504
   3978029.23447   3168092.91847  22222145.9844                   22222148.8634
        46.5004         43.0004
 -15893420.66847 -12384486.48846  22170847.6484                   22170849.0634
        44.7504         40.2504
  -7271071.19547  -5458256.37144  22616412.4224                   22616413.6454
        44.2504         29.7504
  12407665.08645   9715142.22742  25540582.9694                   25540593.4884
        32.0004         16.7504
 -11824356.58647  -9123738.21545  21226504.5004                   21226504.2304
        47.0004         35.7504
 25  8  5 21  9 30.0000000  0  8G08G02G03G32G10G31G01G28
   7796571.85246   6132278.90645  24419483.2894                   24419491.5824
        37.7504         30.5004
  -9421292.64148  -7243989.03546  21438867.3134                   21438864.5554
        48.5004         36.5004
  36468782.91046  28490359.74644  24352164.9304                   24352171.5824
        38.5004         26.5004
   4057398.89548   3215045.28547  21487333.4304                   21487335.0594
        50.7504         47.7504
   3766026.84847   3002896.17647  22181803.2734                   22181806.3404
        46.5004         42.7504
 -16252439.57847 -12664241.37546  22102529.1644                   22102529.7934
        44.5004         40.0004
  -7614544.30147  -5725897.71944  22551051.2344                   22551052.1094
        45.0004         29.2504
 -12126648.09447  -9359290.00846  21168980.1804                   21168980.7074
        47.0004         36.2504
 25  8  5 21 10  0.0000000  0  8G08G02G03G32G10G31G01G28
   7612705.96546   5989006.55944  24384494.9774                   24384503.1644
        37.0004         29.7504
  -9706167.15247  -7465969.18446  21384657.3134                   21384654.8984
        47.5004         37.0004
  36121845.03146  28220018.63744  24286145.4614                   24286151.5234
        38.0004         27.0004
   3852266.64848   3055201.94547  21448297.9384                   21448299.4614
        50.5004         47.7504
   3554262.96147   2837885.27347  22141506.2734                   22141509.4694
        47.0004         42.7504
 -16611144.18447 -12943751.34446  22034269.6334                   22034270.6454
        46.0004         41.0004
  -7957693.04747  -5993286.30945  22485752.1334                   22485753.1294
        44.0004         30.0004
 -12428383.44947  -9594408.42645  21111561.6884                   21111562.3164
        46.7504         35.7504
 25  8  5 21 10 30.0000000  0  8G08G02G03G32G10G31G01G28
   7428924.50446   5845799.98045  24349522.3204                   24349531.0314
        36.0004         30.2504
  -9990544.28148  -7687561.76646  21330542.0004                   21330539.7934
        48.0004         37.2504
  35774890.60946  27949664.66844  24220121.7274                   24220128.3054
        38.2504         27.7504
   3647341.48848   2895519.97347  21409301.8984                   21409303.6564
        50.2504         47.5004
   3342739.78547   2673061.94147  22101254.5394                   22101257.6334
        47.0004         42.5004
 -16969529.52047 -13223012.53946  21966071.1644                   21966072.1294
        45.5004         40.5004
  -8300512.88347  -6260418.60944  22420515.7894                   22420516.6884
        45.0004         29.0004
 -12729559.16847  -9829090.76645  21054250.1254                   21054250.1484
        47.2504         35.7504
 25  8  5 21 11  0.0000000  0  8G08G02G03G32G10G31G01G28
   7245222.42245   5702655.25844  24314564.4614                   24314574.2234
        35.5004         28.2504
 -10274424.88748  -7908767.43746  21276521.3984                   21276519.3054
        48.2504         37.5004
  35427918.06646  27679296.56644  24154095.0704                   24154101.4654
        37.5004         28.0004
   3442619.69148   2735996.47347  21370344.7274                   21370346.3754
        50.7504         47.5004
   3131455.75047   2508424.95347  22061048.7504                   22061051.5084
        47.0004         42.2504
 -17327594.74647 -13502024.28946  21897933.4844                   21897934.5664
        45.5004         41.2504
  -8643003.40647  -6527294.29744  22355341.8204                   22355342.6994
        44.5004         29.0004
 -13030175.88747 -10063337.52746  20997044.5784                   20997044.7194
        47.5004         36.0004
 25  8  5 21 11 30.0000000  0  8G08G02G03G32G10G31G01G28
   8637021.26245   6787173.58244  24579415.5314                   24579424.4024
        35.7504         28.0004
  -8982380.11748  -6901979.30546  21522389.8834                   21522387.1954
        48.5004         36.7504
  36656357.86746  28636522.48044  24387859.2974                   24387865.3164
        37.5004         26.5004
   4813524.82848   3804234.21147  21631219.4064                   21631221.1684
        50.5004         47.5004
   4495836.53547   3571578.73047  22320681.6484                   22320684.8014
        46.5004         42.2504
 -16109906.44547 -12553176.16046  22129651.6564                   22129652.8914
        44.7504         41.0004
  -7409732.21547  -5566303.71144  22590025.5864                   22590026.7544
        45.5004         29.5004
 -11754803.82447  -9069541.08245  21239739.9924                   21239740.4774
        47.0004         35.7504
 25  8  5 21 12  0.0000000  0  8G08G02G03G32G10G31G01G28
   8453469.28145   6644145.80544  24544487.4614                   24544496.3204
        35.7504         28.5004
  -9265264.44948  -7122408.66446  21468558.5314                   21468555.6884
        48.0004         37.0004
  36309350.78146  28366127.48444  24321825.9534                   24321832.6024
        36.7504         27.7504
   4609205.03148   3645023.94947  21592338.7344                   21592340.2544
        49.2504         47.5004
   4285031.86747   3407315.27747  22280566.9924                   22280569.9184
        46.5004         42.2504
 -16467321.91447 -12831681.61746  22061637.8284                   22061638.6254
        45.0004         41.2504
  -7751556.35547  -5832660.12945  22524978.5704                   22524980.0904
        44.7504         31.0004
 -12054298.14847  -9302913.25445  21182747.9304                   21182748.1644
        46.7504         35.7504
 25  8  5 21 12 30.0000000  0  8G08G02G03G32G10G31G01G28
   8269985.48846   6501171.16844  24509571.3834                   24509580.5314
        36.2504         29.2504
  -9547651.66848  -7342450.65646  21414821.9384                   21414819.6094
        48.5004         37.0004
  35962324.72346  28095717.68844  24255788.6724                   24255795.3404
        36.2504         27.0004
   4405081.35548   3485966.52047  21553495.2664                   21553496.3714
        49.5004         47.5004
   4074464.98447   3243237.09847  22240497.3204                   22240500.4884
        46.0004         42.2504
 -16824410.38347 -13109932.26646  21993686.0314                   21993686.9614
        44.5004         41.0004
  -8093045.89147  -6098755.81245  22459994.8054                   22459996.2304
        45.0004         30.0004
 -12353231.53547  -9535848.33246  21125862.6564                   21125862.4884
        45.0004         36.0004
 25  8  5 21 13  0.0000000  0  8G08G02G03G32G10G31G01G28
   8086569.86746   6358249.65244  24474668.7034                   24474678.5704
        36.0004         29.2504
  -9829537.60948  -7562102.04346  21361180.8914                   21361178.7074
        48.0004         37.5004
  35615283.13345  27825295.81344  24189748.6884                   24189755.6334
        35.0004         27.5004
   4201155.11748   3327062.93047  21514689.3524                   21514691.0904
        49.5004         47.0004
   3864139.09047   3079346.71147  22200474.2034                   22200477.3674
        45.5004         42.0004
 -17181165.79747 -13387923.39146  21925797.4224                   21925798.3874
        45.5004         41.0004
  -8434195.42647  -6364586.57845  22395076.5864                   22395077.4654
        45.0004         30.0004
 -12651599.72747  -9768342.98846  21069084.8914                   21069085.3164
        46.2504         36.5004
 25  8  5 21 13 30.0000000  0  8G08G02G03G32G10G31G01G28
   7903223.49246   6215382.09044  24439779.7664                   24439788.6724
        36.5004         28.2504
 -10110917.84448  -7781359.37546  21307635.8674                   21307633.9924
        48.2504         37.2504
  35268230.49245  27554865.31644  24123706.7814                   24123713.2504
        34.5004         28.5004
   3997428.65648   3168315.02047  21475921.4384                   21475922.8324
        48.5004         47.0004
   3654058.48847   2915647.46147  22160496.6884                   22160500.1374
        46.0004         42.0004
 -17537581.19947 -13665649.57846  21857974.0554                   21857974.5004
        44.5004         40.7504
  -8774998.46547  -6630147.32844  22330223.9064                   22330224.5904
        44.5004         29.5004
 -12949397.44547 -10000393.12945  21012416.1644                   21012416.4494
        45.7504         35.7504
 25  8  5 21 14  0.0000000  0  8G08G02G03G32G10G31G01G28
   7719946.91446   6072568.93044  24404903.6414                   24404912.8634
        37.0004         27.5004
 -10391787.58248  -8000218.91046  21254188.0704                   21254186.1524
        48.7504         37.5004
  34921170.81645  27284429.35944  24057663.6174                   24057670.1604
        34.7504         27.0004
   3793903.89848   3009724.27047  21437191.9614                   21437193.7154
        48.5004         47.0004
   3444227.07447   2752142.39546  22120567.4614                   22120570.5434
        46.5004         41.7504
 -17893650.07447 -13943105.74646  21790216.1564                   21790216.8914
        45.7504         40.7504
  -9115449.00847  -6895433.41844  22265437.9534                   22265438.9024
        45.2504         29.0004
 -13246619.79747 -10231994.93446  20955856.3674                   20955856.7624
        46.2504         36.5004
 25  8  5 21 14 30.0000000  0  8G08G02G03G32G10G31G01G28
   9112160.41046   7157410.34444  24669833.5704                   24669841.9024
        36.5004         26.0004
  -9096719.55548  -6991075.00446  21500631.5554                   21500629.2034
        48.7504         37.0004
  36149533.24645  28241595.02344  24291412.9774                   24291419.6644
        34.5004         26.7504
   5166003.03148   4078892.40647  21698293.8444                   21698295.7344
        49.0004         47.0004
   4810069.14547   3816434.84446  22380478.4224                   22380481.7074
        46.0004         41.5004
 -16673940.46947 -12992682.57846  22022319.1414                   22022320.1024
        44.5004         40.5004
  -7880116.10247  -5932836.30145  22500513.9454                   22500515.0634
        44.7504         31.0004
 -11967838.58647  -9235542.00846  21199200.5004                   21199200.9694
        46.5004         36.5004
 25  8  5 21 15  0.0000000  0  8G08G02G03G32G10G31G01G28
   8929009.84046   7014695.38344  24634980.9144                   24634989.9774
        37.0004         26.7504
  -9376570.35948  -7209140.56646  21447377.7344                   21447375.0314
        48.5004         37.5004
  35802456.31645  27971145.59844  24225366.3204                   24225372.4264
        34.5004         27.5004
   4962872.03148   3920608.49247  21659639.2034                   21659640.8204
        48.0004         46.7504
   4600732.19547   3653315.06646  22340643.0864                   22340646.1764
        46.7504         41.5004
 -17029311.93047 -13269595.30946  21954694.1564                   21954695.4024
        45.0004         41.0004
  -8219858.78147  -6197570.79745  22435863.4304                   22435864.1564
        45.0004         30.5004
 -12263911.20347  -9466247.91046  21142859.6804                   21142860.0554
        45.2504         36.0004
 25  8  5 21 15 30.0000000  0  8G08G02G03G32G10G31G01G28
   8745917.02346   6872025.37944  24600139.9064                   24600148.7034
        37.5004         27.0004
  -9655911.24248  -7426808.78946  21394220.8674                   21394218.3634
        48.7504         37.7504
  35455370.58245  27700689.30944  24159318.6414                   24159324.9024
        35.5004         27.7504
   4759934.54748   3762475.36347  21621021.6804                   21621023.1994
        48.5004         46.7504
   4391641.99647   3490387.56646  22300854.5554                   22300857.7384
        47.0004         41.0004
 -17384331.24247 -13546233.63746  21887136.1254                   21887137.1254
        45.2504         40.5004
  -8559244.75847  -6462027.35545  22371279.8364                   22371281.2974
        44.5004         30.5004
 -12559407.99647  -9696505.11746  21086628.3594                   21086628.6844
        45.7504         36.5004
 25  8  5 21 16  0.0000000  0  8G08G02G03G32G10G31G01G28
   8562877.93846   6729397.26644  24565308.6484                   24565317.9884
        38.0004         27.2504
  -9934742.73048  -7644080.08246  21341160.9924                   21341158.5314
        49.0004         37.5004
  35108275.64845  27430225.87544  24093267.0314                   24093274.4104
        35.0004         29.0004
   4557187.98448   3604491.00447  21582440.0314                   21582441.5984
        48.2504         46.7504
   4182797.82447   3327651.78146  22261112.8054                   22261116.0514
        45.5004         41.0004
 -17738996.24647 -13822595.88346  21819645.7974                   21819646.2034
        45.2504         40.7504
  -8898272.52047  -6726204.77745  22306765.4844                   22306765.8954
        45.2504         30.5004
 -12854328.77747  -9926313.48046  21030506.5864                   21030506.9574
        46.7504         36.7504
 25  8  5 21 16 30.0000000  0  8G08G02G03G32G10G31G01G28
   8379886.19146   6586806.05144  24530486.5164                   24530495.6454
        38.5004         28.5004
 -10213067.10248  -7860956.22346  21288197.3984                   21288195.5394
        49.2504         37.5004
  34761168.47346  27159752.92645  24027215.7584                   24027222.1454
        36.5004         30.0004
   4354627.24248   3446651.44147  21543894.1804                   21543895.7154
        48.0004         46.5004
   3974196.50847   3165105.23046  22221417.3364                   22221420.8914
        46.2504         41.0004
 -18093307.32447 -14098682.34846  21752222.0704                   21752223.1174
        45.5004         40.5004
  -9236943.10947  -6990103.87945  22242318.7034                   22242318.9144
        45.2504         30.7504
 -13148675.80547 -10155674.77046  20974494.5004                   20974494.6564
        46.5004         36.5004
 25  8  5 21 17  0.0000000  0  8G08G02G03G32G10G31G01G28
   8196938.50846   6444249.15244  24495673.4224                   24495682.6684
        38.7504         29.2504
 -10490883.86348  -8077436.83246  21235330.7814                   21235328.5634
        48.5004         37.7504
  34414049.35246  26889270.64545  23961160.5084                   23961167.7114
        36.7504         30.5004
   4152250.36748   3288955.14547  21505383.1094                   21505384.9064
        48.5004         46.5004
   3765837.91047   3002747.80546  22181768.2504                   22181771.1294
        46.7504         40.7504
 -18447262.09847 -14374491.16846  21684867.1254                   21684867.9344
        45.7504         41.0004
  -9575254.34847  -7253722.97745  22177939.7664                   22177940.9924
        45.7504         30.5004
 -13442448.36347 -10384588.41846  20918591.2504                   20918591.6214
        46.5004         36.7504
 25  8  5 21 17 30.0000000  0  8G08G02G03G32G10G31G01G28
   9589459.07846   7529329.84844  24760661.3914                   24760670.0784
        39.5004         28.5004
  -9192762.10248  -7065913.39846  21482355.3834                   21482352.9454
        48.5004         37.2504
  35642351.45346  27846389.29745  24194899.4924                   24194905.4694
        38.0004         30.7504
   5525483.57448   4359006.97347  21766700.7584                   21766702.5124
        49.0004         46.5004
   5133150.35547   4068185.99646  22441959.1094                   22441962.7274
        46.2504         40.7504
 -17225424.78547 -13422410.05546  21917374.7424                   21917375.5824
        45.7504         41.2504
  -8337771.42247  -6289450.51645  22413425.1804                   22413426.4304
        45.0004         31.5004
 -12160214.40647  -9385445.03546  21162592.5084                   21162592.4614
        47.0004         36.2504
 25  8  5 21 18  0.0000000  0  8G08G02G03G32G10G31G01G28
   9406587.75046   7386832.46944  24725862.3524                   24725871.6724
        40.0004         28.5004
  -9469564.83648  -7281603.85246  21429681.2664                   21429679.0664
        48.5004         37.0004
  35295207.07046  27575887.34445  24128839.6414                   24128845.8554
        38.2504         32.2504
   5323466.70748   4201591.19947  21728258.5784                   21728260.0354
        49.0004         46.7504
   4925275.12947   3906205.22746  22402401.7424                   22402404.7504
        46.7504         40.7504
 -17578661.01247 -13697658.96946  21850156.4144                   21850156.8444
        45.5004         41.5004
  -8675359.55547  -6552506.14845  22349184.0314                   22349184.9774
        45.0004         30.7504
 -12452837.49247  -9613462.99246  21106908.1414                   21106908.2074
        46.5004         36.7504
 25  8  5 21 18 30.0000000  0  8G08G02G03G32G10G31G01G28
   9223745.31346   7244357.56344  24691069.2664                   24691077.8634
        39.2504         28.2504
  -9745864.26647  -7496902.12146  21377103.4064                   21377101.0164
        47.5004         37.7504
  34948045.98446  27305372.37545  24062776.7814                   24062783.3014
        39.0004         33.0004
   5121622.53548   4044310.00047  21689848.6024                   21689850.3794
        48.0004         46.2504
   4717637.04347   3744409.23446  22362889.9144                   22362893.4414
        46.0004         40.7504
 -17931538.14547 -13972628.07846  21783005.7114                   21783006.2424
        45.7504         41.0004
  -9012587.34047  -6815280.99245  22285011.2894                   22285012.5394
        44.7504         31.7504
 -12744889.16447  -9841035.69146  21051332.5704                   21051332.7464
        46.7504         36.2504
 25  8  5 21 19  0.0000000  0  8G08G02G03G32G10G31G01G28
   9040928.67246   7101902.76644  24656279.7894                   24656289.5744
        39.0004         26.0004
 -10021659.70348  -7711807.67246  21324621.0864                   21324618.9344
        48.2504         37.2504
  34600868.59846  27034844.69945  23996711.5084                   23996717.3444
        38.2504         32.2504
   4919949.30148   3887161.98447  21651471.5474                   21651473.0984
        48.5004         46.5004
   4510236.20347   3582798.11346  22323422.4064                   22323425.9734
        46.0004         41.0004
 -18284053.24647 -14247315.07846  21715924.4064                   21715924.9454
        45.5004         41.5004
  -9349452.44947  -7077773.24245  22220908.2504                   22220909.3634
        45.7504         32.2504
 -13036368.48447 -10068162.40246  20995865.8674                   20995866.0474
        46.0004         36.7504
 25  8  5 21 19 30.0000000  0  8G08G02G03G32G10G31G01G28
   8858136.35246   6959466.95744  24621495.7344                   24621505.1954
        38.0004         26.0004
 -10296949.03147  -7926318.84046  21272235.4144                   21272233.0314
        47.7504         37.5004
  34253676.80946  26764305.80545  23930642.3524                   23930649.0234
        39.5004         33.2504
   4718446.85248   3730147.06347  21613127.0944                   21613128.6374
        48.7504         46.2504
   4303074.19147   3421373.08646  22284001.3834                   22284004.4924
        46.0004         40.7504
 -18636202.78947 -14521717.23046  21648912.2974                   21648912.8834
        46.0004         41.5004
  -9685951.12547  -7339979.94945  22156874.8284                   22156875.6684
        45.0004         31.2504
 -13327273.03947 -10294841.24246  20940508.5004                   20940508.5784
        46.0004         36.7504
 25  8  5 21 20  0.0000000  0  8G08G02G03G32G10G31G01G28
   8675365.78546   6817048.07844  24586715.6804                   24586725.1524
        39.5004         25.7504
 -10571731.38748  -8140434.97746  21219946.1644                   21219944.1294
        48.5004         37.2504
  33906471.69546  26493756.52045  23864571.9844                   23864577.5634
        38.7504         33.2504
   4517114.02748   3573264.29347  21574814.3524                   21574816.5394
        48.7504         46.2504
   4096151.77347   3260134.74646  22244625.0704                   22244628.2974
        46.2504         40.7504
 -18987983.03947 -14795831.62146  21581970.5784                   21581971.3164
        46.2504         41.5004
 -10022080.40247  -7601898.82445  22092911.8284                   22092912.2424
        45.0004         31.5004
 -13617601.41847 -10521071.11746  20885260.8364                   20885260.8984
        46.2504         37.0004
 25  8  5 21 20 30.0000000  0  8G08G02G03G32G10G31G01G28
  10068044.02346   7902251.67244  24851734.4224                   24851743.5124
        40.0004         26.2504
  -9270572.98848  -7126545.31646  21467548.2504                   21467545.6844
        48.7504         37.5004
  35134689.20346  27450809.27045  24098293.4924                   24098299.5164
        38.2504         32.0004
   5891379.75048   4644120.66447  21836328.9064                   21836330.2584
        48.7504         46.0004
   5464899.80547   4326691.57046  22505089.3834                   22505092.4024
        46.0004         40.5004
 -17763955.49647 -13842043.85247  21814895.0704                   21814895.9614
        45.5004         42.0004
  -8782402.91847  -6635916.31245  22328814.4384                   22328815.2664
        45.7504         31.7504
 -12331919.16047  -9519240.75446  21129917.6484                   21129918.0354
        46.0004         37.2504
 25  8  5 21 21  0.0000000  0  8G08G02G03G32G10G31G01G28
   9885314.78146   7759864.99244  24816962.2734                   24816971.9494
        39.5004         26.5004
  -9544332.53148  -7339864.45346  21415453.8914                   21415451.4224
        49.0004         37.2504
  34787465.56646  27180245.55945  24032218.6174                   24032225.1334
        37.7504         30.5004
   5690387.91848   4487503.61747  21798081.3204                   21798083.0274
        48.5004         46.2504
   5258463.59047   4165832.09846  22465805.5784                   22465809.0704
        46.0004         40.5004
 -18114981.98447 -14115570.89847  21748097.0004                   21748097.8444
        46.2504         42.0004
  -9117779.79347  -6897248.89845  22264994.4844                   22264995.3754
        46.0004         32.2504
 -12621085.84047  -9744565.40646  21074891.3444                   21074891.2344
        46.0004         36.5004
 25  8  5 21 21 30.0000000  0  8G08G02G03G32G10G31G01G28
   9702602.00846   7617491.15244  24782192.4304                   24782202.6954
        39.5004         26.7504
  -9817579.79348  -7552784.40246  21363456.2814                   21363453.9144
        48.5004         37.5004
  34440233.61746  26909675.37144  23966142.6174                   23966148.5474
        37.0004         29.5004
   5489564.21148   4331017.57847  21759865.7894                   21759867.5354
        48.5004         46.0004
   5052270.81347   4005162.31646  22426569.0784                   22426572.2934
        45.7504         40.7504
 -18465627.25047 -14388800.89846  21681371.2194                   21681372.1094
        46.5004         41.2504
  -9452776.77047  -7158285.45345  22201246.5004                   22201247.4774
        45.7504         32.5004
 -12909670.25447  -9969436.35246  21019975.3134                   21019975.7304
        45.5004         37.0004
 25  8  5 21 22  0.0000000  0  9G08G02G03G32G10G25G31G01G28
   9519900.84446   7475126.35944  24747426.9144                   24747436.4884
        40.0004         26.2504
 -10090315.85248  -7765306.01646  21311556.6564                   21311553.9884
        48.5004         37.0004
  34092992.31346  26639097.89144  23900065.1414                   23900070.1914
        36.2504         29.5004
   5288905.49648   4174660.10247  21721681.5234                   21721683.7774
        49.0004         46.0004
   4846320.04347   3844681.11346  22387377.8364                   22387381.1804
        46.2504         40.5004
  43120343.37555  34076881.97353  24707965.5234                   24707971.6884
        35.0004         19.0004
 -18815889.61347 -14661732.52746  21614719.0474                   21614719.4694
        46.2504         41.7504
  -9787393.03947  -7419025.35545  22137570.7504                   22137571.4414
        45.2504         31.7504
 -13197673.10947 -10193854.12946  20965170.6954                   20965170.8834
        45.2504         37.0004
 25  8  5 21 22 30.0000000  0  9G08G02G03G32G10G25G31G01G28
   9337212.53946   7332771.55944  24712661.9844                   24712672.4574
        39.5004         27.7504
 -10362536.12148  -7977425.71146  21259755.0314                   21259752.1174
        48.7504         37.0004
  33745746.32046  26368516.74644  23833986.0554                   23833991.8164
        37.0004         29.7504
   5088414.16448   4018433.06347  21683529.7814                   21683531.3164
        48.2504         46.0004
   4640615.53147   3684391.80146  22348233.4304                   22348236.8794
        46.5004         40.7504
  42817030.16045  33840534.07443  24650245.4224                   24650253.3794
        34.7504         19.2504
 -19165762.62547 -14934360.77347  21548139.9614                   21548140.3364
        45.5004         42.0004
 -10121622.27347  -7679463.66845  22073969.4304                   22073970.0704
        45.7504         31.0004
 -13485089.58647 -10417814.98846  20910477.0944                   20910477.0824
        45.5004         36.7504
 25  8  5 21 23  0.0000000  0  9G08G02G03G32G10G25G31G01G28
   9154535.00846   7190425.18444  24677900.3524                   24677910.4654
        39.0004         27.0004
 -10634239.21148  -8189142.41046  21208050.8754                   21208048.9384
        48.0004         37.7504
  33398497.02046  26097933.00045  23767906.6254                   23767911.7074
        38.5004         30.2504
   4888089.50048   3862335.88747  21645409.0554                   21645410.7114
        48.0004         46.0004
   4435158.25047   3524295.13746  22309136.3834                   22309139.5784
        46.7504         41.0004
  42514103.64545  33604487.52343  24592601.4614                   24592608.3324
        34.5004         19.2504
 -19515242.67247 -15206682.81647  21481635.9844                   21481636.5394
        46.5004         42.5004
 -10455461.25447  -7939597.89545  22010441.5474                   22010442.3164
        45.5004         32.2504
 -13771918.02047 -10641317.62946  20855895.1254                   20855895.3444
        45.5004         37.2504
 25  8  5 21 23 30.0000000  0  9G08G02G03G32G10G25G31G01G28
  10547290.93046   8275689.26644  24942932.6334                   24942942.8094
        39.0004         27.2504
  -9329996.21948  -7172849.18046  21456240.4694                   21456238.4844
        48.5004         37.5004
  34626676.03946  27054955.71545  24001621.1804                   24001627.0314
        39.2504         30.7504
   6263356.12548   4933972.18047  21907113.4774                   21907115.3754
        49.0004         46.0004
   5805374.66047   4591996.15646  22569880.2114                   22569883.2704
        46.0004         40.7504
  43786995.78545  34596351.59043  24834825.2894                   24834831.5824
        35.5004         18.2504
 -18288895.69947 -14251087.69947  21715002.2274                   21715002.8094
        47.0004         42.2504
  -9213476.91447  -6971817.84845  22246783.6804                   22246784.1374
        45.5004         32.2504
 -12482728.57847  -9636754.40246  21101219.4844                   21101219.7504
        46.7504         37.5004
 25  8  5 21 24  0.0000000  0  9G08G02G03G32G10G25G31G01G28
  10364625.96946   8133352.68044  24908173.3364                   24908183.1764
        37.2504         27.5004
  -9600663.68048  -7383758.90246  21404734.1254                   21404731.8404
        48.2504         37.0004
  34279421.68846  26784368.02045  23935540.4774                   23935546.1054
        39.2504         31.5004
   6063359.83648   4778130.88347  21869055.5554                   21869057.2194
        48.0004         45.7504
   5600412.07847   4432284.97346  22530877.1724                   22530880.3524
        46.2504         40.7504
  43484849.64145  34360913.07442  24777328.5864                   24777333.8714
        35.0004         17.2504
 -18637581.49647 -14522790.84447  21648649.8054                   21648649.7424
        46.5004         42.7504
  -9546528.41847  -7231338.45745  22183405.9774                   22183406.7234
        46.0004         31.5004
 -12768378.82847  -9859338.98046  21046862.0554                   21046862.6334
        47.5004         36.7504
 25  8  5 21 24 30.0000000  0  9G08G02G03G32G10G25G31G01G28
  10181960.51646   7991015.70344  24873413.2114                   24873423.5314
        37.5004         27.0004
  -9870815.07847  -7594266.50446  21353326.2274                   21353323.8714
        47.5004         37.0004
  33932163.26646  26513777.16045  23869459.8914                   23869464.8754
        38.5004         30.7504
   5863522.91448   4622413.77047  21831027.7974                   21831029.5864
        48.2504         45.7504
   5395694.57847   4272764.76246  22491920.8674                   22491923.9884
        46.2504         40.2504
  43183094.69946  34125779.36342  24719905.5944                   24719912.1604
        36.2504         17.7504
 -18985868.30147 -14794183.08247  21582372.5704                   21582372.8914
        46.5004         42.7504
  -9879185.16847  -7490551.45745  22120103.2344                   22120103.8714
        45.0004         31.7504
 -13053441.32447 -10081465.56646  20992616.6564                   20992616.9024
        46.7504         37.5004
 25  8  5 21 25  0.0000000  0  9G08G02G03G32G10G25G31G01G28
   9999293.01646   7848677.14144  24838653.0314                   24838663.3634
        38.0004         28.2504
 -10140448.42248  -7804370.42246  21302016.8594                   21302014.0664
        48.0004         37.7504
  33584902.81346  26243184.72745  23803377.6094                   23803383.5354
        38.0004         30.5004
   5663845.27748   4466820.77747  21793030.5394                   21793032.4304
        48.0004         45.7504
   5191223.78547   4113436.78146  22453011.2814                   22453014.5984
        47.0004         40.2504
  42881735.09446  33890953.73843  24662559.1174                   24662565.9884
        36.0004         19.0004
 -19333751.92247 -15065261.15247  21516172.4384                   21516172.9694
        45.5004         42.7504
 -10211443.32047  -7749453.88345  22056876.6024                   22056877.3954
        45.7504         32.5004
 -13337913.93447 -10303132.50446  20938483.4304                   20938483.2624
        47.7504         37.2504
 25  8  5 21 25 30.0000000  0  9G08G02G03G32G10G25G31G01G28
   9816618.18046   7706332.85244  24803891.3594                   24803902.0394
        36.5004         27.5004
 -10409566.04747  -8014072.48046  21250805.3524                   21250802.9264
        47.7504         37.5004
  33237638.64146  25972589.42645  23737296.1094                   23737301.7854
        37.5004         31.2504
   5464323.00447   4311348.83647  21755062.5784                   21755064.9344
        47.7504         45.5004
   4986997.46147   3954299.30546  22414148.5164                   22414151.7894
        46.5004         40.0004
  42580770.63346  33656436.08242  24605286.8914                   24605293.3674
        37.0004         17.2504
 -19681231.79747 -15336024.61347  21450049.3984                   21450049.5744
        46.5004         43.5004
 -10543302.94947  -8008045.76245  21993725.7194                   21993726.0984
        46.2504         32.2504
 -13621798.30547 -10524341.07446  20884461.9774                   20884461.8364
        47.0004         37.2504
 25  8  5 21 26  0.0000000  0  9G08G02G03G32G10G25G31G01G28
   9633933.29346   7563980.73444  24769127.7114                   24769138.2894
        36.0004         27.2504
 -10678167.21947  -8223372.11346  21199692.0864                   21199689.8834
        47.7504         38.5004
  32890371.41846  25701991.70745  23671212.8054                   23671218.1884
        37.7504         30.2504
   5264954.56348   4155996.77747  21717124.0474                   21717125.9654
        48.0004         45.5004
   4783015.81347   3795352.48046  22375331.7894                   22375335.4964
        46.0004         40.2504
  42280203.78146  33422228.12543  24548090.9614                   24548097.0204
        38.0004         19.5004
 -20028305.38747 -15606471.48447  21384003.0314                   21384003.7464
        46.5004         43.0004
 -10874761.64147  -8266325.23045  21930651.4454                   21930651.8754
        45.2504         32.2504
 -13905093.75448 -10745090.75046  20830552.3984                   20830552.9344
        48.0004         37.5004
 25  8  5 21 26 30.0000000  0  9G08G02G03G32G10G25G31G01G28
  11026665.14846   8649226.07044  25034155.6024                   25034166.8204
        36.0004         27.0004
  -9370818.94948  -7204659.19546  21448472.1254                   21448470.1414
        48.2504         37.7504
  34118537.05146  26659004.01644  23904924.6254                   23904929.8244
        37.5004         28.5004
   6641168.76248   5228371.44547  21979008.9844                   21979011.4534
        48.7504         45.5004
   6154709.36747   4864204.51646  22636356.7734                   22636360.0664
        46.5004         40.0004
  43555470.62546  34415942.66043  24790766.4454                   24790772.9924
        38.2504         19.5004
 -18799534.60547 -14648987.67647  21617830.4924                   21617830.8094
        46.2504         43.0004
  -9630382.33247  -7296678.98445  22167449.0004                   22167449.5944
        46.0004         32.0004
 -12612366.54348  -9737770.82046  21076550.5784                   21076550.1954
        48.7504         37.2504
 25  8  5 21 27  0.0000000  0  9G08G02G03G32G10G25G31G01G28
  10843956.83245   8506855.68844  24999388.1484                   24999398.7734
        34.0004         27.0004
  -9638380.48448  -7413148.71146  21397556.9844                   21397554.8134
        48.0004         37.7504
  33771271.19146  26388407.37944  23838841.4454                   23838847.7624
        36.7504         29.7504
   6442108.95748   5073259.87947  21941129.2034                   21941130.9414
        48.0004         45.5004
   5951222.84047   4705643.50046  22597634.8984                   22597637.9734
        45.5004         40.2504
  43255711.49246  34182364.16043  24733724.2034                   24733730.0634
        37.7504         20.2504
 -19145781.68047 -14918790.50847  21551941.5784                   21551942.3594
        46.7504         43.0004
  -9961026.64847  -7554323.85245  22104529.3204                   22104529.6094
        45.5004         31.5004
 -12894476.76247  -9957596.94146  21022866.5234                   21022866.4184
        47.5004         37.0004
 25  8  5 21 27 30.0000000  0  9G08G02G03G32G10G25G31G01G28
  10661230.93445   8364471.59444  24964615.8754                   24964627.2464
        32.2504         25.7504
  -9905423.03548  -7621233.84046  21346740.4774                   21346738.1294
        48.0004         37.5004
  33424005.52046  26117810.86744  23772759.8914                   23772765.2854
        37.5004         29.0004
   6243199.67248   4918265.60547  21903278.0944                   21903279.9064
        48.0004         45.5004
   5747982.59847   4547274.39546  22558959.2894                   22558963.0744
        45.2504         39.7504
  42956358.22346  33949101.90643  24676759.0314                   24676764.9454
        39.7504         20.7504
 -19491612.77747 -15188269.20347  21486132.2424                   21486132.8954
        46.5004         43.2504
 -10291261.84447  -7811649.96145  22041687.3594                   22041688.2584
        46.2504         31.2504
 -13175994.98848 -10176961.76246  20969294.9924                   20969295.3794
        48.0004         36.5004
 25  8  5 21 28  0.0000000  0  9G08G02G03G32G10G25G31G01G28
  10478488.00845   8222074.19943  24929841.4844                   24929852.4654
        31.7504         22.7504
 -10171943.01647  -7828911.76246  21296023.7114                   21296021.3134
        47.7504         38.0004
  33076744.09046  25847217.67244  23706677.9064                   23706683.4614
        38.0004         28.2504
   6044442.72747   4763390.02747  21865455.8364                   21865457.9304
        47.7504         45.2504
   5544992.08647   4389099.87546  22520331.4924                   22520334.9884
        46.0004         40.5004
  42657416.48446  33716160.35543  24619871.4924                   24619878.1484
        40.5004         21.2504
 -19837021.90247 -15457419.08647  21420402.8594                   21420403.7274
        46.7504         43.2504
 -10621082.21547  -8068652.81645  21978924.9144                   21978925.2774
        45.7504         32.0004
 -13456917.32448 -10395862.25446  20915837.3754                   20915837.4494
        48.0004         36.7504
 25  8  5 21 28 30.0000000  0  9G08G02G03G32G10G25G31G01G28
  10295722.97345   8079659.61343  24895062.2424                   24895073.8914
        32.0004         23.5004
 -10437942.35247  -8036183.98846  21245405.8524                   21245403.0904
        47.5004         38.0004
  32729485.27346  25576626.48844  23640596.3594                   23640601.8404
        36.5004         29.0004
   5845834.41047   4608630.27747  21827662.0084                   21827663.7544
        47.5004         45.2504
   5342249.14547   4231118.27746  22481750.7814                   22481754.4804
        43.7504         40.0004
  42358886.30946  33483539.50843  24563063.5314                   24563070.1884
        38.7504         22.7504
 -20182008.57847 -15726239.77747  21354754.0784                   21354754.8324
        46.7504         43.0004
 -10950487.71547  -8325332.39845  21916240.6024                   21916241.5004
        46.5004         32.7504
 -13737245.43448 -10614299.72346  20862492.7814                   20862493.0904
        48.0004         37.0004
 25  8  5 21 29  0.0000000  0  9G08G02G03G32G10G25G31G01G28
  10112932.22745   7937224.98444  24860278.5944                   24860290.2234
        34.0004         25.0004
 -10703421.47348  -8243050.85246  21194886.3834                   21194883.9024
        48.2504         37.5004
  32382229.30146  25306037.52044  23574515.9774                   23574520.9534
        38.2504         29.7504
   5647372.65648   4453984.73047  21789896.1094                   21789897.6414
        48.5004         45.2504
   5139753.37947   4073329.27746  22443217.3754                   22443220.9454
        44.2504         40.5004
  42060769.42646  33251240.73044  24506333.5634                   24506340.5554
        39.2504         24.7504
 -20526570.42647 -15994729.43747  21289186.1724                   21289186.5944
        47.7504         42.7504
 -11279476.54347  -8581687.30145  21853636.4454                   21853636.9964
        45.2504         31.2504
 -14016979.32448 -10832274.16046  20809261.1644                   20809261.2504
        48.2504         36.7504
 25  8  5 21 29 30.0000000  0  9G08G02G03G32G10G25G31G01G28
  11505539.59445   9022373.30144  25125284.4304                   25125294.6024
        34.0004         26.5004
  -9392950.79347  -7221904.87946  21444260.6414                   21444258.4064
        47.5004         37.2504
  33610408.72346  26263060.55545  23808230.5554                   23808235.9304
        37.7504         30.2504
   7024482.90247   5527057.62147  22051951.4614                   22051953.2344
        47.2504         45.2504
   6512931.88747   5143338.41446  22704524.1484                   22704528.3134
        43.2504         40.0004
  43338498.30146  34246873.69544  24749477.5474                   24749484.0704
        38.7504         24.5004
 -19295273.16448 -15035276.94547  21523494.1334                   21523494.3594
        48.0004         43.0004
 -10032615.17647  -7610106.98445  22090905.8444                   22090906.8594
        45.5004         31.7504
 -12720688.98448  -9822177.76646  21055936.8594                   21055937.0904
        48.5004         37.0004
 25  8  5 21 30  0.0000000  0  9G08G02G03G32G10G25G31G01G28
  11322687.98845   8879891.25444  25090488.3674                   25090499.8244
        34.5004         25.5004
  -9657389.67248  -7427961.16846  21393940.0634                   21393937.4264
        48.5004         37.5004
  33263159.28546  25992476.70744  23742150.7194                   23742156.1764
        37.5004         29.2504
   6826308.56648   5372636.03547  22014240.3444                   22014242.0634
        48.5004         45.0004
   6310929.44147   4985933.82046  22666084.6414                   22666088.4304
        45.5004         40.2504
  43041213.55146  34015223.30544  24692907.0234                   24692912.1684
        39.0004         24.5004
 -19638978.85947 -15303099.47747  21458089.1254                   21458089.3794
        47.0004         42.7504
 -10360765.15247  -7865808.23045  22028461.2274                   22028461.5634
        45.7504         32.2504
 -12999234.40248 -10039226.12146  21002931.6414                   21002931.6524
        48.7504         37.5004
 25  8  5 21 30 30.0000000  0  9G08G02G03G32G10G25G31G01G28
  11139796.47345   8737378.13744  25055685.6334                   25055696.7114
        34.2504         25.2504
  -9921313.35247  -7633615.99246  21343716.9614                   21343714.5354
        47.5004         37.5004
  32915908.86346  25721892.10945  23676071.3914                   23676077.0434
        37.0004         30.5004
   6628270.52048   5218320.65247  21976554.7734                   21976556.9184
        48.7504         45.0004
   6109168.52047   4828717.41846  22627690.9534                   22627694.6644
        45.0004         39.7504
  42744342.98046  33783895.63744  24636413.5784                   24636420.1134
        38.5004         26.7504
 -19982257.62147 -15570589.34847  21392765.1024                   21392765.8444
        47.0004         43.2504
 -10688497.48047  -8121184.03545  21966096.2894                   21966096.3554
        46.5004         33.2504
 -13277190.12548 -10255814.96946  20950038.6174                   20950037.9734
        48.0004         37.2504
 25  8  5 21 31  0.0000000  0  9G08G02G03G32G10G25G31G01G28
  10956862.75846   8594832.08244  25020875.1804                   25020885.8014
        36.0004         26.5004
 -10184720.96148  -7838868.69946  21293592.0164                   21293589.3834
        48.0004         37.5004
  32568659.01246  25451307.96545  23609991.8984                   23609997.2934
        36.2504         30.7504
   6430367.81347   5064110.71947  21938895.4064                   21938897.1024
        47.5004         44.7504
   5907649.82847   4671689.77046  22589343.5634                   22589347.2154
        43.5004         39.5004
  42447889.40246  33552892.92244  24579999.8444                   24580006.8284
        38.5004         26.7504
 -20325106.28547 -15837744.08247  21327523.0084                   21327523.7194
        47.5004         42.7504
 -11015809.29347  -8376232.18045  21903810.6094                   21903811.1254
        46.2504         33.2504
 -13554555.14548 -10471943.53146  20897257.7114                   20897257.4844
        48.2504         37.2504
 25  8  5 21 31 30.0000000  0  9G08G02G03G32G10G25G31G01G28
  10773884.90646   8452251.69544  24986055.0704                   24986066.5864
        36.2504         27.7504
 -10447611.45747  -8043718.44946  21243565.7114                   21243563.4574
        47.0004         38.0004
  32221411.13346  25180725.34445  23543913.3754                   23543917.8484
        38.0004         32.5004
   6232600.00048   4910005.89847  21901261.0474                   21901262.9694
        48.5004         44.7504
   5706374.38347   4514851.65646  22551042.0314                   22551045.9224
        44.0004         39.7504
  42151855.95746  33322217.57844  24523666.9534                   24523673.2814
        39.5004         26.5004
 -20667520.99248 -16104560.66847  21262363.9224                   21262363.9494
        48.0004         43.2504
 -11342697.47747  -8630950.19945  21841605.8134                   21841606.5824
        45.7504         32.0004
 -13831328.12548 -10687610.77346  20844589.5944                   20844589.5824
        48.0004         37.7504
 25  8  5 21 32  0.0000000  0  9G08G02G03G32G10G25G31G01G28
  10590861.31646   8309635.66844  24951227.4844                   24951239.2894
        36.0004         28.5004
 -10709983.35548  -8248164.10546  21193637.8834                   21193635.7154
        48.2504         38.0004
  31874167.35946  24910145.93445  23477834.6414                   23477839.7854
        38.2504         32.2504
   6034966.75848   4756005.94547  21863653.0474                   21863654.8594
        48.0004         44.7504
   5505343.38347   4358204.03146  22512787.1024                   22512790.7344
        44.2504         39.2504
  41856246.08246  33091872.28944  24467413.5084                   24467420.6294
        39.0004         28.2504
 -21009498.25848 -16371036.38747  21197287.8204                   21197287.7194
        48.5004         43.0004
 -11669158.55547  -8885335.41845  21779482.0394                   21779482.6214
        46.5004         33.2504
 -14107507.58248 -10902815.52746  20792034.0864                   20792034.0864
        48.7504         37.5004
 25  8  5 21 32 30.0000000  0  9G08G02G03G32G10G25G31G01G28
  11983217.10546   9394587.96145  25216184.2814                   25216195.7424
        37.2504         30.7504
  -9396405.92248  -7224597.29346  21443603.6414                   21443601.6994
        48.5004         38.0004
  33102361.83646  25867180.72345  23711552.2814                   23711556.9964
        39.5004         32.2504
   7412895.09447   5829716.30547  22125863.8914                   22125865.9224
        47.0004         44.5004
   6879985.55547   5429353.67246  22774372.7664                   22774376.2584
        43.0004         39.2504
  43136493.62146  34089467.84444  24711037.3674                   24711043.8204
        38.5004         28.5004
 -19775602.25448 -15409558.91447  21432089.7814                   21432090.1484
        49.0004         43.5004
 -10419757.51647  -7911776.15645  22017235.3914                   22017235.8874
        46.2504         33.2504
 -12807662.09048  -9889948.88746  21039386.4144                   21039386.3594
        48.0004         36.5004
 25  8  5 21 33  0.0000000  0  9G08G02G03G32G10G25G31G01G28
  11800096.32445   9251896.18843  25181338.1254                   25181349.1174
        33.5004         22.5004
  -9657737.86348  -7428232.59446  21393873.9064                   21393871.4774
        48.0004         37.5004
  32755131.03546  25596611.39145  23645476.1804                   23645481.1844
        38.7504         32.7504
   7215529.33647   5675924.77047  22088306.7114                   22088308.4304
        46.7504         44.5004
   6679446.28547   5273089.21146  22736211.3674                   22736215.5514
        44.0004         39.7504
  42841739.95746  33859789.73444  24654947.1254                   24654953.5204
        39.5004         28.7504
 -20116693.52748 -15675344.25447  21367183.0164                   21367182.6094
        49.0004         43.2504
 -10745355.05947  -8165488.48845  21955276.3054                   21955276.7544
        46.5004         34.0004
 -13082650.83247 -10104225.80946  20987058.0314                   20987057.8754
        47.7504         37.0004
 25  8  5 21 33 30.0000000  0  9G08G02G03G32G10G25G31G01G28
  11616924.70754   9109164.79352  25146482.8054                   25146493.6844
        25.7504         15.5004
  -9918547.13747  -7631460.62146  21344243.2974                   21344240.8874
        47.5004         37.5004
  32407909.96546  25326049.64545  23579401.6174                   23579407.0434
        37.7504         33.5004
   7018297.18047   5522237.34047  22050774.7894                   22050776.5394
        46.2504         44.5004
   6479155.12147   5117018.07446  22698097.5784                   22698101.7384
        43.2504         40.0004
  42547419.66846  33630449.32844  24598939.8444                   24598946.3164
        38.7504         29.0004
 -20457336.01248 -15940779.89547  21302360.6094                   21302360.6994
        49.0004         43.2504
 -11070515.40247  -8418860.14545  21893400.2424                   21893400.7304
        46.5004         33.7504
 -13357041.73448 -10318036.88346  20934842.9144                   20934843.0704
        48.2504         36.5004
 25  8  5 21 34  0.0000000  0  8G02G03G32G10G25G31G01G28
 -10178834.33248  -7834281.84046  21294712.4064                   21294710.1334
        48.0004         37.7504
  32060699.23446  25055495.96945  23513329.4064                   23513335.1524
        39.5004         33.2504
   6821197.08648   5368652.81647  22013267.5784                   22013269.2664
        48.2504         44.2504
   6279111.81647   4961140.08246  22660030.8914                   22660034.3164
        44.5004         38.7504
  42253534.69946  33401448.13744  24543015.0474                   24543021.6954
        38.7504         29.2504
 -20797527.55148 -16205864.13747  21237624.3674                   21237624.3204
        48.5004         43.7504
 -11395236.50847  -8671889.55145  21831608.1804                   21831608.6334
        46.2504         33.0004
 -13630834.68448 -10531382.02046  20882742.0234                   20882742.3364
        48.7504         36.5004
 25  8  5 21 34 30.0000000  0  8G02G03G32G10G25G31G01G28
 -10438599.20747  -8036696.05146  21245280.6484                   21245278.3594
        47.2504         37.5004
  31713499.60946  24784950.91445  23447260.0554                   23447265.1024
        39.7504         33.5004
   6624227.57847   5215170.05147  21975785.5084                   21975787.5944
        47.2504         44.2504
   6079316.46147   4805455.28946  22622010.8834                   22622014.9304
        43.5004         39.0004
  41960087.19146  33172787.82844  24487173.7894                   24487180.2934
        38.5004         28.0004
 -21137265.34448 -16470594.81247  21172974.2034                   21172974.3094
        48.5004         44.0004
 -11719516.21547  -8924575.00045  21769899.3134                   21769900.0554
        46.2504         33.2504
 -13904029.50848 -10744261.07846  20830754.4144                   20830754.6914
        48.0004         37.0004
 25  8  5 21 35  0.0000000  0  8G02G03G32G10G25G31G01G28
 -10697841.83248  -8238703.31646  21195948.6884                   21195946.0204
        48.2504         37.5004
  31366312.04346  24514415.25845  23381191.8914                   23381197.2344
        39.0004         33.5004
   6427387.49247   5061788.13747  21938328.1644                   21938330.3244
        47.0004         44.2504
   5879769.18447   4649963.80146  22584038.2274                   22584042.5514
        43.0004         39.0004
  41667079.34846  32944470.11744  24431416.6334                   24431422.7974
        37.5004         29.5004
 -21476546.31648 -16734969.52747  21108411.4064                   21108411.4384
        48.7504         43.7504
 -12043352.14847  -9176914.66445  21708275.4304                   21708275.7974
        46.2504         33.5004
 -14176625.78548 -10956673.74646  20778881.5314                   20778881.1454
        48.7504         37.2504
 25  8  5 21 35 30.0000000  0  8G02G03G32G10G25G31G01G28
  -9381133.98447  -7212697.22746  21446509.3914                   21446507.3754
        46.5004         37.7504
  32594568.33246  25471498.18845  23614922.2584                   23614926.2344
        39.5004         34.2504
   7806101.24648   6136110.50847  22200688.9614                   22200690.8594
        48.2504         44.2504
   7255896.06347   5722270.36746  22845906.6414                   22845910.1174
        43.7504         39.0004
  42949942.43046  33944103.78144  24675537.2424                   24675543.4734
        36.7504         29.0004
 -20239937.46148 -15771378.13747  21343729.8284                   21343729.8094
        49.2504         44.0004
 -10791311.96947  -8201298.91445  21946530.8594                   21946531.3984
        46.5004         33.5004
 -12873194.97748  -9941013.35246  21026916.1954                   21026915.8794
        48.0004         37.5004
 25  8  5 21 36  0.0000000  0  8G02G03G32G10G25G31G01G28
  -9639327.95748  -7413887.35546  21397377.0944                   21397374.6024
        48.2504         37.7504
  32247411.14146  25200986.21545  23548859.5554                   23548865.0514
        40.0004         34.2504
   7609519.35948   5982929.78547  22163280.2274                   22163282.5204
        49.0004         44.5004
   7056848.79347   5567168.50446  22808028.9774                   22808033.4384
        44.2504         39.2504
  42657823.91046  33716479.05544  24619949.0084                   24619955.0634
        37.5004         29.0004
 -20578294.00448 -16035032.52047  21279342.5634                   21279342.9304
        49.0004         44.2504
 -11114250.13347  -8452939.00845  21885077.4694                   21885078.2034
        46.5004         33.5004
 -13144590.03548 -10152490.00046  20975270.9534                   20975270.9104
        48.7504         37.0004
 25  8  5 21 36 30.0000000  0  8G02G03G32G10G25G31G01G28
  -9896998.57848  -7614669.68446  21348343.6254                   21348341.7274
        48.2504         37.7504
  31900269.32446  24930486.22745  23482800.3444                   23482805.4534
        39.2504         33.7504
   7413063.41447   5829847.19147  22125896.3674                   22125898.1884
        47.0004         44.2504
   6858050.40247   5412260.56346  22770199.4304                   22770203.5124
        43.0004         39.5004
  42366151.99246  33489202.32444  24564445.7974                   24564451.6724
        36.5004         29.2504
 -20916185.48048 -16298324.50847  21215044.4614                   21215044.1844
        49.5004         44.2504
 -11436737.20747  -8704227.59445  21823710.1484                   21823711.2194
        45.0004         33.5004
 -13415385.35548 -10363499.31246  20923740.4614                   20923740.3914
        48.5004         37.2504
 25  8  5 21 37  0.0000000  0  8G02G03G32G10G25G31G01G28
 -10154145.09047  -7815043.61746  21299410.6414                   21299408.2704
        47.0004         38.0004
  31553144.53946  24659999.51245  23416744.9924                   23416749.2504
        39.5004         33.7504
   7216732.91848   5676862.34847  22088535.8754                   22088538.0234
        48.0004         44.2504
   6659501.84047   5257547.29746  22732416.9144                   22732421.0124
        43.7504         39.5004
  42074929.65246  33262275.91044  24509027.8054                   24509034.0594
        37.0004         28.7504
 -21253608.38748 -16561251.37547  21150834.5004                   21150834.8984
        49.2504         44.0004
 -11758770.23047  -8955162.37945  21762428.8984                   21762429.8954
        45.7504         34.0004
 -13685579.96148 -10574040.54346  20872324.1334                   20872324.2154
        48.5004         37.5004
 25  8  5 21 37 30.0000000  0  8G02G03G32G10G25G31G01G28
 -10410768.07047  -8015009.59046  21250577.0314                   21250574.4414
        47.7504         37.7504
  31206037.07846  24389526.31345  23350692.3984                   23350697.2544
        38.7504         33.5004
   7020525.89847   5523973.73047  22051199.0234                   22051200.8094
        47.5004         44.5004
   6461202.48447   5103028.22346  22694681.6884                   22694685.9774
        43.2504         39.5004
  41784158.31346  33035700.92644  24453695.3674                   24453701.8794
        36.5004         29.5004
 -21590561.05148 -16823811.81647  21086714.5474                   21086714.5394
        49.5004         44.2504
 -12080347.55547  -9205742.09045  21701235.6414                   21701235.6564
        46.0004         33.2504
 -13955174.36748 -10784114.08246  20821022.2664                   20821021.8244
        48.7504         37.2504
 25  8  5 21 38  0.0000000  0  8G02G03G32G10G25G31G01G28
 -10666865.16047  -8214565.79346  21201843.1254                   21201841.1024
        47.5004         38.2504
  30858950.32446  24119069.24645  23284643.7814                   23284649.1214
        38.5004         33.0004
   6824443.47748   5371182.19547  22013885.5864                   22013887.7774
        48.2504         44.0004
   6263154.81347   4948705.25846  22656994.6724                   22656999.1454
        43.0004         39.7504
  41493842.38746  32809480.81644  24398450.1174                   24398456.3134
        37.0004         29.0004
 -21927038.50048 -17086001.96547  21022684.7424                   21022684.9494
        49.7504         44.5004
 -12401464.62547  -9455963.16045  21640128.9064                   21640129.3634
        46.0004         34.0004
 -14224166.03947 -10993717.95746  20769834.6954                   20769834.2154
        47.5004         37.2504
 25  8  5 21 38 30.0000000  0  8G02G03G32G10G25G31G01G28
  -9347010.02048  -7186107.26646  21453003.1024                   21453000.7304
        49.0004         38.2504
  32087314.71946  25076236.46145  23518393.6804                   23518398.4654
        38.5004         33.0004
   8203908.86348   6446090.25047  22276389.0004                   22276391.2624
        48.2504         44.0004
   7640783.37547   6022181.95746  22919148.8204                   22919152.9574
        44.0004         39.2504
  42779411.56646  33811223.11344  24643085.5164                   24643092.1174
        36.5004         28.5004
 -20687609.06248 -16120212.71547  21258540.1334                   21258540.4024
        49.0004         44.5004
 -11146690.64847  -8478217.17245  21878904.3594                   21878905.2664
        46.2504         34.7504
 -12917128.03148  -9975246.75846  21018555.6334                   21018555.3054
        48.0004         37.2504
 25  8  5 21 39  0.0000000  0  8G02G03G32G10G25G31G01G28
  -9602058.69947  -7384846.52346  21404469.5164                   21404467.0314
        47.7504         38.2504
  31740268.99646  24805811.36745  23452352.9844                   23452357.6684
        39.0004         32.2504
   8008068.70347   6293487.48847  22239122.1024                   22239124.3134
        47.5004         44.0004
   7443236.06347   5868248.87946  22881556.6564                   22881561.0824
        42.7504         39.2504
  42490009.54745  33585715.10244  24588013.9144                   24588020.2584
        35.5004         29.0004
 -21023131.40648 -16381658.62147  21194692.3984                   21194692.6804
        48.7504         44.2504
 -11466883.76247  -8727718.26245  21817973.1724                   21817974.1914
        45.5004         34.0004
 -13184917.05948 -10183913.51246  20967596.7584                   20967596.7974
        48.2504         37.0004
 25  8  5 21 39 30.0000000  0  8G02G03G32G10G25G31G01G28
  -9856584.39548  -7583178.26246  21356034.6024                   21356032.5984
        48.0004         37.2504
  31393244.07046  24535402.47345  23386316.0474                   23386321.0594
        39.5004         33.7504
   7812346.51248   6140976.64847  22201877.4774                   22201879.7154
        48.0004         44.0004
   7245937.79747   5714509.86746  22844012.4774                   22844016.1134
        43.2504         39.2504
  42201066.27746  33360564.60244  24533030.8594                   24533036.6334
        36.2504         29.0004
 -21358173.78948 -16642730.53147  21130936.0474                   21130936.0274
        49.0004         44.7504
 -11786612.82847  -8976857.75445  21757131.0394                   21757131.4264
        46.0004         33.7504
 -13452105.99248 -10392112.65246  20916752.5634                   20916752.2934
        48.0004         37.0004
 25  8  5 21 40  0.0000000  0  8G02G03G32G10G25G31G01G28
 -10110586.10948  -7781101.69946  21307699.4144                   21307697.5784
        48.0004         38.0004
  31046241.87146  24265011.27745  23320283.6954                   23320288.7344
        38.7504         33.0004
   7616742.14547   5988557.62547  22164654.9614                   22164657.2544
        46.5004         44.5004
   7048889.71147   5560965.79346  22806515.6414                   22806519.6134
        43.0004         38.7504
  41912584.83246  33135773.95744  24478134.6644                   24478140.5124
        36.2504         28.2504
 -21692732.35248 -16903425.43047  21067271.4844                   21067271.1804
        48.7504         44.7504
 -12105874.62147  -9225633.15245  21696377.2894                   21696377.9494
        45.5004         34.0004
 -13718693.69148 -10599843.29746  20866022.6724                   20866022.5004
        49.0004         37.2504
 25  8  5 21 40 30.0000000  0  8G02G03G32G10G25G31G01G28
 -10364065.33647  -7978618.00046  21259464.1334                   21259462.0904
        47.7504         38.2504
  30699262.37146  23994637.77045  23254256.1644                   23254260.4534
        39.2504         32.7504
   7421253.20347   5836228.53947  22127454.7974                   22127456.9064
        47.2504         43.5004
   6852090.59047   5407615.71946  22769066.0784                   22769069.7934
        43.0004         38.2504
  41624566.07045  32911343.82044  24423325.5394                   24423332.2274
        34.7504         29.5004
 -22026806.09448 -17163742.55547  21003699.5004                   21003699.5904
        49.2504         44.0004
 -12424668.13347  -9474043.66445  21635713.2114                   21635714.0784
        45.0004         33.5004
 -13984681.25448 -10807106.30946  20815406.9304                   20815406.9774
        48.0004         37.5004
 25  8  5 21 41  0.0000000  0  8G02G03G32G10G25G31G01G28
 -10617019.62948  -8175725.27346  21211328.9064                   21211326.3984
        48.0004         37.7504
  30352308.63446  23724284.34745  23188231.8284                   23188236.9924
        39.2504         33.0004
   7225880.55147   5683990.06647  22090276.4534                   22090278.5354
        46.2504         43.5004
   6655542.69547   5254461.40646  22731664.4384                   22731668.1024
        43.7504         38.5004
  41337013.96945  32687277.32844  24368605.8524                   24368612.2734
        34.5004         29.0004
 -22360390.12148 -17423678.09047  20940220.3524                   20940220.1564
        48.0004         44.2504
 -12742989.10247  -9722085.94145  21575138.6174                   21575139.4024
        44.5004         33.5004
 -14250066.63747 -11013900.09046  20764905.4694                   20764905.4654
        47.7504         37.7504
 25  8  5 21 41 30.0000000  0  8G02G03G32G10G25G31G01G28
  -9294020.53147  -7144816.90646  21463087.4844                   21463085.1884
        47.2504         38.2504
  31580813.62946  24681561.12145  23422008.8284                   23422013.7704
        38.0004         32.0004
   8606049.94147   6759446.68847  22352914.1644                   22352916.6954
        47.7504         43.5004
   8034673.02747   6329108.30946  22994104.0864                   22994108.0004
        44.5004         38.2504
  42625360.66045  33691183.91444  24613769.8054                   24613776.4964
        34.7504         27.5004
 -21118050.52348 -16455621.18047  21176629.8284                   21176629.5124
        49.0004         44.5004
 -11485404.34447  -8742149.73845  21814449.1484                   21814449.6134
        44.5004         33.7504
 -12939420.57447  -9992617.43046  21014313.4694                   21014313.1684
        47.2504         37.0004
 25  8  5 21 42  0.0000000  0  8G02G03G32G10G25G31G01G28
  -9545927.32048  -7341107.93746  21415150.7734                   21415148.8284
        48.0004         38.0004
  31233913.07846  24411249.13745  23355995.6884                   23356000.8554
        39.0004         32.5004
   8410904.82047   6607385.51647  22315779.3524                   22315781.4694
        47.5004         43.2504
   7838626.19947   6176344.43046  22956797.4454                   22956801.7114
        44.7504         37.5004
  42338746.56345  33467848.31344  24559229.1254                   24559235.5394
        35.0004         28.0004
 -21450649.28148 -16714788.96547  21113338.2974                   21113338.3204
        49.5004         44.5004
 -11802775.24247  -8989451.71545  21754055.2344                   21754055.9224
        45.7504         34.2504
 -13203603.11348 -10198473.93046  20964040.9694                   20964040.8054
        48.5004         37.5004
 25  8  5 21 42 30.0000000  0  8G02G03G32G10G25G31G01G28
  -9797310.09048  -7536990.64146  21367314.1094                   21367312.2274
        48.5004         37.5004
  30887041.18046  24140959.46545  23289988.4694                   23289993.0904
        39.0004         31.5004
   8215872.22347   6455412.01247  22278665.9774                   22278668.1954
        47.5004         43.5004
   7642830.50447   6023776.24246  22919539.2114                   22919542.8594
        45.2504         38.0004
  42052604.89545  33244880.85944  24504778.3364                   24504784.6054
        34.2504         28.0004
 -21782751.09048 -16973569.53147  21050141.6484                   21050141.5474
        48.0004         44.5004
 -12119667.29747  -9236380.57445  21693752.5004                   21693753.3554
        46.0004         33.5004
 -13467183.78147 -10403861.44546  20913883.3754                   20913883.2384
        47.0004         38.0004
 25  8  5 21 43  0.0000000  0  8G02G03G32G10G25G31G01G28
 -10048167.10948  -7732463.67246  21319577.9534                   21319575.6294
        49.2504         37.5004
  30540200.86746  23870694.39845  23223986.9614                   23223990.9924
        39.0004         32.2504
   8020952.74647   6303526.67247  22241573.9694                   22241576.1254
        47.2504         43.0004
   7447287.72747   5871405.13346  22882328.9534                   22882333.0124
        45.5004         38.2504
  41766939.34445  33022284.42644  24450417.8834                   24450424.3914
        34.5004         28.0004
 -22114351.67248 -17231959.52347  20987039.5164                   20987039.5704
        48.7504         44.5004
 -12436076.66447  -9482933.30945  21633542.2194                   21633542.5084
        44.7504         34.0004
 -13730160.90647 -10608778.66446  20863840.3284                   20863840.3244
        47.5004         37.5004
 25  8  5 21 43 30.0000000  0  8G02G03G32G10G25G31G01G28
 -10298493.37948  -7927523.12546  21271942.2734                   21271940.1134
        49.0004         38.2504
  30193398.48046  23600458.88345  23157992.4224                   23157996.6134
        39.2504         32.5004
   7826150.56347   6151732.72347  22204504.1094                   22204506.3284
        47.0004         43.0004
   7252003.23847   5719235.28946  22845167.7344                   22845171.5904
        45.0004         37.7504
  41481757.19545  32800064.65244  24396150.0554                   24396156.3244
        34.5004         27.2504
 -22445443.35948 -17489952.97347  20924035.0784                   20924035.0704
        48.7504         44.5004
 -12751995.87147  -9729104.10245  21573424.6174                   21573425.1564
        46.0004         33.5004
 -13992529.30548 -10813221.56246  20813913.3594                   20813913.0394
        48.2504         37.5004
 25  8  5 21 44  0.0000000  0  8G02G03G32G10G25G31G01G28
 -10548286.63748  -8122167.25446  21224408.1174                   21224405.9144
        49.0004         38.7504
  29846637.31346  23330255.47745  23092005.8914                   23092010.1604
        39.2504         32.5004
   7631466.71947   6000030.98047  22167457.4694                   22167459.3674
        47.7504         43.2504
   7056979.30547   5567268.46546  22808055.7194                   22808059.8834
        44.7504         38.5004
  41197062.56645  32578224.77044  24341974.2734                   24341980.1294
        34.5004         27.5004
 -22776021.66448 -17747546.38347  20861128.3524                   20861127.5864
        48.7504         44.5004
 -13067420.60547  -9974889.59845  21513401.0004                   21513401.6884
        47.0004         33.0004
 -14254286.89848 -11017188.50446  20764102.8284                   20764102.3014
        48.0004         37.5004
 25  8  5 21 44 30.0000000  0  8G02G03G32G10G25G31G01G28
  -9222124.23048  -7088793.98046  21476768.7274                   21476766.1644
        49.0004         38.5004
  31075344.94546  24287690.11745  23325821.1334                   23325825.3404
        38.0004         32.2504
   9012321.39847   7076021.59847  22430225.4224                   22430227.6134
        47.5004         42.7504
   8437637.21947   6643105.68846  23070786.2194                   23070790.4104
        45.0004         38.5004
  42488281.51645  33584369.52344  24587684.3364                   24587691.3244
        35.0004         27.5004
 -21530658.35948 -16777133.34847  21098112.8984                   21098112.5944
        49.0004         44.5004
 -11806923.49647  -8992684.05545  21753265.8984                   21753266.5354
        46.0004         34.0004
 -12940010.28148  -9993076.84046  21014201.4224                   21014200.9104
        48.7504         37.0004
 25  8  5 21 45  0.0000000  0  8G02G03G32G10G25G31G01G28
  -9470862.92648  -7282616.36346  21429435.1884                   21429432.9144
        50.0004         37.0004
  30728659.28146  24017545.56645  23259849.0314                   23259853.4104
        38.2504         33.2504
   8817860.41847   6924493.51647  22393220.7274                   22393222.5314
        47.7504         42.7504
   8243124.00847   6491536.84046  23033771.4384                   23033775.8754
        44.0004         38.7504
  42204557.02345  33363285.59844  24533694.1174                   24533699.6454
        34.7504         26.5004
 -21860212.96148 -17033929.07847  21035400.2504                   21035400.0704
        49.7504         44.7504
 -12121363.43447  -9237702.17245  21693429.7734                   21693430.6334
        46.5004         34.5004
 -13200557.12948 -10196100.34846  20964620.9064                   20964620.3204
        48.0004         37.7504
 25  8  5 21 45 30.0000000  0  8G02G03G32G10G25G31G01G28
  -9719076.02748  -7476029.19946  21382201.7344                   21382199.6604
        49.0004         37.7504
  30382012.02746  23747430.94545  23193884.4144                   23193888.1804
        39.2504         33.5004
   8623508.21148   6773050.19947  22356236.5004                   22356238.6454
        48.0004         42.2504
   8048865.16847   6340166.18846  22996805.5474                   22996809.8554
        44.5004         38.5004
  41921319.32845  33142580.98844  24479794.8444                   24479801.6054
        33.0004         26.5004
 -22189252.93748 -17290323.79747  20972786.3134                   20972786.2504
        48.7504         44.2504
 -12435308.81247  -9482334.92245  21633687.9924                   21633688.9884
        46.2504         34.0004
 -13460499.93748 -10398653.18046  20915155.1094                   20915155.0664
        48.0004         37.5004
 25  8  5 21 46  0.0000000  0  8G02G03G32G10G25G31G01G28
  -9966764.57048  -7669033.28546  21335068.5314                   21335066.1644
        49.0004         38.0004
  30035403.20346  23477346.25045  23127926.8524                   23127930.5784
        40.2504         33.5004
   8429262.45747   6621689.82847  22319272.8444                   22319275.1054
        47.5004         42.7504
   7854859.54747   6188992.85246  22959887.4534                   22959891.9104
        44.0004         38.0004
  41638569.10945  32922256.26244  24425989.9064                   24425995.5434
        33.7504         27.5004
 -22517777.40648 -17546316.81647  20910270.4384                   20910269.5864
        49.0004         44.7504
 -12748758.78547  -9726581.63745  21574040.4224                   21574040.9694
        46.2504         34.0004
 -13719840.09848 -10600736.41446  20865804.8754                   20865804.4064
        48.0004         37.2504
 25  8  5 21 46 30.0000000  0  8G02G03G32G10G25G31G01G28
 -10213929.33648  -7861629.23446  21288034.4694                   21288032.1844
        49.0004         38.0004
  29688833.44946  23207291.96945  23061976.9924                   23061980.5084
        39.7504         33.5004
   8235121.63347   6470411.21547  22282329.2194                   22282331.1954
        47.0004         42.0004
   7661106.73047   6038016.51646  22923017.3134                   22923022.3794
        43.0004         38.0004
  41356307.85245  32702312.53544  24372276.8364                   24372283.4264
        33.5004         27.0004
 -22845784.20748 -17801906.46947  20847852.5314                   20847852.2664
        49.2504         44.5004
 -13061711.72747  -9970441.05545  21514487.5004                   21514488.2704
        45.5004         33.5004
 -13978578.32448 -10802350.60246  20816568.4454                   20816567.8444
        48.0004         37.5004
 25  8  5 21 47  0.0000000  0  8G02G03G32G10G25G31G01G28
 -10460571.94548  -8053818.31646  21241099.8594                   21241097.8554
        49.5004         37.5004
  29342302.67246  22937268.05545  22996033.2584                   22996037.7154
        40.0004         33.0004
   8041083.33247   6319212.49247  22245404.9534                   22245407.2114
        46.5004         42.5004
   7467605.34847   5887236.08646  22886195.1254                   22886200.1644
        43.0004         37.7504
  41074535.84045  32482750.03944  24318658.1484                   24318663.3484
        33.0004         27.5004
 -23173272.41048 -18057092.01247  20785533.6954                   20785533.3204
        48.2504         44.7504
 -13374166.85247 -10213912.56245  21455029.2504                   21455029.9454
        46.5004         34.5004
 -14236716.12548 -11003496.92646  20767446.0634                   20767446.2114
        48.0004         38.0004
 25  8  5 21 47 30.0000000  0  8G02G03G32G10G25G31G01G28
  -9131268.59448  -7017997.54746  21494058.0784                   21494055.7814
        49.2504         37.2504
  30571239.70646  23894881.42545  23229892.4614                   23229897.1644
        40.2504         34.0004
   9422569.07647   7395694.84947  22508293.1024                   22508294.8404
        46.5004         42.5004
   8849778.01647   6964253.63046  23149214.7504                   23149218.9534
        43.0004         37.5004
  42368680.46245  33491174.54244  24564924.8284                   24564930.7734
        34.2504         27.0004
 -21924812.75848 -17084266.24847  21023107.4064                   21023106.9884
        48.7504         45.2504
 -12110695.67247  -9229389.56045  21695459.9694                   21695460.6484
        47.0004         35.5004
 -12918829.16047  -9976572.00646  21018231.8284                   21018231.4964
        46.7504         37.5004
 25  8  5 21 48  0.0000000  0  8G02G03G32G10G25G31G01G28
  -9376880.14548  -7209383.20346  21447319.6484                   21447317.5044
        48.7504         37.7504
  30224778.46546  23624911.73445  23163962.6254                   23163967.7114
        39.5004         34.5004
   9228720.68447   7244644.12147  22471405.0084                   22471406.8634
        46.0004         42.5004
   8656767.59047   6813855.77346  23112485.6174                   23112490.1214
        42.0004         37.5004
  42087880.46545  33272369.46944  24511490.3834                   24511495.9264
        35.0004         27.0004
 -22251268.75848 -17338647.48847  20960984.7584                   20960984.5864
        49.2504         44.5004
 -12422161.16447  -9472089.92645  21636190.0084                   21636190.4774
        45.7504         34.2504
 -13175779.07447 -10176792.70746  20969335.8754                   20969335.2274
        47.0004         37.2504
 25  8  5 21 48 30.0000000  0  8G02G03G32G10G25G31G01G28
  -9621978.83248  -7400369.22746  21400678.7814                   21400676.7774
        49.5004         37.2504
  29878351.63346  23354968.85545  23098040.2584                   23098044.9224
        41.0004         34.7504
   9034963.47347   7093664.43447  22434534.2344                   22434536.5354
        46.5004         42.5004
   8464000.38347   6663647.43846  23075803.6884                   23075808.1914
        43.0004         37.0004
  41807566.90645  33053943.43044  24458147.8054                   24458154.3714
        34.0004         25.5004
 -22577207.46548 -17592625.64847  20898960.7584                   20898960.5944
        49.0004         45.0004
 -12733130.97347  -9714404.03145  21577014.0164                   21577014.6484
        46.2504         33.7504
 -13432137.78547 -10376552.73046  20920552.5234                   20920551.9454
        47.2504         37.7504
 25  8  5 21 49  0.0000000  0  8G02G03G32G10G25G31G01G28
  -9866561.89148  -7590953.46546  21354136.2114                   21354134.3014
        49.0004         37.7504
  29531963.69546  23085056.27745  23032124.9534                   23032129.3914
        40.5004         35.2504
   8841299.69947   6942757.55947  22397681.2814                   22397683.5514
        46.0004         42.5004
   8271479.75047   6513631.24246  23039167.7734                   23039172.8524
        42.0004         36.7504
  41527744.77745  32835900.32444  24404899.7584                   24404905.4264
        33.5004         26.5004
 -22902623.30548 -17846196.35947  20837036.3364                   20837035.9884
        49.2504         44.7504
 -13043599.83647  -9956327.80145  21517934.0554                   21517934.4844
        46.5004         33.5004
 -13687902.32047 -10575849.76646  20871881.9064                   20871881.6454
        46.7504         37.0004
 25  8  5 21 49 30.0000000  0  9G02G03G32G10G25G04G31G01G28
 -10110629.33648  -7781135.92646  21307691.7034                   21307689.8324
        48.5004         37.0004
  29185615.98446  22815175.03545  22966217.1414                   22966221.0124
        40.5004         35.5004
   8647728.36747   6791922.71947  22360845.9064                   22360848.0394
        46.0004         42.7504
   8079205.70746   6363807.18846  23002579.5004                   23002584.5904
        40.5004         37.0004
  41248415.91445  32618241.58244  24351744.8204                   24351751.5234
        33.7504         25.7504
  57587937.34055  45112856.22753  24405969.5164                   24405976.6954
        35.0004         18.2504
 -23227513.76648 -18099357.69947  20775211.3364                   20775210.7854
        48.0004         45.0004
 -13353565.65647 -10197859.59445  21458949.9064                   21458949.9774
        46.7504         34.5004
 -13943073.01247 -10774684.06246  20823324.4144                   20823324.4384
        46.7504         37.2504
 25  8  5 21 50  0.0000000  0  9G02G03G32G10G25G04G31G01G28
 -10354181.97748  -7970917.23046  21261345.2584                   21261343.5824
        49.0004         37.5004
  28839309.79746  22545326.14145  22900316.6724                   22900320.6954
        41.0004         34.5004
   8454248.47747   6641159.13347  22324027.9534                   22324030.2704
        47.5004         43.0004
   7887178.23447   6214175.27046  22966038.0864                   22966043.0744
        42.0004         37.0004
  40969581.97745  32400968.50844  24298685.1724                   24298690.4654
        35.5004         27.0004
  57245954.12545  44846376.01243  24340891.8364                   24340899.4144
        35.5004         18.2504
 -23551876.58248 -18352107.88347  20713487.1094                   20713486.9024
        49.0004         44.7504
 -13663026.45347 -10438997.86345  21400060.9614                   21400061.7934
        47.0004         35.0004
 -14197650.20347 -10973055.89546  20774880.0864                   20774879.9454
        47.7504         37.5004
 25  8  5 21 50 30.0000000  0  9G02G03G32G10G25G04G31G01G28
 -10597216.96548  -8160295.18446  21215097.4774                   21215095.3634
        49.2504         37.7504
  28493049.29746  22275512.86345  22834425.5234                   22834429.7114
        39.5004         34.2504
   8260862.02347   6490468.34847  22287227.8364                   22287229.9924
        47.0004         42.7504
   7695400.26247   6064737.75846  22929544.2894                   22929548.9454
        42.5004         37.5004
  40691247.54745  32184084.60944  24245719.6884                   24245725.2034
        35.5004         27.5004
  56904106.94946  44580001.75043  24275840.0634                   24275847.7194
        37.7504         19.2504
 -23875706.47348 -18604442.79747  20651864.3594                   20651864.1374
        49.2504         45.2504
 -13971977.30547 -10679738.75045  21341269.8984                   21341270.0434
        47.5004         34.7504
 -14451631.39147 -11170963.30146  20726549.1094                   20726548.9104
        47.0004         37.2504
 25  8  5 21 51  0.0000000  0  9G02G03G32G10G25G04G31G01G28
  -9264308.33248  -7121665.10946  21468741.6564                   21468739.4184
        49.2504         36.7504
  29722265.82446  23233344.04345  23068337.5944                   23068341.8244
        40.7504         35.0004
   9642992.89147   7567453.40247  22550238.5314                   22550240.7194
        47.0004         42.7504
   9079296.65647   7143098.45746  23192890.7664                   23192895.6294
        42.5004         38.5004
  41988842.08245  33195197.31644  24492644.3594                   24492649.1844
        35.5004         26.5004
  58137826.08646  45541341.53542  24510608.9614                   24510616.6024
        37.0004         17.2504
 -22623572.47748 -17628753.91447  20890137.6644                   20890137.4224
        48.0004         45.0004
 -12704987.53947  -9692473.96545  21582370.0474                   21582370.1764
        47.0004         34.2504
 -13129590.09047 -10140801.24246  20978125.3524                   20978125.1414
        47.7504         38.0004
 25  8  5 21 51 30.0000000  0 10G26G02G03G32G10G25G04G31G01G28
  59376115.71155  45243659.50052  25091303.3054                   25091316.8754
        33.0004         17.2504
  -9506309.26248  -7310237.29746  21422690.2664                   21422688.0084
        48.5004         37.5004
  29376101.16446  22963605.46946  23002464.7344                   23002469.2274
        41.0004         36.0004
   9449790.85547   7416906.32447  22513473.7734                   22513475.7934
        47.0004         42.5004
   8888018.14147   6994050.14546  23156492.0164                   23156497.0634
        43.2504         37.7504
  41711512.27745  32979096.24644  24439869.4774                   24439875.0984
        35.5004         27.5004
  57796252.77345  45275180.67643  24445609.3674                   24445617.6804
        35.5004         19.2504
 -22946329.91048 -17880253.14847  20828718.6644                   20828718.2704
        48.7504         45.2504
 -13012912.12947  -9932415.19145  21523774.0314                   21523774.1174
        47.2504         34.2504
 -13382380.09047 -10337780.45746  20930020.9534                   20930020.3914
        47.5004         36.7504
 25  8  5 21 52  0.0000000  0 10G26G02G03G32G10G25G04G31G01G28
  59027769.87545  44972221.42643  25025015.6334                   25025028.7704
        33.2504         19.0004
  -9747794.38348  -7498407.57046  21376737.1804                   21376734.7774
        49.0004         37.5004
  29029985.91446  22693905.39846  22936601.2974                   22936605.3324
        41.0004         36.2504
   9256679.09447   7266429.58647  22476725.5004                   22476727.8444
        46.7504         42.5004
   8696988.84847   6845196.01246  23120140.3444                   23120145.5124
        43.7504         38.5004
  41434686.75045  32763388.11744  24387191.1174                   24387196.9104
        35.0004         26.7504
  57454816.45745  45009126.64542  24380635.4774                   24380644.4734
        33.0004         16.2504
 -23268548.18048 -18131332.25847  20767402.6804                   20767401.9964
        48.7504         45.5004
 -13320321.16447 -10171954.68745  21465275.6884                   21465275.8524
        47.7504         34.7504
 -13634575.68747 -10534296.50846  20882029.7504                   20882029.2194
        47.0004         37.0004
 25  8  5 21 52 30.0000000  0 10G26G02G03G32G10G25G04G31G01G28
  58679310.16845  44700694.69543  24958704.8204                   24958718.4574
        35.5004         18.2504
  -9988763.61348  -7686175.84446  21330882.5084                   21330880.3094
        48.7504         37.0004
  28683921.56646  22424244.98846  22870747.0474                   22870751.4144
        41.0004         36.0004
   9063656.86347   7116022.60947  22439994.6564                   22439997.0084
        47.0004         42.7504
   8506208.92247   6696536.18846  23083836.0634                   23083841.3954
        43.5004         38.0004
  41158367.36745  32548074.40244  24334610.1804                   24334615.0864
        35.0004         27.2504
  57113517.80945  44743179.89142  24315689.2664                   24315697.2074
        35.0004         17.7504
 -23590224.95347 -18381989.44147  20706189.6644                   20706188.7194
        47.0004         45.0004
 -13627212.46547 -10411090.74645  21406876.1564                   21406876.4184
        47.5004         34.2504
 -13886177.09847 -10730349.55146  20834151.6094                   20834151.3134
        47.7504         36.7504
 25  8  5 21 53  0.0000000  0 10G26G02G03G32G10G25G04G31G01G28
  58330739.12945  44429081.13343  24892374.3594                   24892387.5784
        35.2504         20.0004
 -10229217.73448  -7873542.72346  21285125.2504                   21285123.5664
        49.0004         37.0004
  28337909.35946  22154625.18845  22804902.8444                   22804906.9844
        40.5004         35.0004
   8870723.18047   6965684.63747  22403280.4454                   22403283.2344
        47.0004         42.5004
   8315678.25447   6548070.58246  23047580.0704                   23047584.6844
        43.7504         37.7504
  40882555.58245  32333156.21544  24282123.8674                   24282129.8284
        35.0004         26.0004
  56772357.09445  44477340.61742  24250767.8674                   24250775.8954
        34.0004         17.7504
 -23911358.03948 -18632222.95747  20645080.1484                   20645079.3134
        49.0004         45.2504
 -13933584.22347 -10649821.96145  21348575.3834                   21348576.0004
        47.7504         34.7504
 -14137184.96947 -10925940.09846  20786386.4774                   20786385.9574
        47.5004         37.5004
 25  8  5 21 53 30.0000000  0 10G26G02G03G32G10G25G04G31G01G28
  57982058.73046  44157382.35943  24826021.9924                   24826035.2304
        36.2504         20.0004
 -10469158.25048  -8060509.39146  21239466.1334                   21239463.9924
        49.0004         37.5004
  27991949.82046  21885046.43045  22739069.3674                   22739072.9304
        40.5004         35.0004
   8677876.21547   6815414.23047  22366583.0704                   22366585.3634
        47.2504         42.5004
   8125395.90647   6399798.47746  23011370.7584                   23011375.0314
        43.7504         37.7504
  40607252.05145  32118634.07044  24229736.7344                   24229741.0314
        34.7504         25.2504
  56431333.95345  44211608.52343  24185873.2114                   24185881.4184
        34.5004         18.5004
 -24231946.19948 -18882031.85947  20584073.9304                   20584073.5554
        49.0004         45.5004
 -14239435.43747 -10888147.56245  21290374.0784                   21290374.8284
        47.5004         35.2504
 -14387600.75047 -11121069.27346  20738733.6414                   20738733.6564
        47.2504         37.2504
 25  8  5 21 54  0.0000000  0 10G26G02G03G32G10G25G04G31G01G28
  59208702.78946  45113209.20743  25059444.6724                   25059457.8244
        36.0004         21.5004
  -9133158.23048  -7019470.45346  21493698.9384                   21493696.2034
        48.5004         37.2504
  29221475.41846  22843118.41845  22973039.5634                   22973043.8484
        39.0004         34.0004
  10060541.08247   7892815.38347  22629695.3914                   22629697.8404
        47.0004         42.2504
   9510787.82447   7479324.50446  23275001.5474                   23275006.4844
        44.2504         38.5004
  41907887.26645  33132116.14544  24477237.9454                   24477243.6454
        34.0004         26.2504
  57665879.68846  45173592.41042  24420799.6954                   24420807.5474
        36.0004         17.2504
 -22976557.21948 -17903806.63347  20822966.7424                   20822965.8794
        49.0004         45.5004
 -12969334.41847  -9898458.44545  21532066.1484                   21532066.5124
        47.2504         34.5004
 -13061997.07848 -10088131.34846  20990987.6254                   20990987.4884
        48.0004         37.0004
 25  8  5 21 54 30.0000000  0 10G26G02G03G32G10G25G04G31G01G28
  58859810.47346  44841345.35243  24993052.5784                   24993065.8674
        37.2504         20.7504
  -9372074.53548  -7205639.04346  21448234.4844                   21448232.2154
        48.2504         37.0004
  28875624.01646  22573623.92645  22907226.6804                   22907230.5044
        40.2504         35.7504
   9867863.60947   7742677.04347  22593029.9844                   22593032.2584
        47.2504         42.0004
   9321000.75447   7331438.32046  23238886.6414                   23238891.6644
        44.5004         38.5004
  41633603.82045  32918388.84444  24425042.8134                   24425048.7344
        34.7504         26.7504
  57325131.53146  44908074.57843  24355957.0944                   24355964.6914
        36.5004         19.7504
 -23296050.53548 -18152762.41047  20762168.8204                   20762168.1914
        49.0004         45.5004
 -13274140.07448 -10135969.33645  21474063.9064                   21474064.0164
        48.0004         33.7504
 -13311231.56648 -10282340.04346  20943559.9224                   20943559.6764
        48.0004         37.0004
 25  8  5 21 55  0.0000000  0 10G26G02G03G32G10G25G04G31G01G28
  58510818.67246  44569403.94543  24926641.1024                   24926654.1294
        38.5004         22.5004
  -9610477.16048  -7391407.35946  21402867.9384                   21402866.0004
        48.5004         37.2504
  28529831.17247  22304175.05146  22841424.2584                   22841428.2974
        42.0004         36.5004
   9675271.84047   7592605.48447  22556381.3674                   22556383.8054
        46.5004         42.0004
   9131463.60247   7183746.87946  23202819.0234                   23202824.1804
        44.5004         38.0004
  41359835.03145  32705062.58644  24372946.7894                   24372952.6914
        34.7504         27.5004
  56984523.76646  44642666.18443  24291141.0864                   24291149.1094
        37.5004         20.0004
 -23614990.86747 -18401287.30147  20701476.5234                   20701475.7664
        47.7504         45.5004
 -13578417.88348 -10373068.91045  21416161.2584                   21416161.5744
        48.0004         34.0004
 -13559874.02048 -10476087.40246  20896244.7894                   20896244.6134
        48.5004         37.2504
 25  8  5 21 55 30.0000000  0 10G26G02G03G32G10G25G04G31G01G28
  58161728.17246  44297385.66044  24860211.0554                   24860224.3754
        38.5004         26.5004
  -9848368.80948  -7576777.50446  21357598.7504                   21357596.4924
        49.0004         37.0004
  28184096.21946  22034771.28146  22775632.7814                   22775637.3484
        41.0004         37.0004
   9482762.87547   7442598.44146  22519747.9304                   22519750.3754
        46.2504         41.2504
   8942174.22347   7036248.51246  23166798.3364                   23166803.7074
        43.5004         38.0004
  41086580.36745  32492136.95744  24320947.8914                   24320954.0124
        34.7504         25.5004
  56644054.77346  44377365.89143  24226352.2114                   24226360.1414
        36.7504         19.0004
 -23933378.31647 -18649381.36747  20640889.6484                   20640889.1134
        47.5004         45.5004
 -13882167.95747 -10609757.26645  21358359.7344                   21358360.2974
        47.5004         34.7504
 -13807927.04748 -10669375.47746  20849041.8914                   20849041.3834
        48.5004         37.2504
 25  8  5 21 56  0.0000000  0 10G26G02G03G32G10G25G04G31G01G28
  57812540.26246  44025291.48444  24793762.4144                   24793776.3554
        38.5004         25.7504
 -10085751.48448  -7761751.05146  21312426.2584                   21312424.3134
        48.7504         37.2504
  27838419.03946  21765412.52045  22709852.5394                   22709857.3364
        41.0004         35.2504
   9290334.39147   7292654.12146  22483130.1724                   22483132.5514
        46.7504         41.0004
   8753131.10247   6888942.03546  23130824.9064                   23130829.7704
        43.7504         37.5004
  40813839.82045  32279611.93444  24269047.2504                   24269053.2194
        33.7504         25.7504
  56303723.48446  44112172.93043  24161588.6094                   24161596.8014
        36.5004         20.0004
 -24251212.32448 -18897044.19147  20580407.4694                   20580406.9024
        48.7504         45.5004
 -14185389.96147 -10846034.14145  21300658.2504                   21300659.1884
        47.2504         34.5004
 -14055392.79748 -10862205.93046  20801950.8754                   20801950.7664
        48.0004         37.5004
 25  8  5 21 56 30.0000000  0 10G26G02G03G32G10G25G04G31G01G28
  57463259.39546  43753124.85944  24727296.4384                   24727309.1374
        38.7504         26.5004
 -10322624.52048  -7946327.47746  21267350.8594                   21267348.7664
        49.5004         37.5004
  27492802.69546  21496101.18045  22644083.7504                   22644088.1994
        40.5004         35.0004
   9097987.17247   7142773.12547  22446527.8674                   22446530.2854
        45.5004         42.0004
   8564335.82446   6741828.68046  23094898.7504                   23094903.7154
        41.7504         37.5004
  40541616.49645  32067489.93844  24217244.2034                   24217250.5784
        33.0004         24.5004
  55963531.89146  43847088.83243  24096852.2894                   24096860.1414
        36.2504         19.7504
 -24568488.91448 -19144272.65647  20520031.8364                   20520031.4384
        49.0004         45.5004
 -14488080.44947 -11081896.84045  21243058.5554                   21243058.7734
        47.0004         35.0004
 -14302270.19148 -11054577.92246  20754971.4844                   20754971.2274
        48.0004         37.5004
 25  8  5 21 57  0.0000000  0 10G26G02G03G32G10G25G04G31G01G28
  58689318.61346  44708496.00844  24960607.6564                   24960621.0824
        39.0004         28.0004
  -8983561.71148  -6902901.94946  21522166.1954                   21522164.1484
        48.7504         38.0004
  28722678.83246  22454446.30945  22878121.7664                   22878125.2734
        41.5004         34.7504
  10481145.35247   8220558.66446  22709733.8834                   22709736.6024
        47.0004         41.2504
   9951213.15247   7822512.16846  23358812.7424                   23358817.8014
        43.7504         37.7504
  41845339.37145  33083377.95743  24465334.3524                   24465340.6954
        33.2504         23.5004
  57198910.25046  44809721.62143  24331936.7194                   24331944.3794
        36.0004         20.0004
 -23309777.15248 -18163458.25047  20759556.4384                   20759556.0784
        48.5004         45.7504
 -13214808.97747 -10089737.24245  21485353.8594                   21485354.2704
        47.2504         34.2504
 -12973133.28947 -10018886.82846  21007897.6804                   21007897.3714
        47.5004         37.7504
 25  8  5 21 57 30.0000000  0 10G26G02G03G32G10G25G04G31G01G28
  58339858.41846  44436189.63344  24894107.1724                   24894120.6804
        38.2504         28.5004
  -9219418.65648  -7086686.63346  21477283.9694                   21477281.9694
        48.5004         36.5004
  28377186.78547  22185231.78545  22812376.6094                   22812380.0554
        42.0004         34.7504
  10288956.26647   8070800.87946  22673161.5554                   22673164.0124
        46.0004         41.0004
   9762911.43047   7675783.40646  23322980.1564                   23322985.0634
        43.7504         37.0004
  41574152.82045  32872063.80544  24413729.1094                   24413735.4924
        32.5004         24.5004
  56858997.36746  44544854.71143  24267253.4534                   24267260.5044
        37.0004         21.7504
 -23625935.04748 -18409815.00847  20699393.7894                   20699393.1644
        48.7504         45.5004
 -13516432.90247 -10324768.87545  21427956.5944                   21427957.0634
        47.5004         34.5004
 -13218838.16448 -10210345.18046  20961142.1414                   20961141.2384
        48.0004         37.7504
 25  8  5 21 58  0.0000000  0 10G26G02G03G32G10G25G04G31G01G28
  57990313.67246  44163817.41444  24827591.0784                   24827603.9614
        39.2504         28.5004
  -9454767.76648  -7270075.57846  21432498.4384                   21432496.4734
        49.2504         37.0004
  28031759.91047  21916068.03945  22746644.0394                   22746647.6994
        42.7504         35.5004
  10096845.80147   7921104.36346  22636603.8914                   22636606.5124
        46.0004         41.5004
   9574857.17647   7529247.48046  23287194.9454                   23287199.6254
        43.0004         37.2504
  41303487.73445  32661156.00443  24362223.8134                   24362229.7274
        32.7504         22.5004
  56519225.22746  44280097.46143  24202597.4844                   24202603.9964
        39.2504         22.5004
 -23941529.74647 -18655732.91047  20639338.0944                   20639337.5234
        47.5004         45.5004
 -13817520.05947 -10559382.22345  21370661.8204                   21370662.4264
        47.7504         34.7504
 -13463956.97748 -10401346.85546  20914497.6334                   20914497.1254
        48.2504         37.5004
 25  8  5 21 58 30.0000000  0 10G26G02G03G32G10G25G04G31G01G28
  57640686.96946  43891381.34044  24761059.0704                   24761071.9064
        38.0004         28.2504
  -9689610.09448  -7453069.64146  21387809.7584                   21387807.8914
        48.7504         37.7504
  27686399.41046  21646956.03546  22680924.2974                   22680927.7424
        41.7504         36.0004
   9904812.94947   7771468.33246  22600061.5864                   22600064.1214
        45.7504         41.2504
   9387050.04347   7382904.12146  23251456.1334                   23251461.8404
        43.5004         37.0004
  41033345.08255  32450655.29353  24310816.9614                   24310823.2584
        32.0004         22.5004
  56179593.94946  44015449.98043  24137967.5554                   24137974.5204
        39.2504         22.5004
 -24256559.48047 -18901210.58247  20579389.9694                   20579389.1684
        47.7504         45.5004
 -14118068.89147 -10793576.09845  21313469.1094                   21313469.3714
        47.5004         34.0004
 -13708490.75447 -10591892.64846  20867964.4224                   20867963.5354
        47.7504         37.5004
 25  8  5 21 59  0.0000000  0 10G26G02G03G32G10G25G04G31G01G28
  57290980.54746  43618883.13344  24694511.6884                   24694524.7584
        38.0004         29.5004
  -9923946.99248  -7635669.86346  21343216.7424                   21343214.8324
        48.7504         37.5004
  27341106.19546  21377896.47746  22615216.7734                   22615220.6054
        41.2504         36.0004
   9712856.27347   7621891.64846  22563533.5314                   22563535.9264
        45.0004         41.2504
   9199489.34047   7236752.78546  23215765.0634                   23215770.2074
        44.0004         36.2504
  40763725.73045  32240562.33244  24259511.1334                   24259516.6094
        32.7504         25.7504
  55840103.32846  43750912.07443  24073364.1094                   24073371.0744
        39.2504         22.0004
 -24571022.95747 -19146247.01247  20519549.5234                   20519548.9184
        47.5004         46.0004
 -14418078.31247 -11027349.65645  21256379.4224                   21256379.8834
        47.5004         34.7504
 -13952440.83648 -10781983.62546  20821542.1724                   20821541.6484
        48.0004         37.0004
 25  8  5 21 59 30.0000000  0 10G26G02G03G32G10G25G04G31G01G28
  56941197.25846  43346325.04744  24627949.6174                   24627962.9264
        37.2504         29.5004
 -10157779.27748  -7817876.87146  21298720.2974                   21298718.1254
        48.5004         37.0004
  26995881.76647  21108890.50845  22549522.8594                   22549526.5664
        42.2504         35.2504
   9520974.96547   7472373.70346  22527019.9064                   22527022.1564
        46.7504         41.7504
   9012174.96947   7090793.39845  23180120.0164                   23180124.9264
        43.0004         35.2504
  40494631.12145  32030878.28544  24208303.2664                   24208309.2664
        33.2504         24.5004
  55500753.71946  43486484.06643  24008787.7734                   24008794.3054
        40.0004         21.7504
 -24884918.23848 -19390840.69147  20459817.0944                   20459816.2074
        49.0004         45.7504
 -14717546.55947 -11260701.51645  21199392.5634                   21199392.9104
        47.2504         34.7504
 -14195808.04748 -10971620.41446  20775230.5474                   20775230.3094
        48.0004         37.2504
 25  8  5 22  0  0.0000000  0 10G26G02G03G32G10G25G04G31G01G28
  58166770.70746  44301317.66844  24861168.7344                   24861181.0984
        37.0004         28.7504
  -8815680.69148  -6772085.80546  21554113.1174                   21554110.8054
        48.5004         37.5004
  28226158.09047  22067547.46545  22783637.0084                   22783640.1334
        42.5004         35.5004
  10904593.60947   8550518.06346  22790313.8834                   22790316.1724
        46.2504         41.7504
  10400531.97347   8172629.89145  23444315.8364                   23444320.9414
        43.0004         34.2504
  41801490.25445  33049210.13744  24456990.3914                   24456995.9104
        34.0004         26.7504
  56736975.82446  44449774.23843  24244032.4774                   24244039.6644
        39.0004         20.5004
 -23622814.02748 -18407382.81247  20699987.6094                   20699987.1334
        48.5004         45.7504
 -13441043.04747 -10266023.44145  21442302.6644                   21442302.8874
        47.5004         34.5004
 -12863166.12948  -9933198.13746  21028824.0314                   21028823.8134
        48.2504         37.2504
 25  8  5 22  0 30.0000000  0 10G26G02G03G32G10G25G04G31G01G28
  57816841.46546  44028645.84844  24794578.8444                   24794591.3554
        36.0004         27.5004
  -9048506.51248  -6953508.55946  21509807.6024                   21509805.6524
        48.5004         37.5004
  27881074.85947  21798651.50846  22717969.9924                   22717972.8204
        42.7504         36.5004
  10712859.78947   8401115.03546  22753827.8204                   22753830.4144
        46.5004         41.5004
  10213708.92647   8027053.36745  23408764.7664                   23408769.9654
        43.0004         34.5004
  41533447.70745  32840345.86344  24405983.7974                   24405989.4694
        33.2504         25.0004
  56397908.44946  44185566.14143  24179510.7734                   24179516.2894
        39.5004         20.5004
 -23935568.31648 -18651087.40647  20640472.1334                   20640471.4144
        48.5004         45.5004
 -13739424.86347 -10498528.73045  21385523.1254                   21385522.9144
        47.0004         35.0004
 -13105370.97748 -10121929.18046  20982734.0084                   20982733.8404
        48.0004         37.0004
 25  8  5 22  1  0.0000000  0 10G26G02G03G32G10G25G04G31G01G28
  57466844.83246  43755921.52744  24727977.4454                   24727989.4734
        36.5004         29.0004
  -9280829.38348  -7134539.40246  21465598.6804                   21465596.3874
        48.2504         37.0004
  27536065.69547  21529813.27346  22652316.4384                   22652319.5744
        42.5004         36.2504
  10521199.78947   8251769.53146  22717356.2424                   22717358.7344
        46.7504         41.0004
  10027132.55147   7881669.04345  23373260.4384                   23373265.4384
        43.5004         34.0004
  41265934.50845  32631894.06344  24355078.0234                   24355083.4104
        33.0004         26.2504
  56058983.88746  43921469.33643  24115014.9614                   24115021.6684
        39.5004         21.0004
 -24247748.05148 -18894344.30147  20581066.5864                   20581066.0904
        49.5004         46.0004
 -14037259.76247 -10730607.85945  21328846.3524                   21328846.8714
        47.5004         34.7504
 -13346994.70348 -10310207.41046  20936754.2894                   20936753.6994
        48.5004         37.0004
 25  8  5 22  1 30.0000000  0 10G26G02G03G32G10G25G04G31G01G28
  57116782.82845  43483146.25844  24661363.2504                   24661375.0314
        34.2504         27.5004
  -9512650.77748  -7315179.49246  21421484.1484                   21421482.2424
        48.2504         36.7504
  27191131.30147  21261033.30146  22586677.5554                   22586681.2034
        42.7504         36.7504
  10329611.96547   8102480.27746  22680898.4844                   22680901.1804
        46.0004         41.5004
   9840801.87547   7736476.17245  23337802.8524                   23337808.0514
        44.0004         33.7504
  40998950.85545  32423854.89144  24304272.6884                   24304278.1914
        33.5004         26.5004
  55720201.70746  43657483.44543  24050546.0944                   24050553.2464
        39.7504         21.5004
 -24559352.13348 -19137152.62947  20521769.9694                   20521769.6484
        49.0004         46.0004
 -14334546.91847 -10962260.18045  21272274.8134                   21272275.0394
        47.5004         35.2504
 -13588039.07448 -10498034.19546  20890885.2894                   20890885.2774
        48.5004         37.2504
 25  8  5 22  2  0.0000000  0 10G26G02G03G32G10G25G04G31G01G28
  56766656.13745  43210320.59044  24594734.8204                   24594747.1764
        35.0004         26.2504
  -9743973.71948  -7495431.18446  21377464.8834                   21377462.7894
        48.0004         37.0004
  26846270.98447  20992311.06646  22521052.4614                   22521056.3484
        42.5004         37.0004
  10138093.31647   7953244.90646  22644453.5864                   22644455.9184
        46.2504         40.7504
   9654714.50447   7591472.89145  23302392.2734                   23302397.1024
        42.5004         33.5004
  40732495.77345  32216227.62144  24253567.6804                   24253572.9064
        33.5004         26.5004
  55381559.99246  43393607.02743  23986105.0164                   23986111.5634
        39.7504         22.0004
 -24870381.07848 -19379512.80147  20462583.2894                   20462582.6374
        49.2504         46.0004
 -14631286.93447 -11193486.15245  21215806.9224                   21215807.2814
        47.7504         35.0004
 -13828507.23448 -10685411.97746  20845125.9384                   20845125.5634
        48.0004         37.0004
 25  8  5 22  2 30.0000000  0 10G26G02G03G32G10G25G04G31G01G28
  56416469.19545  42937447.97344  24528096.7424                   24528108.9304
        33.5004         27.0004
  -9974797.89548  -7675294.21146  21333540.6094                   21333538.7074
        48.0004         37.2504
  26501487.76647  20723648.91446  22455442.0554                   22455446.1174
        42.2504         36.7504
   9946644.55547   7804064.01246  22608022.6484                   22608025.0434
        46.5004         41.0004
   9468871.70747   7446660.18045  23267027.4614                   23267032.6294
        42.0004         33.2504
  40466572.06645  32009014.38344  24202964.5234                   24202969.5944
        34.0004         26.0004
  55043060.54346  43129841.46943  23921690.9844                   23921697.4534
        40.0004         22.7504
 -25180831.93748 -19621422.50847  20403506.5704                   20403505.9304
        48.7504         46.0004
 -14927476.81647 -11424283.44145  21159443.8134                   21159444.5124
        46.7504         35.7504
 -14068398.62948 -10872340.33646  20799475.7194                   20799475.5314
        48.0004         36.7504
 25  8  5 22  3  0.0000000  0 10G26G02G03G32G10G25G04G31G01G28
  57641654.87555  43892138.44154  24761241.6414                   24761253.5394
        33.5004         26.0004
  -8629698.03948  -6627164.50046  21589504.6414                   21589502.6214
        48.5004         37.0004
  27732213.08247  21682655.74246  22689642.1174                   22689645.3284
        42.7504         37.5004
  11330689.66047   8882540.66046  22871397.3754                   22871399.6884
        45.5004         40.5004
  10858697.89846   8529641.48045  23531502.1254                   23531508.0554
        41.2504         32.7504
  41776607.85255  33029821.54354  24452255.8284                   24452261.1764
        33.2504         24.0004
  56280133.31346  44093794.49243  24157097.3284                   24157103.7304
        40.0004         22.0004
 -23915273.98048 -18635273.41047  20644334.0084                   20644333.0864
        49.0004         46.0004
 -13647686.73047 -10427044.39845  21402980.0234                   21402980.4774
        47.5004         35.5004
 -12732287.90248  -9831215.09046  21053729.2814                   21053728.9654
        48.0004         36.5004
 25  8  5 22  3 30.0000000  0 10G26G02G03G32G10G25G04G31G01G28
  57291355.36355  43619178.13753  24694579.3674                   24694593.3284
        31.5004         22.7504
  -8859528.03148  -6806252.84846  21545769.2734                   21545767.2194
        48.5004         37.7504
  27387587.94547  21414116.74646  22624061.6484                   22624064.8404
        42.5004         37.5004
  11139377.57447   8733466.25846  22834992.3754                   22834994.6214
        46.0004         41.0004
  10673342.93046   8385208.87945  23496231.0864                   23496236.3444
        41.5004         34.2504
  41511749.25045  32823438.25444  24401854.4304                   24401859.9844
        34.0004         26.0004
  55941918.48046  43830250.70743  24092736.9924                   24092743.2344
        39.0004         20.0004
 -24224563.56248 -18876278.22347  20585478.1804                   20585477.2074
        49.0004         46.0004
 -13942772.39847 -10656981.27045  21346826.8054                   21346827.1724
        47.5004         35.2504
 -12971029.56647 -10017247.55946  21008298.4144                   21008297.8794
        47.5004         36.5004
 25  8  5 22  4  0.0000000  0 10G26G02G03G32G10G25G04G31G01G28
  56941003.60555  43346177.14553  24627911.2424                   24627923.2974
        31.5004         22.2504
  -9088862.23448  -6984954.87146  21502128.5314                   21502126.6454
        48.5004         37.2504
  27043043.96547  21145640.98046  22558497.1884                   22558500.4924
        43.0004         37.0004
  10948132.57447   8584444.13346  22798599.5474                   22798601.7384
        45.5004         40.7504
  10488231.32446   8240965.90645  23461005.2974                   23461011.1764
        41.0004         34.2504
  41247424.64545  32617471.04744  24351555.2034                   24351560.9024
        33.7504         25.5004
  55603846.22346  43566818.00043  24028404.6414                   24028409.9924
        38.0004         19.2504
 -24533270.12947 -19116828.74247  20526733.3204                   20526732.2114
        47.7504         46.0004
 -14237303.85947 -10886486.30145  21290779.2894                   21290779.7544
        47.2504         35.0004
 -13209198.03148 -10202833.36746  20962976.0704                   20962975.9144
        48.0004         37.2504
 25  8  5 22  4 30.0000000  0 10G26G02G03G32G10G25G04G31G01G28
  56590601.60955  43073136.98054  24561231.2194                   24561243.5904
        31.7504         24.7504
  -9317702.97348  -7163272.37946  21458581.5634                   21458579.7584
        48.7504         37.5004
  26698581.62547  20877228.83646  22492948.0634                   22492951.5514
        43.0004         36.7504
  10756952.77047   8435472.80546  22762218.9924                   22762221.1764
        45.2504         40.5004
  10303361.79746   8096911.56345  23425825.4614                   23425831.3914
        41.0004         34.2504
  40983633.97345  32411919.93444  24301358.1254                   24301362.8134
        33.5004         26.0004
  55265915.80146  43303495.81643  23964097.6884                   23964103.5084
        38.0004         19.0004
 -24841393.38748 -19356924.74247  20468099.1804                   20468098.1094
        49.0004         46.2504
 -14531280.71947 -11115559.17245  21234837.5234                   21234837.9494
        46.7504         34.5004
 -13446795.48448 -10387974.23046  20917763.0864                   20917762.7774
        48.2504         37.7504
 25  8  5 22  5  0.0000000  0 10G26G02G03G32G10G25G04G31G01G28
  56240151.56355  42800059.39154  24494542.8984                   24494554.9104
        31.0004         25.5004
  -9546051.61347  -7341206.43046  21415128.6334                   21415126.5314
        47.2504         37.5004
  26354201.79347  20608880.99646  22427414.5474                   22427418.6054
        42.5004         37.0004
  10565836.72347   8286551.16046  22725850.8594                   22725853.1054
        46.2504         40.2504
  10118733.48846   7953045.18845  23390691.9384                   23390697.8984
        41.5004         35.2504
  40720377.87145  32206785.34044  24251261.4534                   24251266.8094
        34.5004         25.5004
  54928126.69946  43040283.74243  23899818.7194                   23899825.0354
        37.5004         18.5004
 -25148932.40248 -19596565.48847  20409576.5784                   20409575.9344
        49.0004         46.0004
 -14824702.16047 -11344199.24645  21179001.3284                   21179001.7734
        47.5004         35.5004
 -13683823.64847 -10572671.50446  20872658.2194                   20872657.6484
        47.7504         37.2504
 25  8  5 22  5 30.0000000  0 10G26G02G03G32G10G25G04G31G01G28
  55889659.23445  42526948.84844  24427846.5394                   24427858.2854
        32.5004         25.7504
  -9773907.12548  -7518756.22746  21371769.2114                   21371767.2734
        48.0004         36.7504
  26009908.66047  20340600.72346  22361897.7424                   22361901.5554
        42.2504         38.2504
  10374786.31347   8137680.65646  22689495.0634                   22689497.8754
        45.5004         40.2504
   9934348.62946   7809368.51245  23355604.4454                   23355611.2114
        41.7504         35.0004
  40457659.74645  32002069.94544  24201268.8134                   24201273.2154
        33.7504         26.0004
  54590481.89546  42777184.12142  23835566.5864                   23835573.2304
        37.5004         17.2504
 -25455882.62548 -19835747.43047  20351165.6414                   20351165.0784
        48.5004         46.0004
 -15117564.19147 -11572403.41446  21123271.5394                   21123272.0744
        47.0004         36.0004
 -13920281.09048 -10756924.04746  20827661.7274                   20827661.1604
        48.0004         37.5004
 25  8  5 22  6  0.0000000  0 10G26G02G03G32G10G25G04G31G01G28
  57114558.39545  43481416.09044  24660937.0164                   24660948.3134
        33.7504         26.7504
  -8425843.50848  -6468317.08646  21628296.7114                   21628295.0904
        48.0004         37.2504
  27241134.73847  21299997.73046  22596192.1484                   22596195.6054
        42.5004         37.7504
  11759226.57847   9216465.21946  22952945.8364                   22952947.5274
        45.2504         40.0004
  11325632.67247   8893485.77745  23620358.1334                   23620363.9534
        43.0004         35.5004
  41770908.73855  33025380.89854  24451171.8594                   24451176.0474
        34.5004         26.5004
  55828412.30946  43741805.41843  24071136.7344                   24071142.6884
        37.0004         18.2504
 -24186813.01648 -18846861.98047  20592661.7274                   20592660.7464
        49.2504         46.0004
 -13834436.19547 -10572563.41045  21367442.5474                   21367443.1174
        46.0004         35.0004
 -12580741.58648  -9713127.02346  21082567.5234                   21082567.3874
        48.0004         38.0004
 25  8  5 22  6 30.0000000  0 10G26G02G03G32G10G25G04G31G01G28
  56763989.34446  43208245.74644  24594224.3914                   24594236.4614
        36.5004         26.7504
  -8652716.13748  -6645101.00446  21585124.5004                   21585122.6684
        48.2504         37.2504
  26897019.27747  21031855.86746  22530708.7664                   22530712.6604
        42.5004         37.0004
  11568304.71547   9067694.87946  22916614.0704                   22916616.7894
        45.7504         40.5004
  11141733.55947   8750187.60946  23585363.3594                   23585369.2194
        42.2504         36.5004
  41509268.95745  32821505.78944  24401382.9844                   24401387.7304
        32.5004         25.5004
  55491056.28946  43478930.76643  24006939.7114                   24006945.9734
        37.0004         18.5004
 -24492581.62948 -19085123.19147  20534475.9534                   20534475.0164
        49.5004         46.2504
 -14126175.63747 -10799892.83245  21311926.1484                   21311926.9344
        46.7504         34.0004
 -12816061.44148  -9896493.12946  21037787.4614                   21037787.3714
        48.0004         36.7504
 25  8  5 22  7  0.0000000  0 10G26G02G03G32G10G25G04G31G01G28
  56413384.32046  42935047.35544  24527506.0234                   24527518.7504
        36.5004         28.5004
  -8879100.91448  -6821504.77346  21542044.6884                   21542043.1174
        48.0004         37.0004
  26552992.96947  20763783.47346  22465242.7034                   22465246.4304
        42.2504         37.0004
  11377443.98047   8918972.17246  22880294.8364                   22880297.5554
        46.0004         40.5004
  10958074.84047   8607076.76246  23550414.0234                   23550420.1524
        42.7504         36.2504
  41248167.78945  32618050.37144  24351696.7734                   24351701.8014
        33.5004         25.5004
  55153843.00446  43216167.35243  23942770.0314                   23942776.7464
        38.2504         19.2504
 -24797759.37948 -19322923.99647  20476402.6954                   20476401.3164
        50.0004         46.2504
 -14417353.77347 -11026784.87945  21256516.9924                   21256517.2814
        47.0004         34.7504
 -13050816.32448 -10079419.00446  20993115.2504                   20993114.9454
        48.0004         37.2504
 25  8  5 22  7 30.0000000  0 10G26G02G03G32G10G25G04G31G01G28
  56062748.37946  42661824.86344  24460782.7114                   24460794.4574
        37.0004         28.2504
  -9104996.88348  -6997527.65246  21499058.4614                   21499056.8914
        48.0004         37.2504
  26209059.49647  20495783.42246  22399794.5394                   22399797.9494
        42.2504         37.7504
  11186645.76247   8770298.18046  22843986.9694                   22843989.9614
        45.5004         40.5004
  10774658.26647   8464154.59046  23515511.5944                   23515517.5124
        42.5004         36.2504
  40987608.21145  32415016.98444  24302113.4614                   24302119.0274
        32.7504         25.5004
  54816774.75846  42953516.96543  23878627.9844                   23878634.1054
        38.0004         19.7504
 -25102342.52748 -19560261.46947  20418442.1954                   20418441.0314
        49.0004         46.2504
 -14707967.15647 -11253236.86345  21201215.1094                   21201215.1994
        47.0004         35.2504
 -13285005.30147 -10261903.91846  20948550.7664                   20948550.3834
        47.5004         38.0004
 25  8  5 22  8  0.0000000  0 10G26G02G03G32G10G25G04G31G01G28
  55712082.98446  42388579.41444  24394053.3914                   24394064.6134
        37.5004         28.2504
  -9330406.82848  -7173171.81246  21456164.3984                   21456162.5784
        49.0004         37.5004
  25865218.89847  20227855.74646  22334364.1954                   22334367.7774
        42.5004         37.5004
  10995907.76647   8621671.10946  22807690.8914                   22807693.6054
        45.2504         40.0004
  10591482.03547   8321419.69546  23480653.9454                   23480660.0314
        42.7504         36.2504
  40727589.52755  32212405.03954  24252633.7584                   24252638.9414
        33.5004         24.7504
  54479850.30946  42690978.60543  23814513.6804                   23814519.7234
        38.7504         20.5004
 -25406331.19148 -19797135.70347  20360594.9774                   20360594.1994
        50.0004         46.5004
 -14998016.06247 -11479248.99645  21146020.6804                   21146020.8094
        47.2504         34.2504
 -13518631.17247 -10443950.03146  20904092.9614                   20904092.6914
        47.5004         37.0004
 25  8  5 22  8 30.0000000  0 10G26G02G03G32G10G25G04G31G01G28
  55361390.59046  42115312.91844  24327318.4384                   24327329.9224
        37.5004         28.0004
  -9555332.22748  -7348438.41046  21413362.2814                   21413360.6524
        48.0004         37.2504
  25521472.39547  19960001.38346  22268950.9774                   22268954.4804
        43.5004         38.0004
  10805228.79347   8473090.03146  22771405.4844                   22771408.3054
        45.0004         40.0004
  10408545.27047   8178871.39546  23445842.1564                   23445848.6724
        43.0004         36.7504
  40468112.05145  32010214.86344  24203257.2734                   24203262.1174
        34.0004         26.0004
  54143069.31346  42428552.03543  23750425.9924                   23750431.6994
        38.5004         21.2504
 -25709724.33248 -20033545.91047  20302860.7814                   20302860.0084
        49.7504         46.2504
 -15287499.60947 -11704820.58245  21090934.2194                   21090933.7734
        47.0004         35.0004
 -13751695.68047 -10625558.74246  20859742.4924                   20859742.3594
        46.2504         37.0004
 25  8  5 22  9  0.0000000  0 10G26G02G03G32G10G25G04G31G01G28
  56586108.15246  43069638.59844  24560374.7344                   24560385.6804
        39.2504         27.0004
  -8204344.71148  -6295720.91446  21670447.0394                   21670445.1564
        49.0004         36.7504
  26753255.25847  20919832.24646  22503351.8284                   22503354.9184
        43.2504         39.0004
  12190036.78947   9552161.12946  23034926.2664                   23034928.4964
        45.2504         40.0004
  11801276.11747   9264116.04745  23710870.2584                   23710876.4964
        44.0004         35.7504
  41784607.60545  33036055.57044  24453777.0234                   24453782.9844
        34.0004         25.0004
  55381865.56346  43393848.02343  23986160.9144                   23986166.7234
        38.5004         20.2504
 -24437088.37148 -19041881.48447  20545035.5004                   20545034.7344
        50.2504         46.2504
 -14000984.66447 -10702341.39145  21335749.6884                   21335749.9734
        46.2504         35.0004
 -12408770.08247  -9579123.19546  21115292.8524                   21115292.4184
        47.0004         37.0004
 25  8  5 22  9 30.0000000  0 10G26G02G03G32G10G25G04G31G01G28
  56235373.92646  42796339.50044  24493631.7424                   24493642.2624
        38.0004         26.7504
  -8428301.60948  -6470232.84046  21627829.5004                   21627827.7734
        48.2504         37.0004
  26409704.93447  20652130.75046  22437975.8524                   22437979.1454
        43.7504         38.0004
  11999477.05547   9403672.96146  22998663.6564                   22998666.4804
        45.2504         40.0004
  11618820.64847   9121942.78146  23676150.9304                   23676156.5984
        43.7504         36.0004
  41526218.37545  32834713.37144  24404609.0004                   24404612.7584
        34.5004         25.0004
  55045375.48446  43131648.16043  23922128.7034                   23922133.8874
        38.5004         20.0004
 -24739283.30948 -19277358.02047  20487529.8284                   20487528.7854
        50.0004         46.5004
 -14289330.52747 -10927026.47345  21280878.9064                   21280878.9924
        46.0004         34.5004
 -12640712.47348  -9759857.51646  21071155.5084                   21071154.8984
        48.0004         36.7504
 25  8  5 22 10  0.0000000  0 10G26G02G03G32G10G25G04G31G01G28
  55884624.60246  42523028.62944  24426885.5474                   24426896.9104
        38.5004         26.2504
  -8651774.73048  -6644367.79746  21585303.9454                   21585302.1174
        48.0004         36.5004
  26066256.37947  20384508.56346  22372620.0314                   22372623.0084
        43.0004         38.2504
  11808977.11347   9255231.38346  22962413.3364                   22962415.6724
        45.5004         40.0004
  11436606.51247   8979957.57446  23641475.9304                   23641482.8444
        42.7504         36.2504
  41268375.67655  32633797.01654  24355541.9144                   24355546.8444
        31.7504         24.5004
  54709032.46546  42869562.86743  23858125.5314                   23858130.5864
        38.5004         20.5004
 -25040875.66048 -19512365.00447  20430138.4774                   20430137.6414
        50.0004         46.5004
 -14577104.43447 -11151265.87145  21226117.5704                   21226117.4344
        46.5004         35.7504
 -12872094.47347  -9940155.16846  21027124.9224                   21027124.6254
        47.5004         36.7504
 25  8  5 22 10 30.0000000  0 10G26G02G03G32G10G25G04G31G01G28
  55533861.48846  42249707.00444  24360137.1804                   24360148.4654
        39.2504         25.2504
  -8874766.82847  -6818127.92246  21542869.9694                   21542868.6884
        47.5004         37.0004
  25722909.71547  20116965.75846  22307283.1564                   22307286.4574
        43.5004         38.5004
  11618534.73847   9106834.66046  22926173.4304                   22926175.9384
        44.5004         40.0004
  11254631.79347   8838158.91045  23606847.4774                   23606854.0004
        42.2504         35.7504
  41011078.53155  32433305.78954  24306579.5554                   24306585.3754
        31.7504         24.5004
  54372835.03946  42607591.00043  23794148.4694                   23794154.2894
        39.7504         21.5004
 -25341865.77048 -19746902.71547  20372862.3204                   20372861.4774
        49.5004         46.5004
 -14864306.77347 -11375059.90245  21171464.9064                   21171464.7814
        45.5004         34.5004
 -13102919.04747 -10120018.46546  20983200.5004                   20983200.4224
        47.5004         37.2504
 25  8  5 22 11  0.0000000  0 10G26G02G03G32G10G25G04G31G01G28
  55183087.19546  41976376.67644  24293387.0314                   24293398.2154
        39.0004         25.5004
  -9097279.99247  -6991514.85546  21500526.6884                   21500525.2624
        47.5004         37.0004
  25379666.12547  19849503.27746  22241966.6334                   22241969.3014
        43.5004         38.7504
  11428148.78547   8958481.90646  22889944.0234                   22889946.8444
        44.0004         39.5004
  11072895.68846   8696546.18845  23572264.6884                   23572270.9104
        40.7504         35.0004
  40754327.43445  32233240.04343  24257720.1564                   24257726.3094
        31.5004         22.7504
  54036783.02346  42345732.42643  23730199.4694                   23730205.4694
        40.2504         21.7504
 -25642252.70748 -19980970.42247  20315700.3284                   20315699.6174
        49.7504         46.5004
 -15150936.83247 -11598408.00045  21116921.1724                   21116920.9804
        45.2504         34.7504
 -13333188.02048 -10299448.82846  20939381.5164                   20939381.5704
        48.2504         37.5004
 25  8  5 22 11 30.0000000  0 10G26G02G03G32G10G25G04G31G01G28
  54832304.53546  41703039.81644  24226634.9304                   24226645.9694
        39.5004         26.0004
  -9319315.35548  -7164529.47346  21458275.0474                   21458273.8324
        48.0004         37.0004
  25036527.03547  19582122.23046  22176668.7894                   22176672.2664
        43.2504         39.0004
  11237818.37547   8810172.43046  22853725.2734                   22853728.2154
        44.0004         39.5004
  10891397.56346   8555118.89845  23537726.4844                   23537733.1054
        40.7504         34.2504
  40498122.76655  32033600.07454  24208968.0864                   24208972.6724
        30.5004         24.7504
  53700876.37546  42083987.18843  23666278.3364                   23666284.1684
        40.0004         22.2504
 -25942035.73048 -20214567.53947  20258653.3834                   20258652.7424
        48.2504         46.5004
 -15436993.64147 -11821309.39545  21062485.6564                   21062486.6374
        47.0004         35.0004
 -13562902.89847 -10478447.42246  20895668.2734                   20895668.0004
        47.7504         37.0004
 25  8  5 22 12  0.0000000  0 10G26G02G03G32G10G25G04G31G01G28
  56056950.14846  42657309.39844  24459677.6254                   24459688.0474
        39.0004         27.2504
  -7965444.93448  -6109565.56246  21715908.4774                   21715906.9264
        48.5004         36.5004
  26268927.55147  20542434.39846  22411186.9304                   22411190.3324
        43.7504         38.2504
  12622971.16047   9889512.19146  23117311.1644                   23117313.8094
        45.5004         40.0004
  12285565.07446   9641482.99645  23803027.6724                   23803034.4264
        40.5004         33.2504
  41817895.71155  33061994.59053  24460111.2274                   24460117.5354
        31.0004         22.5004
  54940548.41046  43049965.59043  23902180.7034                   23902186.1564
        39.7504         21.5004
 -24665781.42648 -19220083.62147  20501516.3834                   20501515.7464
        49.5004         46.2504
 -14147044.57447 -10816154.27045  21307954.7424                   21307955.3794
        46.5004         34.7504
 -12216635.56647  -9429407.93446  21151854.6094                   21151854.4024
        47.0004         36.7504
 25  8  5 22 12 30.0000000  0 10G26G02G03G32G10G25G04G31G01G28
  55706161.13346  42383967.60244  24392923.5394                   24392935.0084
        38.5004         27.0004
  -8186527.69147  -6281837.89546  21673837.4304                   21673835.8834
        47.7504         36.5004
  25926003.78547  20275221.14846  22345930.5314                   22345933.8834
        43.0004         38.7504
  12432751.14147   9741288.73046  23081114.0634                   23081116.4534
        44.7504         39.5004
  12104543.01246   9500426.66045  23768581.1414                   23768587.5234
        40.0004         33.2504
                                  24411565.1484                   24411571.1644
        30.5004         22.7504
  54604934.30546  42788448.29343  23838314.6564                   23838320.4024
        39.7504         22.7504
 -24964351.02748 -19452735.22347  20444700.7894                   20444699.6994
        49.0004         46.5004
 -14431950.25847 -11038158.69145  21253739.5234                   21253739.9144
        46.2504         35.2504
 -12445245.34047  -9607545.40646  21108351.4304                   21108351.1454
        47.2504         36.5004
 25  8  5 22 13  0.0000000  0 10G26G02G03G32G10G25G04G31G01G28
  55355373.65646  42110627.00444  24326171.5474                   24326181.7734
        38.5004         26.5004
  -8407135.94947  -6453740.48046  21631857.3284                   21631855.5864
        47.7504         37.0004
  25583190.55147  20008094.01646  22280695.6724                   22280698.2854
        43.5004         38.2504
  12242585.67647   9593107.77746  23044926.9064                   23044929.0784
        44.5004         39.5004
  11923758.74246   9359555.60945  23734179.1564                   23734185.7384
        39.5004         31.5004
  41308227.84855  32664850.90654  24363126.2814                   24363130.4184
        32.2504         24.2504
  54269467.18046  42527045.52743  23774476.8524                   23774482.9414
        39.5004         22.7504
 -25262311.82848 -19684912.43047  20388000.6094                   20387999.7304
        48.0004         46.7504
 -14716278.41047 -11259713.10245  21199633.2584                   21199633.6724
        46.2504         35.5004
 -12673304.41047  -9785253.77046  21064953.2734                   21064953.1414
        47.5004         37.0004
 25  8  5 22 13 30.0000000  0 10G26G02G03G32G10G25G04G31G01G28
  55004592.03146  41837290.95744  24259419.5864                   24259429.8984
        39.0004         27.0004
  -8627269.68447  -6625273.31246  21589967.3524                   21589965.5274
        47.5004         36.5004
  25240490.62947  19741055.17646  22215481.4224                   22215484.7664
        43.7504         38.5004
  12052475.19147   9444969.66446  23008749.6724                   23008752.5164
        44.5004         39.0004
  11743212.94146   9218870.36745  23699822.8284                   23699828.9024
        39.2504         32.0004
  41054219.63345  32466922.43444  24314790.0554                   24314794.2814
        31.7504         25.0004
  53934148.23846  42265758.24243  23710667.8054                   23710674.2624
        40.2504         22.5004
 -25559661.37948 -19916613.34047  20331416.7734                   20331415.6214
        48.7504         46.5004
 -15000026.80947 -11480815.75045  21145638.1484                   21145638.2624
        46.5004         35.0004
 -12900813.03147  -9962533.19946  21021660.3054                   21021659.5664
        47.0004         37.5004
 25  8  5 22 14  0.0000000  0 10G26G02G03G32G10G25G04G31G01G28
  54653816.02346  41563959.30944  24192669.3364                   24192679.2464
        38.5004         27.0004
  -8846933.30548  -6796439.82845  21548166.8754                   21548164.9344
        48.0004         35.7504
  24897902.50447  19474103.46946  22150289.0234                   22150292.1174
        43.0004         39.0004
  11862415.83247   9296871.38346  22972582.3594                   22972585.4694
        44.0004         38.7504
  11562901.90246   9078368.06345  23665510.7814                   23665517.6454
        39.0004         31.0004
  40800759.76655  32269421.27053  24266557.5704                   24266562.4534
        32.5004         23.0004
  53598974.41846  42004584.03543  23646886.6094                   23646892.1374
        40.5004         22.0004
 -25856401.85548 -20147839.64547  20274949.2034                   20274948.0554
        50.0004         46.5004
 -15283197.72347 -11701468.41445  21091752.2424                   21091752.5594
        46.0004         35.2504
 -13127776.00447 -10139387.45746  20978470.3984                   20978469.7344
        47.7504         37.2504
 25  8  5 22 14 30.0000000  0 10G26G02G03G32G10G25G04G31G01G28
  54303051.20346  41290636.36744  24125921.1724                   24125930.6094
        37.5004         27.0004
  -9066126.20747  -6967239.54345  21506455.7584                   21506453.8874
        47.7504         35.7504
  24555430.43447  19207242.18846  22085118.8674                   22085121.6954
        44.0004         38.0004
  11672409.57447   9148814.50046  22936425.8674                   22936428.5124
        44.0004         39.0004
  11382827.80546   8938050.38345  23631243.7584                   23631249.9534
        39.0004         30.7504
  40547851.28155  32072349.73854  24218430.4844                   24218435.4574
        31.5004         24.2504
  53263948.46546  41743525.05943  23583132.8754                   23583138.5354
        40.5004         22.2504
 -26152529.81648 -20378588.66847  20218597.5164                   20218596.7344
        49.0004         46.5004
 -15565787.51647 -11921668.24245  21037976.9774                   21037977.6414
        46.0004         35.0004
 -13354192.23847 -10315815.69146  20935384.5784                   20935384.1914
        47.5004         37.0004
 25  8  5 22 15  0.0000000  0 10G26G02G03G32G10G25G04G31G01G28
  55527733.12946  42244934.28544  24358969.4774                   24358979.9264
        37.2504         27.0004
  -7709421.69147  -5910067.25046  21764628.1884                   21764626.3244
        47.0004         36.5004
  25788508.31647  20168082.17246  22319765.6024                   22319769.0634
        43.7504         38.5004
  13057882.85547  10228404.00446  23200072.7194                   23200075.2384
        45.0004         38.5004
  12778416.93446  10025522.23845  23896815.4534                   23896822.4924
        39.5004         31.0004
  41870924.02055  33103315.52754  24470204.5314                   24470207.7934
        32.2504         24.2504
  54504502.44946  42710190.71543  23819203.0004                   23819207.5664
        41.0004         22.7504
 -24872613.41848 -19381251.18047  20462157.2734                   20462156.8054
        49.7504         46.7504
 -14272365.03547 -10913806.57445  21284107.0474                   21284107.8054
        46.5004         34.7504
 -12004634.91047  -9264212.57846  21192196.9774                   21192196.6914
        47.5004         36.5004
